$BMXDR,H,48.1,P,0,C,23.9,C,1,P,101611,P,2*69
$BMMDA,30.006,I,1.016,B,23.9,C,,,48.1,,,,,,,,,,,*39
$BMMTA,23.9,C*02
$BMMMB,30.0091,I,1.0161,B*7A
$GPTXT,01,01,02,u-blox ag - www.u-blox.com*50
$GPTXT,01,01,02,HW  UBX-G70xx   00070000 FF7FFFFFo*69
$GPTXT,01,01,02,ROM CORE 1.00 (59842) Jun 27 2012 17:43:52*59
$GPTXT,01,01,02,PROTVER 14.00*1E
$GPTXT,01,01,02,ANTSUPERV=AC SD PDoS SR*20
$GPTXT,01,01,02,ANTSTATUS=OK*3B
$GPTXT,01,01,02,LLC FFFFFFFF-FFFFFFFF-FFFFFFFF-FFFFFFFF-FFFFFFFD*2C
$GPRMC,,V,,,,,,,,,,N*53
$GPVTG,,,,,,,,,N*30
$GPGGA,,,,,,0,00,99.99,,,,,,*48
$GPGSA,A,1,,,,,,,,,,,,,99.99,99.99,99.99*30
$GPGSV,6,1,21,01,,,22,02,,,22,04,,,23,05,,,21*7D
$GPGSV,6,2,21,06,,,21,07,,,21,09,,,19,10,,,21*7C
$GPGSV,6,3,21,11,,,22,12,,,21,13,,,22,14,,,21*7B
$GPGSV,6,4,21,15,,,22,16,,,21,17,,,22,18,,,21*74
$GPGSV,6,5,21,19,,,22,20,,,21,21,,,22,22,,,22*73
$GPGSV,6,6,21,23,,,22*7B
$GPGLL,,,,,,V,N*64
$BMXDR,H,54.5,P,0,C,23.5,C,1,P,101598,P,2*6E
$BMMDA,30.002,I,1.016,B,23.5,C,,,54.5,,,,,,,,,,,*38
$BMMTA,23.5,C*0E
$BMMMB,30.0053,I,1.0160,B*75
$GPRMC,,V,,,,,,,,,,N*53
$GPVTG,,,,,,,,,N*30
$GPGGA,,,,,,0,00,99.99,,,,,,*48
$GPGSA,A,1,,,,,,,,,,,,,99.99,99.99,99.99*30
$GPGSV,5,1,19,02,,,18,04,,,20,05,,,17,06,,,17*7B
$GPGSV,5,2,19,07,,,17,09,,,16,10,,,16,11,,,18*76
$GPGSV,5,3,19,12,,,17,13,,,18,14,,,21,15,,,18*72
$GPGSV,5,4,19,16,,,17,17,,,17,19,,,18,20,,,17*74
$GPGSV,5,5,19,21,,,18,22,,,18,23,,,18*7A
$GPGLL,,,,,,V,N*64
$BMXDR,H,54.4,P,0,C,23.5,C,1,P,101598,P,2*6F
$BMMDA,30.002,I,1.016,B,23.5,C,,,54.4,,,,,,,,,,,*39
$BMMTA,23.5,C*0E
$BMMMB,30.0054,I,1.0160,B*72
$GPRMC,,V,,,,,,,,,,N*53
$GPVTG,,,,,,,,,N*30
$GPGGA,,,,,,0,00,99.99,,,,,,*48
$GPGSA,A,1,,,,,,,,,,,,,99.99,99.99,99.99*30
$GPGSV,5,1,17,02,,,12,04,,,16,05,,,12,06,,,12*7A
$GPGSV,5,2,17,07,,,11,09,,,09,11,,,13,12,,,12*7D
$GPGSV,5,3,17,14,,,19,15,,,13,16,,,12,17,,,10*71
$GPGSV,5,4,17,19,,,12,20,,,12,21,,,13,22,,,15*71
$GPGSV,5,5,17,23,,,12*7D
$GPGLL,,,,,,V,N*64
$BMXDR,H,54.5,P,0,C,23.5,C,1,P,101599,P,2*6F
$BMMDA,30.002,I,1.016,B,23.5,C,,,54.5,,,,,,,,,,,*38
$BMMTA,23.5,C*0E
$BMMMB,30.0056,I,1.0160,B*70
$GPRMC,,V,,,,,,,,,,N*53
$GPVTG,,,,,,,,,N*30
$GPGGA,,,,,,0,00,99.99,,,,,,*48
$GPGSA,A,1,,,,,,,,,,,,,99.99,99.99,99.99*30
$GPGSV,4,1,13,05,,,10,06,,,09,07,,,10,09,,,09*73
$GPGSV,4,2,13,11,,,10,14,,,17,15,,,10,16,,,09*74
$GPGSV,4,3,13,17,,,09,19,,,10,20,,,10,21,,,09*73
$GPGSV,4,4,13,22,,,13*79
$GPGLL,,,,,,V,N*64
$GPRMC,,V,,,,,,,,,,N*53
$GPVTG,,,,,,,,,N*30
$GPGGA,,,,,,0,00,99.99,,,,,,*48
$GPGSA,A,1,,,,,,,,,,,,,99.99,99.99,99.99*30
$GPGSV,3,1,11,05,,,12,06,,,10,07,,,11,09,,,08*7C
$GPGSV,3,2,11,11,,,11,14,,,12,15,,,11,17,,,09*75
$GPGSV,3,3,11,19,,,11,20,,,09,22,,,11*7A
$GPGLL,,,,,,V,N*64
$BMXDR,H,54.3,P,0,C,23.4,C,1,P,101594,P,2*65
$BMMDA,30.001,I,1.016,B,23.4,C,,,54.3,,,,,,,,,,,*3C
$BMMTA,23.4,C*0F
$BMMMB,30.0041,I,1.0159,B*7C
$GPRMC,,V,,,,,,,,,,N*53
$GPVTG,,,,,,,,,N*30
$GPGGA,,,,,,0,00,99.99,,,,,,*48
$GPGSA,A,1,,,,,,,,,,,,,99.99,99.99,99.99*30
$GPGSV,3,1,10,05,,,11,06,,,10,07,,,11,09,,,10*77
$GPGSV,3,2,10,11,,,10,14,,,09,15,,,10,17,,,10*76
$GPGSV,3,3,10,19,,,10,20,,,08*7B
$GPGLL,,,,,,V,N*64
$BMXDR,H,54.1,P,0,C,23.3,C,1,P,101605,P,2*6B
$BMMDA,30.004,I,1.016,B,23.3,C,,,54.1,,,,,,,,,,,*3C
$BMMTA,23.3,C*08
$BMMMB,30.0075,I,1.0161,B*70
$GPRMC,,V,,,,,,,,,,N*53
$GPVTG,,,,,,,,,N*30
$GPGGA,,,,,,0,00,99.99,,,,,,*48
$GPGSA,A,1,,,,,,,,,,,,,99.99,99.99,99.99*30
$GPGSV,3,1,09,05,,,11,06,,,11,07,,,11,09,,,10*7E
$GPGSV,3,2,09,10,,,33,11,,,09,17,,,11,19,,,11*77
$GPGSV,3,3,09,20,,,09*7B
$GPGLL,,,,,,V,N*64
$BMXDR,H,54.1,P,0,C,23.3,C,1,P,101606,P,2*68
$BMMDA,30.004,I,1.016,B,23.3,C,,,54.1,,,,,,,,,,,*3C
$BMMTA,23.3,C*08
$BMMMB,30.0078,I,1.0161,B*7D
$GPRMC,,V,,,,,,,,,,N*53
$GPVTG,,,,,,,,,N*30
$GPGGA,,,,,,0,00,99.99,,,,,,*48
$GPGSA,A,1,,,,,,,,,,,,,99.99,99.99,99.99*30
$GPGSV,2,1,07,05,,,10,06,,,10,07,,,09,10,,,34*76
$GPGSV,2,2,07,17,,,11,19,,,10,20,,,09*7A
$GPGLL,,,,,,V,N*64
$BMXDR,H,54.0,P,0,C,23.4,C,1,P,101606,P,2*6E
$BMMDA,30.004,I,1.016,B,23.4,C,,,54.0,,,,,,,,,,,*3A
$BMMTA,23.4,C*0F
$BMMMB,30.0077,I,1.0161,B*72
$GPRMC,,V,,,,,,,,,,N*53
$GPVTG,,,,,,,,,N*30
$GPGGA,,,,,,0,00,99.99,,,,,,*48
$GPGSA,A,1,,,,,,,,,,,,,99.99,99.99,99.99*30
$GPGSV,2,1,06,05,,,10,06,,,11,07,,,09,10,,,34*76
$GPGSV,2,2,06,17,,,09,19,,,08*70
$GPGLL,,,,,,V,N*64
$BMXDR,H,54.2,P,0,C,23.4,C,1,P,101604,P,2*6E
$BMMDA,30.004,I,1.016,B,23.4,C,,,54.2,,,,,,,,,,,*38
$BMMTA,23.4,C*0F
$BMMMB,30.0071,I,1.0160,B*75
$GPRMC,,V,,,,,,,,,,N*53
$GPVTG,,,,,,,,,N*30
$GPGGA,,,,,,0,00,99.99,,,,,,*48
$GPGSA,A,1,,,,,,,,,,,,,99.99,99.99,99.99*30
$GPGSV,1,1,04,05,,,19,07,,,08,10,,,35,19,,,08*78
$GPGLL,,,,,,V,N*64
$BMXDR,H,54.1,P,0,C,23.5,C,1,P,101601,P,2*69
$BMMDA,30.003,I,1.016,B,23.5,C,,,54.1,,,,,,,,,,,*3D
$BMMTA,23.5,C*0E
$BMMMB,30.0062,I,1.0160,B*77
$GPRMC,,V,,,,,,,,,,N*53
$GPVTG,,,,,,,,,N*30
$GPGGA,,,,,,0,00,99.99,,,,,,*48
$GPGSA,A,1,,,,,,,,,,,,,99.99,99.99,99.99*30
$GPGSV,1,1,01,10,,,37*7D
$GPGLL,,,,,,V,N*64
$BMXDR,H,53.9,P,0,C,23.5,C,1,P,101609,P,2*6E
$BMMDA,30.005,I,1.016,B,23.5,C,,,53.9,,,,,,,,,,,*34
$BMMTA,23.5,C*0E
$BMMMB,30.0085,I,1.0161,B*7F
$GPRMC,,V,,,,,,,,,,N*53
$GPVTG,,,,,,,,,N*30
$GPGGA,,,,,,0,00,99.99,,,,,,*48
$GPGSA,A,1,,,,,,,,,,,,,99.99,99.99,99.99*30
$GPGSV,1,1,01,10,,,36*7C
$GPGLL,,,,,,V,N*64
$BMXDR,H,53.8,P,0,C,23.5,C,1,P,101608,P,2*6E
$BMMDA,30.005,I,1.016,B,23.5,C,,,53.8,,,,,,,,,,,*35
$BMMTA,23.5,C*0E
$BMMMB,30.0083,I,1.0161,B*79
$GPRMC,,V,,,,,,,,,,N*53
$GPVTG,,,,,,,,,N*30
$GPGGA,,,,,,0,00,99.99,,,,,,*48
$GPGSA,A,1,,,,,,,,,,,,,99.99,99.99,99.99*30
$GPGSV,1,1,01,10,,,35*7F
$GPGLL,,,,,,V,N*64
$GPRMC,,V,,,,,,,,,,N*53
$GPVTG,,,,,,,,,N*30
$GPGGA,,,,,,0,00,99.99,,,,,,*48
$GPGSA,A,1,,,,,,,,,,,,,99.99,99.99,99.99*30
$GPGSV,1,1,01,10,,,35*7F
$GPGLL,,,,,,V,N*64
$BMXDR,H,53.8,P,0,C,23.5,C,1,P,101608,P,2*6E
$BMMDA,30.005,I,1.016,B,23.5,C,,,53.8,,,,,,,,,,,*35
$BMMTA,23.5,C*0E
$BMMMB,30.0082,I,1.0161,B*78
$GPRMC,,V,,,,,,,,,,N*53
$GPVTG,,,,,,,,,N*30
$GPGGA,,,,,,0,00,99.99,,,,,,*48
$GPGSA,A,1,,,,,,,,,,,,,99.99,99.99,99.99*30
$GPGSV,1,1,02,06,,,30,10,,,37*7B
$GPGLL,,,,,,V,N*64
$BMXDR,H,53.7,P,0,C,23.5,C,1,P,101601,P,2*68
$BMMDA,30.003,I,1.016,B,23.5,C,,,53.7,,,,,,,,,,,*3C
$BMMTA,23.5,C*0E
$BMMMB,30.0061,I,1.0160,B*74
$GPRMC,233032.46,V,,,,,,,,,,N*7C
$GPVTG,,,,,,,,,N*30
$GPGGA,233032.46,,,,,0,00,99.99,,,,,,*67
$GPGSA,A,1,,,,,,,,,,,,,99.99,99.99,99.99*30
$GPGSV,1,1,01,10,,,34*7E
$GPGLL,,,,,233032.46,V,N*4B
$BMXDR,H,53.6,P,0,C,23.5,C,1,P,101597,P,2*65
$BMMDA,30.002,I,1.016,B,23.5,C,,,53.6,,,,,,,,,,,*3C
$BMMTA,23.5,C*0E
$BMMMB,30.0050,I,1.0160,B*76
$GPRMC,233033.00,V,,,,,,,,,,N*7F
$GPVTG,,,,,,,,,N*30
$GPGGA,233033.00,,,,,0,00,99.99,,,,,,*64
$GPGSA,A,1,,,,,,,,,,,,,99.99,99.99,99.99*30
$GPGSV,1,1,01,10,,,37*7D
$GPGLL,,,,,233033.00,V,N*48
$BMXDR,H,53.7,P,0,C,23.5,C,1,P,101604,P,2*6D
$BMMDA,30.004,I,1.016,B,23.5,C,,,53.7,,,,,,,,,,,*3B
$BMMTA,23.5,C*0E
$BMMMB,30.0070,I,1.0160,B*74
$GPRMC,233034.00,V,,,,,,,,,,N*78
$GPVTG,,,,,,,,,N*30
$GPGGA,233034.00,,,,,0,00,99.99,,,,,,*63
$GPGSA,A,1,,,,,,,,,,,,,99.99,99.99,99.99*30
$GPGSV,1,1,01,10,,,36*7C
$GPGLL,,,,,233034.00,V,N*4F
$BMXDR,H,53.6,P,0,C,23.5,C,1,P,101606,P,2*6E
$BMMDA,30.004,I,1.016,B,23.5,C,,,53.6,,,,,,,,,,,*3A
$BMMTA,23.5,C*0E
$BMMMB,30.0076,I,1.0161,B*73
$GPRMC,233035.00,V,,,,,,,,,,N*79
$GPVTG,,,,,,,,,N*30
$GPGGA,233035.00,,,,,0,00,99.99,,,,,,*62
$GPGSA,A,1,,,,,,,,,,,,,99.99,99.99,99.99*30
$GPGSV,1,1,01,10,,,36*7C
$GPGLL,,,,,233035.00,V,N*4E
$GPRMC,233036.00,V,,,,,,,,,,N*7A
$GPVTG,,,,,,,,,N*30
$GPGGA,233036.00,,,,,0,00,99.99,,,,,,*61
$GPGSA,A,1,,,,,,,,,,,,,99.99,99.99,99.99*30
$GPGSV,1,1,01,10,,,37*7D
$GPGLL,,,,,233036.00,V,N*4D
$BMXDR,H,53.5,P,0,C,23.5,C,1,P,101607,P,2*6C
$BMMDA,30.005,I,1.016,B,23.5,C,,,53.5,,,,,,,,,,,*38
$BMMTA,23.5,C*0E
$BMMMB,30.0081,I,1.0161,B*7B
$GPRMC,233037.00,V,,,,,,,,,,N*7B
$GPVTG,,,,,,,,,N*30
$GPGGA,233037.00,,,,,0,00,99.99,,,,,,*60
$GPGSA,A,1,,,,,,,,,,,,,99.99,99.99,99.99*30
$GPGSV,1,1,02,07,,,29,10,,,37*72
$GPGLL,,,,,233037.00,V,N*4C
$BMXDR,H,53.5,P,0,C,23.5,C,1,P,101595,P,2*64
$BMMDA,30.001,I,1.016,B,23.5,C,,,53.5,,,,,,,,,,,*3C
$BMMTA,23.5,C*0E
$BMMMB,30.0044,I,1.0159,B*79
$GPRMC,233038.00,V,,,,,,,,,,N*74
$GPVTG,,,,,,,,,N*30
$GPGGA,233038.00,,,,,0,00,99.99,,,,,,*6F
$GPGSA,A,1,,,,,,,,,,,,,99.99,99.99,99.99*30
$GPGSV,1,1,01,10,,,37*7D
$GPGLL,,,,,233038.00,V,N*43
$BMXDR,H,53.4,P,0,C,23.4,C,1,P,101604,P,2*6F
$BMMDA,30.004,I,1.016,B,23.4,C,,,53.4,,,,,,,,,,,*39
$BMMTA,23.4,C*0F
$BMMMB,30.0071,I,1.0160,B*75
$GPRMC,233039.00,V,,,,,,,,,,N*75
$GPVTG,,,,,,,,,N*30
$GPGGA,233039.00,,,,,0,00,99.99,,,,,,*6E
$GPGSA,A,1,,,,,,,,,,,,,99.99,99.99,99.99*30
$GPGSV,1,1,01,10,,,36*7C
$GPGLL,,,,,233039.00,V,N*42
$BMXDR,H,53.5,P,0,C,23.4,C,1,P,101607,P,2*6D
$BMMDA,30.004,I,1.016,B,23.4,C,,,53.5,,,,,,,,,,,*38
$BMMTA,23.4,C*0F
$BMMMB,30.0079,I,1.0161,B*7C
$GPRMC,233040.00,V,,,,,,,,,,N*7B
$GPVTG,,,,,,,,,N*30
$GPGGA,233040.00,,,,,0,00,99.99,,,,,,*60
$GPGSA,A,1,,,,,,,,,,,,,99.99,99.99,99.99*30
$GPGSV,1,1,01,10,,,36*7C
$GPGLL,,,,,233040.00,V,N*4C
$BMXDR,H,53.7,P,0,C,23.5,C,1,P,101604,P,2*6D
$BMMDA,30.004,I,1.016,B,23.5,C,,,53.7,,,,,,,,,,,*3B
$BMMTA,23.5,C*0E
$BMMMB,30.0071,I,1.0160,B*75
$GPRMC,233041.00,V,,,,,,,,,,N*7A
$GPVTG,,,,,,,,,N*30
$GPGGA,233041.00,,,,,0,00,99.99,,,,,,*61
$GPGSA,A,1,,,,,,,,,,,,,99.99,99.99,99.99*30
$GPGSV,1,1,03,10,,,33,27,,,29,32,,,33*74
$GPGLL,,,,,233041.00,V,N*4D
$BMXDR,H,53.6,P,0,C,23.6,C,1,P,101606,P,2*6D
$BMMDA,30.004,I,1.016,B,23.6,C,,,53.6,,,,,,,,,,,*39
$BMMTA,23.6,C*0D
$BMMMB,30.0077,I,1.0161,B*72
$GPRMC,233042.00,V,,,,,,,,,,N*79
$GPVTG,,,,,,,,,N*30
$GPGGA,233042.00,,,,,0,00,99.99,,,,,,*62
$GPGSA,A,1,,,,,,,,,,,,,99.99,99.99,99.99*30
$GPGSV,1,1,03,10,,,30,27,,,25,32,,,28*71
$GPGLL,,,,,233042.00,V,N*4E
$BMXDR,H,53.6,P,0,C,23.5,C,1,P,101610,P,2*69
$BMMDA,30.005,I,1.016,B,23.5,C,,,53.6,,,,,,,,,,,*3B
$BMMTA,23.5,C*0E
$BMMMB,30.0087,I,1.0161,B*7D
$GPRMC,233043.00,V,,,,,,,,,,N*78
$GPVTG,,,,,,,,,N*30
$GPGGA,233043.00,,,,,0,00,99.99,,,,,,*63
$GPGSA,A,1,,,,,,,,,,,,,99.99,99.99,99.99*30
$GPGSV,1,1,03,10,,,29,27,,,24,32,,,28*78
$GPGLL,,,,,233043.00,V,N*4F
$BMXDR,H,53.5,P,0,C,23.4,C,1,P,101606,P,2*6C
$BMMDA,30.004,I,1.016,B,23.4,C,,,53.5,,,,,,,,,,,*38
$BMMTA,23.4,C*0F
$BMMMB,30.0077,I,1.0161,B*72
$GPRMC,233044.00,V,,,,,,,,,,N*7F
$GPVTG,,,,,,,,,N*30
$GPGGA,233044.00,,,,,0,00,99.99,,,,,,*64
$GPGSA,A,1,,,,,,,,,,,,,99.99,99.99,99.99*30
$GPGSV,1,1,03,10,,,28,27,,,30,32,,,26*72
$GPGLL,,,,,233044.00,V,N*48
$GPRMC,233045.00,V,,,,,,,,,,N*7E
$GPVTG,,,,,,,,,N*30
$GPGGA,233045.00,,,,,0,00,99.99,,,,,,*65
$GPGSA,A,1,,,,,,,,,,,,,99.99,99.99,99.99*30
$GPGSV,1,1,03,10,,,28,27,,,33,32,,,27*70
$GPGLL,,,,,233045.00,V,N*49
$BMXDR,H,53.6,P,0,C,23.4,C,1,P,101608,P,2*61
$BMMDA,30.005,I,1.016,B,23.4,C,,,53.6,,,,,,,,,,,*3A
$BMMTA,23.4,C*0F
$BMMMB,30.0082,I,1.0161,B*78
$GPRMC,233045.99,V,,,,,,,220721,,,N*7A
$GPVTG,,,,,,,,,N*30
$GPGGA,233045.99,,,,,0,00,99.99,,,,,,*65
$GPGSA,A,1,,,,,,,,,,,,,99.99,99.99,99.99*30
$GPGSV,1,1,04,08,,,20,10,,,29,27,,,34,32,,,28*74
$GPGLL,,,,,233045.99,V,N*49
$BMXDR,H,53.6,P,0,C,23.4,C,1,P,101598,P,2*6B
$BMMDA,30.002,I,1.016,B,23.4,C,,,53.6,,,,,,,,,,,*3D
$BMMTA,23.4,C*0F
$BMMMB,30.0052,I,1.0160,B*74
$GPRMC,233047.00,V,,,,,,,220721,,,N*78
$GPVTG,,,,,,,,,N*30
$GPGGA,233047.00,,,,,0,00,99.99,,,,,,*67
$GPGSA,A,1,,,,,,,,,,,,,99.99,99.99,99.99*30
$GPGSV,1,1,03,10,,,28,27,,,34,32,,,29*79
$GPGLL,,,,,233047.00,V,N*4B
$BMXDR,H,53.7,P,0,C,23.4,C,1,P,101601,P,2*69
$BMMDA,30.003,I,1.016,B,23.4,C,,,53.7,,,,,,,,,,,*3D
$BMMTA,23.4,C*0F
$BMMMB,30.0062,I,1.0160,B*77
$GPRMC,233048.00,V,,,,,,,220721,,,N*77
$GPVTG,,,,,,,,,N*30
$GPGGA,233048.00,,,,,0,00,99.99,,,,,,*68
$GPGSA,A,1,,,,,,,,,,,,,99.99,99.99,99.99*30
$GPGSV,1,1,04,09,,,23,10,,,29,27,,,34,32,,,29*77
$GPGLL,,,,,233048.00,V,N*44
$BMXDR,H,53.7,P,0,C,23.4,C,1,P,101599,P,2*6B
$BMMDA,30.002,I,1.016,B,23.4,C,,,53.7,,,,,,,,,,,*3C
$BMMTA,23.4,C*0F
$BMMMB,30.0055,I,1.0160,B*73
$GPRMC,233049.00,V,,,,,,,220721,,,N*76
$GPVTG,,,,,,,,,N*30
$GPGGA,233049.00,,,,,0,00,99.99,,,,,,*69
$GPGSA,A,1,,,,,,,,,,,,,99.99,99.99,99.99*30
$GPGSV,1,1,03,10,,,28,27,,,34,32,,,30*71
$GPGLL,,,,,233049.00,V,N*45
$BMXDR,H,53.8,P,0,C,23.4,C,1,P,101598,P,2*65
$BMMDA,30.002,I,1.016,B,23.4,C,,,53.8,,,,,,,,,,,*33
$BMMTA,23.4,C*0F
$BMMMB,30.0054,I,1.0160,B*72
$GPRMC,233050.00,V,,,,,,,220721,,,N*7E
$GPVTG,,,,,,,,,N*30
$GPGGA,233050.00,,,,,0,00,99.99,,,,,,*61
$GPGSA,A,1,,,,,,,,,,,,,99.99,99.99,99.99*30
$GPGSV,1,1,03,10,,,28,27,,,34,32,,,30*71
$GPGLL,,,,,233050.00,V,N*4D
$BMXDR,H,53.8,P,0,C,23.4,C,1,P,101611,P,2*67
$BMMDA,30.006,I,1.016,B,23.4,C,,,53.8,,,,,,,,,,,*37
$BMMTA,23.4,C*0F
$BMMMB,30.0093,I,1.0161,B*78
$GPRMC,233051.00,V,,,,,,,220721,,,N*7F
$GPVTG,,,,,,,,,N*30
$GPGGA,233051.00,,,,,0,00,99.99,,,,,,*60
$GPGSA,A,1,,,,,,,,,,,,,99.99,99.99,99.99*30
$GPGSV,1,1,03,10,,,28,27,,,34,32,,,30*71
$GPGLL,,,,,233051.00,V,N*4C
$BMXDR,H,53.9,P,0,C,23.4,C,1,P,101610,P,2*67
$BMMDA,30.005,I,1.016,B,23.4,C,,,53.9,,,,,,,,,,,*35
$BMMTA,23.4,C*0F
$BMMMB,30.0087,I,1.0161,B*7D
$GPRMC,233052.00,V,,,,,,,220721,,,N*7C
$GPVTG,,,,,,,,,N*30
$GPGGA,233052.00,,,,,0,00,99.99,,,,,,*63
$GPGSA,A,1,,,,,,,,,,,,,99.99,99.99,99.99*30
$GPGSV,1,1,03,10,,,28,27,,,31,32,,,29*7C
$GPGLL,,,,,233052.00,V,N*4F
$BMXDR,H,54.0,P,0,C,23.4,C,1,P,101613,P,2*6A
$BMMDA,30.006,I,1.016,B,23.4,C,,,54.0,,,,,,,,,,,*38
$BMMTA,23.4,C*0F
$BMMMB,30.0097,I,1.0161,B*7C
$GPRMC,233053.00,V,,,,,,,220721,,,N*7D
$GPVTG,,,,,,,,,N*30
$GPGGA,233053.00,,,,,0,00,99.99,,,,,,*62
$GPGSA,A,1,,,,,,,,,,,,,99.99,99.99,99.99*30
$GPGSV,1,1,03,10,,,28,27,,,34,32,,,30*71
$GPGLL,,,,,233053.00,V,N*4E
$GPRMC,233054.00,V,,,,,,,220721,,,N*7A
$GPVTG,,,,,,,,,N*30
$GPGGA,233054.00,,,,,0,00,99.99,,,,,,*65
$GPGSA,A,1,,,,,,,,,,,,,99.99,99.99,99.99*30
$GPGSV,1,1,03,10,,,28,27,,,34,32,,,30*71
$GPGLL,,,,,233054.00,V,N*49
$BMXDR,H,54.1,P,0,C,23.4,C,1,P,101612,P,2*6A
$BMMDA,30.006,I,1.016,B,23.4,C,,,54.1,,,,,,,,,,,*39
$BMMTA,23.4,C*0F
$BMMMB,30.0095,I,1.0161,B*7E
$GPRMC,233055.00,V,,,,,,,220721,,,N*7B
$GPVTG,,,,,,,,,N*30
$GPGGA,233055.00,,,,,0,00,99.99,,,,,,*64
$GPGSA,A,1,,,,,,,,,,,,,99.99,99.99,99.99*30
$GPGSV,1,1,03,10,,,28,27,,,34,32,,,30*71
$GPGLL,,,,,233055.00,V,N*48
$BMXDR,H,54.1,P,0,C,23.4,C,1,P,101610,P,2*68
$BMMDA,30.005,I,1.016,B,23.4,C,,,54.1,,,,,,,,,,,*3A
$BMMTA,23.4,C*0F
$BMMMB,30.0088,I,1.0161,B*72
$GPRMC,233056.00,V,,,,,,,220721,,,N*78
$GPVTG,,,,,,,,,N*30
$GPGGA,233056.00,,,,,0,03,2.69,,,,,,*59
$GPGSA,A,1,27,32,10,,,,,,,,,,2.87,2.69,1.00*04
$GPGSV,1,1,03,10,69,354,36,27,53,267,25,32,54,187,34*4D
$GPGLL,,,,,233056.00,V,N*4B
$BMXDR,H,54.2,P,0,C,23.4,C,1,P,101607,P,2*6D
$BMMDA,30.004,I,1.016,B,23.4,C,,,54.2,,,,,,,,,,,*38
$BMMTA,23.4,C*0F
$BMMMB,30.0079,I,1.0161,B*7C
$GPRMC,233057.00,V,,,,,,,220721,,,N*79
$GPVTG,,,,,,,,,N*30
$GPGGA,233057.00,,,,,0,03,2.69,,,,,,*58
$GPGSA,A,1,27,32,10,,,,,,,,,,2.87,2.69,1.00*04
$GPGSV,1,1,03,10,69,354,32,27,53,267,33,32,54,187,26*4D
$GPGLL,,,,,233057.00,V,N*4A
$BMXDR,H,54.1,P,0,C,23.5,C,1,P,101606,P,2*6E
$BMMDA,30.004,I,1.016,B,23.5,C,,,54.1,,,,,,,,,,,*3A
$BMMTA,23.5,C*0E
$BMMMB,30.0078,I,1.0161,B*7D
$GPRMC,233058.00,A,3744.94871,N,12230.51852,W,0.122,,220721,,,A*66
$GPVTG,,T,,M,0.122,N,0.227,K,A*25
$GPGGA,233058.00,3744.94871,N,12230.51852,W,1,03,2.69,2.7,M,-29.9,M,,*6B
$GPGSA,A,2,27,32,10,,,,,,,,,,2.87,2.69,1.00*07
$GPGSV,1,1,03,10,69,354,32,27,53,267,30,32,54,187,26*4E
$GPGLL,3744.94871,N,12230.51852,W,233058.00,A,A*7A
$BMXDR,H,54.2,P,0,C,23.5,C,1,P,101604,P,2*6F
$BMMDA,30.004,I,1.016,B,23.5,C,,,54.2,,,,,,,,,,,*39
$BMMTA,23.5,C*0E
$BMMMB,30.0071,I,1.0160,B*75
$GPRMC,233059.00,A,3744.94765,N,12230.51740,W,0.216,,220721,,,A*65
$GPVTG,,T,,M,0.216,N,0.400,K,A*22
$GPGGA,233059.00,3744.94765,N,12230.51740,W,1,03,2.69,1.4,M,-29.9,M,,*6C
$GPGSA,A,2,27,32,10,,,,,,,,,,2.87,2.69,1.00*07
$GPGSV,1,1,04,10,69,354,19,27,53,267,26,32,54,187,26,48,45,197,26*71
$GPGLL,3744.94765,N,12230.51740,W,233059.00,A,A*7D
$BMXDR,H,54.2,P,0,C,23.6,C,1,P,101607,P,2*6F
$BMMDA,30.005,I,1.016,B,23.6,C,,,54.2,,,,,,,,,,,*3B
$BMMTA,23.6,C*0D
$BMMMB,30.0080,I,1.0161,B*7A
$GPRMC,233100.00,A,3744.94615,N,12230.51578,W,0.365,,220721,,,A*62
$GPVTG,,T,,M,0.365,N,0.676,K,A*24
$GPGGA,233100.00,3744.94615,N,12230.51578,W,1,03,2.69,0.4,M,-29.9,M,,*6F
$GPGSA,A,2,27,32,10,,,,,,,,,,2.87,2.69,1.00*07
$GPGSV,1,1,03,10,69,354,23,27,53,267,30,32,54,187,25*4D
$GPGLL,3744.94615,N,12230.51578,W,233100.00,A,A*7F
$BMXDR,H,54.3,P,0,C,23.6,C,1,P,101613,P,2*6B
$BMMDA,30.006,I,1.016,B,23.6,C,,,54.3,,,,,,,,,,,*39
$BMMTA,23.6,C*0D
$BMMMB,30.0098,I,1.0161,B*73
$GPRMC,233101.00,A,3744.94559,N,12230.51543,W,0.610,,220721,,,A*67
$GPVTG,,T,,M,0.610,N,1.130,K,A*27
$GPGGA,233101.00,3744.94559,N,12230.51543,W,1,03,2.69,-0.7,M,-29.9,M,,*43
$GPGSA,A,2,27,32,10,,,,,,,,,,2.87,2.69,1.00*07
$GPGSV,1,1,03,10,69,354,24,27,53,267,28,32,54,187,24*42
$GPGLL,3744.94559,N,12230.51543,W,233101.00,A,A*7D
$BMXDR,H,54.1,P,0,C,23.6,C,1,P,101610,P,2*6A
$BMMDA,30.005,I,1.016,B,23.6,C,,,54.1,,,,,,,,,,,*38
$BMMTA,23.6,C*0D
$BMMMB,30.0088,I,1.0161,B*72
$GPRMC,233102.00,A,3744.94521,N,12230.51481,W,0.605,,220721,,,A*60
$GPVTG,,T,,M,0.605,N,1.120,K,A*22
$GPGGA,233102.00,3744.94521,N,12230.51481,W,1,03,2.69,-1.5,M,-29.9,M,,*43
$GPGSA,A,2,27,32,10,,,,,,,,,,2.87,2.69,1.00*07
$GPGSV,1,1,03,10,69,354,24,27,53,267,28,32,54,187,23*45
$GPGLL,3744.94521,N,12230.51481,W,233102.00,A,A*7E
$GPRMC,233103.00,A,3744.94492,N,12230.51452,W,0.331,,220721,,,A*64
$BMXDR,H,54.1,P,0,C,23.6,C,1,P,101609,P,2*62
$BMMDA,30.005,I,1.016,B,23.6,C,,,54.1,,,,,,,,,,,*38
$BMMTA,23.6,C*0D
$BMMMB,30.0085,I,1.0161,B*7F
$GPVTG,,T,,M,0.331,N,0.612,K,A*27
$GPGGA,233103.00,3744.94492,N,12230.51452,W,1,03,2.69,1.0,M,-29.9,M,,*6D
$GPGSA,A,2,27,32,10,,,,,,,,,,2.87,2.69,1.00*07
$GPGSV,1,1,03,10,69,354,31,27,53,267,28,32,54,187,24*46
$GPGLL,3744.94492,N,12230.51452,W,233103.00,A,A*78
$GPRMC,233104.00,A,3744.94583,N,12230.51626,W,0.158,,220721,,,A*6E
$GPVTG,,T,,M,0.158,N,0.292,K,A*26
$GPGGA,233104.00,3744.94583,N,12230.51626,W,1,03,2.69,2.5,M,-29.9,M,,*6C
$GPGSA,A,2,27,32,10,,,,,,,,,,2.87,2.69,1.00*07
$GPGSV,1,1,03,10,69,354,34,27,53,267,35,32,54,187,32*48
$GPGLL,3744.94583,N,12230.51626,W,233104.00,A,A*7F
$BMXDR,H,53.9,P,0,C,23.6,C,1,P,101610,P,2*65
$BMMDA,30.005,I,1.016,B,23.6,C,,,53.9,,,,,,,,,,,*37
$BMMTA,23.6,C*0D
$BMMMB,30.0089,I,1.0161,B*73
$GPRMC,233105.00,A,3744.94632,N,12230.51652,W,0.037,,220721,,,A*6D
$GPVTG,,T,,M,0.037,N,0.069,K,A*28
$GPGGA,233105.00,3744.94632,N,12230.51652,W,1,03,2.69,1.9,M,-29.9,M,,*68
$GPGSA,A,2,27,32,10,,,,,,,,,,2.87,2.69,1.00*07
$GPGSV,1,1,03,10,69,354,35,27,53,267,34,32,54,187,31*4B
$GPGLL,3744.94632,N,12230.51652,W,233105.00,A,A*74
$BMXDR,H,53.7,P,0,C,23.7,C,1,P,101609,P,2*62
$BMMDA,30.005,I,1.016,B,23.7,C,,,53.7,,,,,,,,,,,*38
$BMMTA,23.7,C*0C
$BMMMB,30.0086,I,1.0161,B*7C
$GPRMC,233106.00,A,3744.94648,N,12230.51598,W,0.162,,220721,,,A*67
$GPVTG,,T,,M,0.162,N,0.301,K,A*24
$GPGGA,233106.00,3744.94648,N,12230.51598,W,1,03,2.69,2.4,M,-29.9,M,,*6D
$GPGSA,A,2,27,32,10,,,,,,,,,,2.87,2.69,1.00*07
$GPGSV,1,1,03,10,69,354,35,27,53,267,33,32,54,187,31*4C
$GPGLL,3744.94648,N,12230.51598,W,233106.00,A,A*7F
$BMXDR,H,53.8,P,0,C,23.7,C,1,P,101611,P,2*64
$BMMDA,30.006,I,1.016,B,23.7,C,,,53.8,,,,,,,,,,,*34
$BMMTA,23.7,C*0C
$BMMMB,30.0091,I,1.0161,B*7A
$GPRMC,233107.00,A,3744.94705,N,12230.51610,W,0.111,,220721,,,A*69
$GPVTG,,T,,M,0.111,N,0.206,K,A*26
$GPGGA,233107.00,3744.94705,N,12230.51610,W,1,03,2.69,0.3,M,-29.9,M,,*62
$GPGSA,A,2,27,32,10,,,,,,,,,,2.87,2.69,1.00*07
$GPGSV,1,1,04,10,69,354,32,13,,,25,27,53,267,30,32,54,187,29*43
$GPGLL,3744.94705,N,12230.51610,W,233107.00,A,A*75
$BMXDR,H,53.9,P,0,C,23.6,C,1,P,101608,P,2*6C
$BMMDA,30.005,I,1.016,B,23.6,C,,,53.9,,,,,,,,,,,*37
$BMMTA,23.6,C*0D
$BMMMB,30.0083,I,1.0161,B*79
$GPRMC,233108.00,A,3744.94714,N,12230.51640,W,0.065,,220721,,,A*61
$GPVTG,,T,,M,0.065,N,0.121,K,A*22
$GPGGA,233108.00,3744.94714,N,12230.51640,W,1,03,2.69,-1.5,M,-29.9,M,,*42
$GPGSA,A,2,27,32,10,,,,,,,,,,2.87,2.69,1.00*07
$GPGSV,1,1,04,10,69,354,32,13,,,23,27,53,267,31,32,54,187,28*45
$GPGLL,3744.94714,N,12230.51640,W,233108.00,A,A*7F
$BMXDR,H,53.9,P,0,C,23.7,C,1,P,101610,P,2*64
$BMMDA,30.005,I,1.016,B,23.7,C,,,53.9,,,,,,,,,,,*36
$BMMTA,23.7,C*0C
$BMMMB,30.0088,I,1.0161,B*72
$GPRMC,233107.00,A,3744.94755,N,12230.51616,W,0.200,,220721,,,A*69
$GPVTG,,T,,M,0.200,N,0.371,K,A*24
$GPGGA,233107.00,3744.94755,N,12230.51616,W,1,03,2.69,1.4,M,-29.9,M,,*67
$GPGSA,A,2,27,32,10,,,,,,,,,,2.87,2.69,1.00*07
$GPGSV,1,1,04,10,69,354,35,13,,,19,27,53,267,30,32,54,187,26*44
$GPGLL,3744.94755,N,12230.51616,W,233107.00,A,A*76
$BMXDR,H,54.1,P,0,C,23.8,C,1,P,101619,P,2*6D
$BMMDA,30.008,I,1.016,B,23.8,C,,,54.1,,,,,,,,,,,*3B
$BMMTA,23.8,C*03
$BMMMB,30.0116,I,1.0162,B*77
$GPRMC,233108.00,A,3744.94779,N,12230.51604,W,0.232,,220721,,,A*6A
$GPVTG,,T,,M,0.232,N,0.430,K,A*27
$GPGGA,233108.00,3744.94779,N,12230.51604,W,1,03,2.69,5.3,M,-29.9,M,,*66
$GPGSA,A,2,27,32,10,,,,,,,,,,2.87,2.69,1.00*07
$GPGSV,1,1,03,10,69,354,35,27,53,267,30,32,54,187,24*4B
$GPGLL,3744.94779,N,12230.51604,W,233108.00,A,A*74
$BMXDR,H,53.7,P,0,C,24.0,C,1,P,101620,P,2*69
$BMMDA,30.008,I,1.016,B,24.0,C,,,53.7,,,,,,,,,,,*35
$BMMTA,24.0,C*0C
$BMMMB,30.0119,I,1.0162,B*78
$GPRMC,233109.00,A,3744.94776,N,12230.51624,W,0.082,,220721,,,A*6F
$GPVTG,,T,,M,0.082,N,0.152,K,A*2F
$GPGGA,233109.00,3744.94776,N,12230.51624,W,1,03,2.69,5.2,M,-29.9,M,,*6B
$GPGSA,A,2,27,32,10,,,,,,,,,,2.87,2.69,1.00*07
$GPGSV,1,1,03,10,69,354,35,27,53,267,29,32,54,187,24*43
$GPGLL,3744.94776,N,12230.51624,W,233109.00,A,A*78
$GPRMC,233110.00,A,3744.94774,N,12230.51636,W,0.353,,220721,,,A*69
$BMXDR,H,53.3,P,0,C,24.1,C,1,P,101618,P,2*67
$GPVTG,,T,,M,0.353,N,0.653,K,A*26
$BMMDA,30.008,I,1.016,B,24.1,C,,,53.3,,,,,,,,,,,*30
$GPGGA,233110.00,3744.94774,N,12230.51636,W,1,03,2.69,7.8,M,-29.9,M,,*6A
$BMMTA,24.1,C*0D
$GPGSA,A,2,27,32,10,,,,,,,,,,2.87,2.69,1.00*07
$BMMMB,30.0112,I,1.0162,B*73
$GPGSV,1,1,03,10,69,354,27,27,53,267,28,32,54,187,25*40
$GPGLL,3744.94774,N,12230.51636,W,233110.00,A,A*71
$GPRMC,233111.00,A,3744.94795,N,12230.51656,W,0.070,,220721,,,A*63
$GPVTG,,T,,M,0.070,N,0.129,K,A*2E
$GPGGA,233111.00,3744.94795,N,12230.51656,W,1,03,2.69,9.0,M,-29.9,M,,*64
$GPGSA,A,2,27,32,10,,,,,,,,,,2.87,2.69,1.00*07
$GPGSV,1,1,03,10,69,355,27,27,53,267,28,32,54,187,27*43
$GPGLL,3744.94795,N,12230.51656,W,233111.00,A,A*79
$BMXDR,H,52.7,P,0,C,24.2,C,1,P,101616,P,2*6F
$BMMDA,30.007,I,1.016,B,24.2,C,,,52.7,,,,,,,,,,,*39
$BMMTA,24.2,C*0E
$BMMMB,30.0107,I,1.0162,B*77
$GPRMC,233112.00,A,3744.94829,N,12230.51671,W,0.129,,220721,,,A*60
$GPVTG,,T,,M,0.129,N,0.240,K,A*2F
$GPGGA,233112.00,3744.94829,N,12230.51671,W,1,03,2.69,7.2,M,-29.9,M,,*66
$GPGSA,A,2,27,32,10,,,,,,,,,,2.87,2.69,1.00*07
$GPGSV,1,1,03,10,69,355,27,27,53,267,26,32,54,187,28*42
$GPGLL,3744.94829,N,12230.51671,W,233112.00,A,A*77
$BMXDR,H,52.3,P,0,C,24.2,C,1,P,101614,P,2*69
$BMMDA,30.006,I,1.016,B,24.2,C,,,52.3,,,,,,,,,,,*3C
$BMMTA,24.2,C*0E
$BMMMB,30.0099,I,1.0161,B*72
$GPRMC,233113.00,A,3744.94870,N,12230.51707,W,0.108,,220721,,,A*6E
$GPVTG,,T,,M,0.108,N,0.200,K,A*28
$GPGGA,233113.00,3744.94870,N,12230.51707,W,1,03,2.69,7.3,M,-29.9,M,,*6A
$GPGSA,A,2,27,32,10,,,,,,,,,,2.87,2.69,1.00*07
$GPGSV,2,1,05,10,69,355,27,18,33,112,,22,,,23,27,53,267,25*4A
$GPGSV,2,2,05,32,54,187,29*49
$GPGLL,3744.94870,N,12230.51707,W,233113.00,A,A*7A
$BMXDR,H,52.0,P,0,C,24.4,C,1,P,101611,P,2*69
$BMMDA,30.006,I,1.016,B,24.4,C,,,52.0,,,,,,,,,,,*39
$BMMTA,24.4,C*08
$BMMMB,30.0093,I,1.0161,B*78
$GPRMC,233114.00,A,3744.94908,N,12230.51718,W,0.467,,220721,,,A*65
$GPVTG,,T,,M,0.467,N,0.865,K,A*2D
$GPGGA,233114.00,3744.94908,N,12230.51718,W,1,03,2.69,6.8,M,-29.9,M,,*67
$GPGSA,A,2,27,32,10,,,,,,,,,,2.87,2.69,1.00*07
$GPGSV,1,1,04,10,69,355,28,18,33,112,,27,53,267,25,32,54,187,28*72
$GPGLL,3744.94908,N,12230.51718,W,233114.00,A,A*7D
$BMXDR,H,51.8,P,0,C,24.4,C,1,P,101612,P,2*61
$BMMDA,30.006,I,1.016,B,24.4,C,,,51.8,,,,,,,,,,,*32
$BMMTA,24.4,C*08
$BMMMB,30.0095,I,1.0161,B*7E
$GPRMC,233115.00,A,3744.94937,N,12230.51736,W,0.176,,220721,,,A*61
$GPVTG,,T,,M,0.176,N,0.327,K,A*25
$GPGGA,233115.00,3744.94937,N,12230.51736,W,1,03,2.69,6.2,M,-29.9,M,,*6C
$GPGSA,A,2,27,32,10,,,,,,,,,,2.87,2.69,1.00*07
$GPGSV,2,1,05,10,69,355,28,18,33,112,,23,,,21,27,53,267,25*46
$GPGSV,2,2,05,32,54,187,29*49
$GPGLL,3744.94937,N,12230.51736,W,233115.00,A,A*7C
$BMXDR,H,51.5,P,0,C,24.5,C,1,P,101609,P,2*67
$BMMDA,30.005,I,1.016,B,24.5,C,,,51.5,,,,,,,,,,,*3D
$BMMTA,24.5,C*09
$BMMMB,30.0085,I,1.0161,B*7F
$GPRMC,233116.00,A,3744.94986,N,12230.51762,W,0.180,,220721,,,A*60
$GPVTG,,T,,M,0.180,N,0.334,K,A*2E
$GPGGA,233116.00,3744.94986,N,12230.51762,W,1,03,2.69,6.5,M,-29.9,M,,*63
$GPGSA,A,2,27,32,10,,,,,,,,,,2.87,2.69,1.00*07
$GPGSV,1,1,04,10,69,355,28,18,33,112,,27,53,267,26,32,54,187,30*78
$GPGLL,3744.94986,N,12230.51762,W,233116.00,A,A*74
$BMXDR,H,51.1,P,0,C,24.6,C,1,P,101605,P,2*6C
$BMMDA,30.004,I,1.016,B,24.6,C,,,51.1,,,,,,,,,,,*3B
$BMMTA,24.6,C*0A
$BMMMB,30.0074,I,1.0160,B*70
$GPRMC,233117.00,A,3744.95030,N,12230.51792,W,0.061,,220721,,,A*65
$GPVTG,,T,,M,0.061,N,0.113,K,A*27
$GPGGA,233117.00,3744.95030,N,12230.51792,W,1,03,2.69,3.5,M,-29.9,M,,*6D
$GPGSA,A,2,27,32,10,,,,,,,,,,2.87,2.69,1.00*07
$GPGSV,1,1,04,10,69,355,28,18,33,112,,27,53,267,26,32,54,187,31*79
$GPGLL,3744.95030,N,12230.51792,W,233117.00,A,A*7F
$BMXDR,H,50.7,P,0,C,24.6,C,1,P,101604,P,2*6A
$BMMDA,30.004,I,1.016,B,24.6,C,,,50.7,,,,,,,,,,,*3C
$BMMTA,24.6,C*0A
$BMMMB,30.0070,I,1.0160,B*74
$GPRMC,233118.00,A,3744.95064,N,12230.51827,W,0.073,,220721,,,A*69
$GPVTG,,T,,M,0.073,N,0.135,K,A*20
$GPGGA,233118.00,3744.95064,N,12230.51827,W,1,03,2.69,5.8,M,-29.9,M,,*69
$GPGSA,A,2,27,32,10,,,,,,,,,,2.87,2.69,1.00*07
$GPGSV,2,1,05,10,69,355,29,18,33,112,,26,,,26,27,53,267,27*47
$GPGSV,2,2,05,32,54,187,30*41
$GPGLL,3744.95064,N,12230.51827,W,233118.00,A,A*70
$GPRMC,233119.00,A,3744.95085,N,12230.51839,W,0.201,,220721,,,A*6F
$BMXDR,H,50.3,P,0,C,24.7,C,1,P,101607,P,2*6C
$GPVTG,,T,,M,0.201,N,0.371,K,A*25
$BMMDA,30.005,I,1.016,B,24.7,C,,,50.3,,,,,,,,,,,*38
$GPGGA,233119.00,3744.95085,N,12230.51839,W,1,03,2.69,7.8,M,-29.9,M,,*6A
$BMMTA,24.7,C*0B
$GPGSA,A,2,27,32,10,,,,,,,,,,2.87,2.69,1.00*07
$BMMMB,30.0081,I,1.0161,B*7B
$GPGSV,1,1,04,10,69,355,29,18,33,112,,27,53,267,26,32,54,187,29*71
$GPGLL,3744.95085,N,12230.51839,W,233119.00,A,A*71
$GPRMC,233120.00,A,3744.95091,N,12230.51858,W,0.151,,220721,,,A*61
$GPVTG,,T,,M,0.151,N,0.280,K,A*2C
$GPGGA,233120.00,3744.95091,N,12230.51858,W,1,03,2.69,5.9,M,-29.9,M,,*61
$GPGSA,A,2,27,32,10,,,,,,,,,,2.87,2.69,1.00*07
$GPGSV,2,1,05,10,69,355,30,18,33,112,,27,53,267,28,28,,,20*48
$GPGSV,2,2,05,32,54,187,24*44
$GPGLL,3744.95091,N,12230.51858,W,233120.00,A,A*79
$BMXDR,H,49.9,P,0,C,24.8,C,1,P,101599,P,2*65
$BMMDA,30.002,I,1.016,B,24.8,C,,,49.9,,,,,,,,,,,*32
$BMMTA,24.8,C*04
$BMMMB,30.0056,I,1.0160,B*70
$GPRMC,233121.00,A,3744.95102,N,12230.51857,W,0.150,,220721,,,A*65
$GPVTG,,T,,M,0.150,N,0.277,K,A*25
$GPGGA,233121.00,3744.95102,N,12230.51857,W,1,03,2.69,6.1,M,-29.9,M,,*6F
$GPGSA,A,2,27,32,10,,,,,,,,,,2.87,2.69,1.00*07
$GPGSV,2,1,05,10,69,355,29,18,33,112,,27,53,267,28,29,,,20*41
$GPGSV,2,2,05,32,54,187,25*45
$GPGLL,3744.95102,N,12230.51857,W,233121.00,A,A*7C
$BMXDR,H,49.6,P,0,C,24.9,C,1,P,101609,P,2*61
$BMMDA,30.005,I,1.016,B,24.9,C,,,49.6,,,,,,,,,,,*3B
$BMMTA,24.9,C*05
$BMMMB,30.0086,I,1.0161,B*7C
$GPRMC,233122.00,A,3744.95095,N,12230.51839,W,0.772,,220721,,,A*67
$GPVTG,,T,,M,0.772,N,1.429,K,A*2F
$GPGGA,233122.00,3744.95095,N,12230.51839,W,1,03,2.69,6.0,M,-29.9,M,,*6A
$GPGSA,A,2,27,32,10,,,,,,,,,,2.87,2.69,1.00*07
$GPGSV,1,1,04,10,69,355,29,18,33,112,,27,53,267,26,32,54,187,24*7C
$GPGLL,3744.95095,N,12230.51839,W,233122.00,A,A*78
$BMXDR,H,49.3,P,0,C,24.9,C,1,P,101607,P,2*6A
$BMMDA,30.005,I,1.016,B,24.9,C,,,49.3,,,,,,,,,,,*3E
$BMMTA,24.9,C*05
$BMMMB,30.0080,I,1.0161,B*7A
$GPRMC,233123.00,A,3744.95074,N,12230.51803,W,1.374,,220721,,,A*63
$GPVTG,,T,,M,1.374,N,2.544,K,A*25
$GPGGA,233123.00,3744.95074,N,12230.51803,W,1,03,2.69,5.4,M,-29.9,M,,*6A
$GPGSA,A,2,27,32,10,,,,,,,,,,2.87,2.69,1.00*07
$GPGSV,2,1,05,10,69,355,27,18,33,112,,27,53,267,23,30,,,22*4E
$GPGSV,2,2,05,32,54,187,22*42
$GPGLL,3744.95074,N,12230.51803,W,233123.00,A,A*7F
$BMXDR,H,49.3,P,0,C,24.7,C,1,P,101601,P,2*62
$BMMDA,30.003,I,1.016,B,24.7,C,,,49.3,,,,,,,,,,,*36
$BMMTA,24.7,C*0B
$BMMMB,30.0062,I,1.0160,B*77
$GPRMC,233124.00,A,3744.95040,N,12230.51800,W,1.236,,220721,,,A*67
$GPVTG,,T,,M,1.236,N,2.290,K,A*2C
$GPGGA,233124.00,3744.95040,N,12230.51800,W,1,03,2.69,4.4,M,-29.9,M,,*68
$GPGSA,A,2,27,32,10,,,,,,,,,,2.87,2.69,1.00*07
$GPGSV,2,1,05,10,69,355,26,18,33,112,,27,53,267,21,31,,,20*4E
$GPGSV,2,2,05,32,54,187,19*4A
$GPGLL,3744.95040,N,12230.51800,W,233124.00,A,A*7C
$BMXDR,H,49.4,P,0,C,24.6,C,1,P,101603,P,2*66
$BMMDA,30.003,I,1.016,B,24.6,C,,,49.4,,,,,,,,,,,*30
$BMMTA,24.6,C*0A
$BMMMB,30.0067,I,1.0160,B*72
$GPRMC,233125.00,A,3744.95024,N,12230.51804,W,0.856,,220721,,,A*6D
$GPVTG,,T,,M,0.856,N,1.584,K,A*20
$GPGGA,233125.00,3744.95024,N,12230.51804,W,1,03,2.69,5.5,M,-29.9,M,,*6F
$GPGSA,A,2,27,32,10,,,,,,,,,,2.87,2.69,1.00*07
$GPGSV,1,1,04,10,69,355,25,18,33,112,21,27,53,267,19,32,54,187,16*7E
$GPGLL,3744.95024,N,12230.51804,W,233125.00,A,A*7B
$BMXDR,H,49.6,P,0,C,24.4,C,1,P,101603,P,2*66
$BMMDA,30.003,I,1.016,B,24.4,C,,,49.6,,,,,,,,,,,*30
$BMMTA,24.4,C*08
$BMMMB,30.0067,I,1.0160,B*72
$GPRMC,233126.00,A,3744.95000,N,12230.51824,W,0.982,,220721,,,A*62
$GPVTG,,T,,M,0.982,N,1.819,K,A*21
$GPGGA,233126.00,3744.95000,N,12230.51824,W,1,03,2.69,6.1,M,-29.9,M,,*6F
$GPGSA,A,2,27,32,10,,,,,,,,,,2.87,2.69,1.00*07
$GPGSV,1,1,04,10,69,355,25,18,33,112,22,27,53,267,18,32,54,187,14*7E
$GPGLL,3744.95000,N,12230.51824,W,233126.00,A,A*7C
$BMXDR,H,49.6,P,0,C,24.3,C,1,P,101610,P,2*63
$BMMDA,30.005,I,1.016,B,24.3,C,,,49.6,,,,,,,,,,,*31
$BMMTA,24.3,C*0F
$BMMMB,30.0089,I,1.0161,B*73
$GPRMC,233127.00,A,3744.95022,N,12230.51828,W,0.133,,220721,,,A*6D
$GPVTG,,T,,M,0.133,N,0.246,K,A*22
$GPGGA,233127.00,3744.95022,N,12230.51828,W,1,03,2.69,6.3,M,-29.9,M,,*60
$GPGSA,A,2,27,32,10,,,,,,,,,,2.87,2.69,1.00*07
$GPGSV,1,1,04,10,69,355,25,18,33,112,22,27,53,267,18,32,54,187,14*7E
$GPGLL,3744.95022,N,12230.51828,W,233127.00,A,A*71
$GPRMC,233128.00,A,3744.95257,N,12230.52035,W,3.975,,220721,,,A*6C
$BMXDR,H,49.7,P,0,C,24.1,C,1,P,101599,P,2*62
$GPVTG,,T,,M,3.975,N,7.362,K,A*2B
$BMMDA,30.002,I,1.016,B,24.1,C,,,49.7,,,,,,,,,,,*35
$GPGGA,233128.00,3744.95257,N,12230.52035,W,1,03,2.69,6.0,M,-29.9,M,,*6B
$BMMTA,24.1,C*0D
$GPGSA,A,2,27,32,10,,,,,,,,,,2.87,2.69,1.00*07
$BMMMB,30.0056,I,1.0160,B*70
$GPGSV,1,1,04,10,69,355,25,18,33,112,22,27,53,267,18,32,54,187,14*7E
$GPGLL,3744.95257,N,12230.52035,W,233128.00,A,A*79
$GPRMC,233129.00,A,3744.95180,N,12230.52057,W,1.956,,220721,,,A*63
$GPVTG,,T,,M,1.956,N,3.622,K,A*2D
$GPGGA,233129.00,3744.95180,N,12230.52057,W,1,03,2.69,4.9,M,-29.9,M,,*6C
$GPGSA,A,2,27,32,10,,,,,,,,,,2.87,2.69,1.00*07
$GPGSV,1,1,04,10,69,355,25,18,33,112,21,27,53,267,18,32,54,187,15*7C
$GPGLL,3744.95180,N,12230.52057,W,233129.00,A,A*75
$BMXDR,H,49.8,P,0,C,24.1,C,1,P,101614,P,2*6B
$BMMDA,30.007,I,1.016,B,24.1,C,,,49.8,,,,,,,,,,,*3F
$BMMTA,24.1,C*0D
$BMMMB,30.0102,I,1.0161,B*71
$GPRMC,233130.00,A,3744.95092,N,12230.52022,W,1.386,,220721,,,A*6C
$GPVTG,,T,,M,1.386,N,2.566,K,A*28
$GPGGA,233130.00,3744.95092,N,12230.52022,W,1,03,2.69,3.7,M,-29.9,M,,*6D
$GPGSA,A,2,27,32,10,,,,,,,,,,2.87,2.69,1.00*07
$GPGSV,1,1,04,10,69,355,26,18,33,112,22,27,53,267,18,32,54,187,14*7D
$GPGLL,3744.95092,N,12230.52022,W,233130.00,A,A*7D
$BMXDR,H,50.1,P,0,C,24.1,C,1,P,101612,P,2*6C
$BMMDA,30.006,I,1.016,B,24.1,C,,,50.1,,,,,,,,,,,*3F
$BMMTA,24.1,C*0D
$BMMMB,30.0094,I,1.0161,B*7F
$GPRMC,233131.00,A,3744.95155,N,12230.52018,W,0.590,,220721,,,A*6E
$GPVTG,,T,,M,0.590,N,1.093,K,A*24
$GPGGA,233131.00,3744.95155,N,12230.52018,W,1,03,2.68,3.3,M,-29.9,M,,*6A
$GPGSA,A,2,27,32,10,,,,,,,,,,2.87,2.68,1.00*06
$GPGSV,1,1,04,10,69,355,26,18,33,113,22,27,53,267,18,32,54,187,16*7E
$GPGLL,3744.95155,N,12230.52018,W,233131.00,A,A*7F
$BMXDR,H,50.1,P,0,C,24.0,C,1,P,101597,P,2*63
$BMMDA,30.002,I,1.016,B,24.0,C,,,50.1,,,,,,,,,,,*3A
$BMMTA,24.0,C*0C
$BMMMB,30.0050,I,1.0160,B*76
$GPRMC,233132.00,A,3744.95104,N,12230.52013,W,0.762,,220721,,,A*6D
$GPVTG,,T,,M,0.762,N,1.411,K,A*25
$GPGGA,233132.00,3744.95104,N,12230.52013,W,1,03,2.68,2.3,M,-29.9,M,,*67
$GPGSA,A,2,27,32,10,,,,,,,,,,2.86,2.68,1.00*07
$GPGSV,2,1,05,10,69,355,26,18,33,113,22,27,53,267,19,32,54,187,16*7D
$GPGSV,2,2,05,51,43,156,34*4A
$GPGLL,3744.95104,N,12230.52013,W,233132.00,A,A*73
$BMXDR,H,50.3,P,0,C,23.9,C,1,P,101609,P,2*6B
$BMMDA,30.005,I,1.016,B,23.9,C,,,50.3,,,,,,,,,,,*31
$BMMTA,23.9,C*02
$BMMMB,30.0086,I,1.0161,B*7C
$GPRMC,233133.00,A,3744.95179,N,12230.52003,W,0.744,,220721,,,A*63
$GPVTG,,T,,M,0.744,N,1.378,K,A*29
$GPGGA,233133.00,3744.95179,N,12230.52003,W,1,03,2.68,2.4,M,-29.9,M,,*6A
$GPGSA,A,2,27,32,10,,,,,,,,,,2.86,2.68,1.00*07
$GPGSV,2,1,05,10,69,355,26,18,33,113,22,27,53,267,19,32,55,187,16*7C
$GPGSV,2,2,05,51,43,156,34*4A
$GPGLL,3744.95179,N,12230.52003,W,233133.00,A,A*79
$BMXDR,H,50.6,P,0,C,23.8,C,1,P,101610,P,2*67
$BMMDA,30.006,I,1.016,B,23.8,C,,,50.6,,,,,,,,,,,*36
$BMMTA,23.8,C*03
$BMMMB,30.0090,I,1.0161,B*7B
$GPRMC,233134.00,A,3744.95137,N,12230.52064,W,0.974,,220721,,,A*62
$GPVTG,,T,,M,0.974,N,1.804,K,A*24
$GPGGA,233134.00,3744.95137,N,12230.52064,W,1,03,2.68,1.6,M,-29.9,M,,*67
$GPGSA,A,2,27,32,10,,,,,,,,,,2.86,2.68,1.00*07
$GPGSV,2,1,05,10,69,355,26,18,33,113,22,27,53,267,19,32,55,187,15*7F
$GPGSV,2,2,05,51,43,156,34*4A
$GPGLL,3744.95137,N,12230.52064,W,233134.00,A,A*75
$BMXDR,H,51.0,P,0,C,23.7,C,1,P,101610,P,2*6F
$BMMDA,30.005,I,1.016,B,23.7,C,,,51.0,,,,,,,,,,,*3D
$BMMTA,23.7,C*0C
$BMMMB,30.0087,I,1.0161,B*7D
$GPRMC,233135.00,A,3744.95235,N,12230.52122,W,1.204,,220721,,,A*6C
$GPVTG,,T,,M,1.204,N,2.229,K,A*2F
$GPGGA,233135.00,3744.95235,N,12230.52122,W,1,03,2.68,2.3,M,-29.9,M,,*62
$GPGSA,A,2,27,32,10,,,,,,,,,,2.86,2.68,1.00*07
$GPGSV,2,1,05,10,69,355,26,18,33,113,22,27,53,267,19,32,55,187,15*7F
$GPGSV,2,2,05,51,43,156,34*4A
$GPGLL,3744.95235,N,12230.52122,W,233135.00,A,A*76
$BMXDR,H,51.2,P,0,C,23.8,C,1,P,101613,P,2*61
$BMMDA,30.006,I,1.016,B,23.8,C,,,51.2,,,,,,,,,,,*33
$BMMTA,23.8,C*03
$BMMMB,30.0098,I,1.0161,B*73
$GPRMC,233136.00,A,3744.95243,N,12230.52133,W,0.591,,220721,,,A*64
$GPVTG,,T,,M,0.591,N,1.095,K,A*23
$GPGGA,233136.00,3744.95243,N,12230.52133,W,1,03,2.68,2.0,M,-29.9,M,,*63
$GPGSA,A,2,27,32,10,,,,,,,,,,2.86,2.68,1.00*07
$GPGSV,2,1,05,10,69,355,26,18,33,113,22,27,53,267,19,32,55,187,16*7C
$GPGSV,2,2,05,51,43,156,34*4A
$GPGLL,3744.95243,N,12230.52133,W,233136.00,A,A*74
$GPRMC,233137.00,A,3744.95214,N,12230.52078,W,0.633,,220721,,,A*62
$BMXDR,H,51.3,P,0,C,23.6,C,1,P,101592,P,2*64
$GPVTG,,T,,M,0.633,N,1.173,K,A*21
$BMMDA,30.000,I,1.016,B,23.6,C,,,51.3,,,,,,,,,,,*3A
$GPGGA,233137.00,3744.95214,N,12230.52078,W,1,03,2.68,1.5,M,-29.9,M,,*68
$BMMTA,23.6,C*0D
$GPGSA,A,2,27,32,10,,,,,,,,,,2.86,2.68,1.00*07
$BMMMB,30.0035,I,1.0159,B*7F
$GPGSV,2,1,05,10,69,355,26,18,33,113,21,27,53,267,19,32,55,187,19*70
$GPGSV,2,2,05,51,43,156,34*4A
$GPGLL,3744.95214,N,12230.52078,W,233137.00,A,A*79
$GPRMC,233138.00,A,3744.95304,N,12230.52090,W,1.140,,220721,,,A*69
$GPVTG,,T,,M,1.140,N,2.111,K,A*24
$GPGGA,233138.00,3744.95304,N,12230.52090,W,1,03,2.68,1.8,M,-29.9,M,,*6C
$GPGSA,A,2,27,32,10,,,,,,,,,,2.86,2.68,1.00*07
$GPGSV,2,1,05,10,69,355,27,18,33,113,22,27,53,267,20,32,55,187,20*72
$GPGSV,2,2,05,51,43,156,34*4A
$GPGLL,3744.95304,N,12230.52090,W,233138.00,A,A*70
$BMXDR,H,51.4,P,0,C,23.6,C,1,P,101606,P,2*6D
$BMMDA,30.004,I,1.016,B,23.6,C,,,51.4,,,,,,,,,,,*39
$BMMTA,23.6,C*0D
$BMMMB,30.0077,I,1.0161,B*72
$GPRMC,233139.00,A,3744.95333,N,12230.52061,W,1.020,,220721,,,A*65
$GPVTG,,T,,M,1.020,N,1.889,K,A*28
$GPGGA,233139.00,3744.95333,N,12230.52061,W,1,03,2.68,2.4,M,-29.9,M,,*68
$GPGSA,A,2,27,32,10,,,,,,,,,,2.86,2.68,1.00*07
$GPGSV,2,1,05,10,69,355,27,18,33,113,21,27,53,267,20,32,55,187,20*71
$GPGSV,2,2,05,51,43,156,34*4A
$GPGLL,3744.95333,N,12230.52061,W,233139.00,A,A*7B
$BMXDR,H,51.6,P,0,C,23.6,C,1,P,101608,P,2*61
$BMMDA,30.005,I,1.016,B,23.6,C,,,51.6,,,,,,,,,,,*3A
$BMMTA,23.6,C*0D
$BMMMB,30.0083,I,1.0161,B*79
$GPRMC,233140.00,A,3744.95349,N,12230.52064,W,0.734,,220721,,,A*60
$GPVTG,,T,,M,0.734,N,1.359,K,A*2D
$GPGGA,233140.00,3744.95349,N,12230.52064,W,1,03,2.68,2.3,M,-29.9,M,,*69
$GPGSA,A,2,27,32,10,,,,,,,,,,2.86,2.68,1.00*07
$GPGSV,2,1,05,10,69,355,27,18,33,113,21,27,53,267,20,32,55,187,19*7B
$GPGSV,2,2,05,51,43,156,35*4B
$GPGLL,3744.95349,N,12230.52064,W,233140.00,A,A*7D
$BMXDR,H,51.7,P,0,C,23.5,C,1,P,101608,P,2*63
$BMMDA,30.005,I,1.016,B,23.5,C,,,51.7,,,,,,,,,,,*38
$BMMTA,23.5,C*0E
$BMMMB,30.0083,I,1.0161,B*79
$GPRMC,233141.00,A,3744.95411,N,12230.52095,W,0.799,,220721,,,A*62
$GPVTG,,T,,M,0.799,N,1.480,K,A*29
$GPGGA,233141.00,3744.95411,N,12230.52095,W,1,03,2.68,2.5,M,-29.9,M,,*6A
$GPGSA,A,2,27,32,10,,,,,,,,,,2.86,2.68,1.00*07
$GPGSV,2,1,05,10,69,355,27,18,33,113,20,27,53,267,21,32,55,187,20*71
$GPGSV,2,2,05,51,43,156,34*4A
$GPGLL,3744.95411,N,12230.52095,W,233141.00,A,A*78
$BMXDR,H,51.8,P,0,C,23.5,C,1,P,101607,P,2*63
$BMMDA,30.005,I,1.016,B,23.5,C,,,51.8,,,,,,,,,,,*37
$BMMTA,23.5,C*0E
$BMMMB,30.0080,I,1.0161,B*7A
$GPRMC,233142.00,A,3744.95367,N,12230.52149,W,1.350,,220721,,,A*67
$GPVTG,,T,,M,1.350,N,2.500,K,A*23
$GPGGA,233142.00,3744.95367,N,12230.52149,W,1,03,2.68,2.0,M,-29.9,M,,*6A
$GPGSA,A,2,27,32,10,,,,,,,,,,2.86,2.68,1.00*07
$GPGSV,2,1,05,10,69,355,27,18,33,113,20,27,53,267,20,32,55,187,20*70
$GPGSV,2,2,05,51,43,156,34*4A
$GPGLL,3744.95367,N,12230.52149,W,233142.00,A,A*7D
$BMXDR,H,51.9,P,0,C,23.3,C,1,P,101605,P,2*66
$BMMDA,30.004,I,1.016,B,23.3,C,,,51.9,,,,,,,,,,,*31
$BMMTA,23.3,C*08
$BMMMB,30.0074,I,1.0160,B*70
$GPRMC,233143.00,A,3744.95477,N,12230.52294,W,2.195,,220721,,,A*6B
$GPVTG,,T,,M,2.195,N,4.066,K,A*28
$GPGGA,233143.00,3744.95477,N,12230.52294,W,1,03,2.68,2.0,M,-29.9,M,,*6E
$GPGSA,A,2,27,32,10,,,,,,,,,,2.86,2.68,1.00*07
$GPGSV,2,1,05,10,69,355,27,18,33,113,20,27,53,267,20,32,55,187,20*70
$GPGSV,2,2,05,51,43,156,34*4A
$GPGLL,3744.95477,N,12230.52294,W,233143.00,A,A*79
$BMXDR,H,52.2,P,0,C,23.2,C,1,P,101601,P,2*6B
$BMMDA,30.003,I,1.016,B,23.2,C,,,52.2,,,,,,,,,,,*3F
$BMMTA,23.2,C*09
$BMMMB,30.0062,I,1.0160,B*77
$GPRMC,233144.00,A,3744.95502,N,12230.52341,W,1.786,,220721,,,A*61
$GPVTG,,T,,M,1.786,N,3.307,K,A*2C
$GPGGA,233144.00,3744.95502,N,12230.52341,W,1,03,2.68,2.6,M,-29.9,M,,*65
$GPGSA,A,2,27,32,10,,,,,,,,,,2.86,2.68,1.00*07
$GPGSV,2,1,05,10,69,355,27,18,33,113,20,27,53,267,20,32,55,187,20*70
$GPGSV,2,2,05,51,43,156,33*4D
$GPGLL,3744.95502,N,12230.52341,W,233144.00,A,A*74
$BMXDR,H,52.3,P,0,C,23.2,C,1,P,101595,P,2*64
$BMMDA,30.001,I,1.016,B,23.2,C,,,52.3,,,,,,,,,,,*3C
$BMMTA,23.2,C*09
$BMMMB,30.0043,I,1.0159,B*7E
$GPRMC,233145.00,A,3744.95500,N,12230.52287,W,0.659,,220721,,,A*6B
$GPVTG,,T,,M,0.659,N,1.220,K,A*28
$GPGGA,233145.00,3744.95500,N,12230.52287,W,1,03,2.68,3.0,M,-29.9,M,,*6A
$GPGSA,A,2,27,32,10,,,,,,,,,,2.86,2.68,1.00*07
$GPGSV,2,1,05,10,69,355,27,18,33,113,18,27,53,267,20,32,55,187,23*78
$GPGSV,2,2,05,51,43,156,32*4C
$GPGLL,3744.95500,N,12230.52287,W,233145.00,A,A*7C
$GPRMC,233146.00,A,3744.95489,N,12230.52222,W,0.385,,220721,,,A*63
$BMXDR,H,52.5,P,0,C,23.2,C,1,P,101613,P,2*6F
$BMMDA,30.006,I,1.016,B,23.2,C,,,52.5,,,,,,,,,,,*3D
$BMMTA,23.2,C*09
$BMMMB,30.0099,I,1.0161,B*72
$GPVTG,,T,,M,0.385,N,0.713,K,A*28
$GPGGA,233146.00,3744.95489,N,12230.52222,W,1,03,2.68,2.8,M,-29.9,M,,*6F
$GPGSA,A,2,27,32,10,,,,,,,,,,2.86,2.68,1.00*07
$GPGSV,2,1,05,10,69,355,27,18,33,113,16,27,53,267,20,32,55,187,26*73
$GPGSV,2,2,05,51,43,156,33*4D
$GPGLL,3744.95489,N,12230.52222,W,233146.00,A,A*70
$GPRMC,233147.00,A,3744.95488,N,12230.52230,W,0.096,,220721,,,A*61
$GPVTG,,T,,M,0.096,N,0.178,K,A*22
$GPGGA,233147.00,3744.95488,N,12230.52230,W,1,03,2.68,2.3,M,-29.9,M,,*67
$GPGSA,A,2,27,32,10,,,,,,,,,,2.86,2.68,1.00*07
$GPGSV,2,1,05,10,69,356,28,18,33,113,14,27,53,267,20,32,55,187,27*7C
$GPGSV,2,2,05,51,43,156,33*4D
$GPGLL,3744.95488,N,12230.52230,W,233147.00,A,A*73
$BMXDR,H,52.6,P,0,C,23.2,C,1,P,101610,P,2*6F
$BMMDA,30.006,I,1.016,B,23.2,C,,,52.6,,,,,,,,,,,*3E
$BMMTA,23.2,C*09
$BMMMB,30.0090,I,1.0161,B*7B
$GPRMC,233148.00,A,3744.95524,N,12230.52355,W,1.436,,220721,,,A*64
$GPVTG,,T,,M,1.436,N,2.660,K,A*21
$GPGGA,233148.00,3744.95524,N,12230.52355,W,1,03,2.68,3.5,M,-29.9,M,,*6A
$GPGSA,A,2,27,32,10,,,,,,,,,,2.86,2.68,1.00*07
$GPGSV,2,1,05,10,69,356,28,18,33,113,13,27,53,267,19,32,55,187,27*71
$GPGSV,2,2,05,51,43,156,33*4D
$GPGLL,3744.95524,N,12230.52355,W,233148.00,A,A*79
$BMXDR,H,52.7,P,0,C,23.1,C,1,P,101609,P,2*65
$BMMDA,30.005,I,1.016,B,23.1,C,,,52.7,,,,,,,,,,,*3F
$BMMTA,23.1,C*0A
$BMMMB,30.0087,I,1.0161,B*7D
$GPRMC,233149.00,A,3744.95534,N,12230.52398,W,1.366,,220721,,,A*67
$GPVTG,,T,,M,1.366,N,2.530,K,A*25
$GPGGA,233149.00,3744.95534,N,12230.52398,W,1,03,2.68,2.9,M,-29.9,M,,*66
$GPGSA,A,2,27,32,10,,,,,,,,,,2.86,2.68,1.00*07
$GPGSV,2,1,05,10,69,356,27,18,33,113,17,27,53,267,19,32,55,187,25*78
$GPGSV,2,2,05,51,43,156,33*4D
$GPGLL,3744.95534,N,12230.52398,W,233149.00,A,A*78
$BMXDR,H,52.9,P,0,C,23.1,C,1,P,101612,P,2*61
$BMMDA,30.006,I,1.016,B,23.1,C,,,52.9,,,,,,,,,,,*32
$BMMTA,23.1,C*0A
$BMMMB,30.0095,I,1.0161,B*7E
$GPRMC,233150.00,A,3744.95527,N,12230.52410,W,0.733,,220721,,,A*6F
$GPVTG,,T,,M,0.733,N,1.358,K,A*2B
$GPGGA,233150.00,3744.95527,N,12230.52410,W,1,03,2.68,-2.2,M,-29.9,M,,*4D
$GPGSA,A,2,27,32,10,,,,,,,,,,2.86,2.68,1.00*07
$GPGSV,2,1,05,10,69,356,28,18,33,113,18,27,53,267,21,32,55,187,23*75
$GPGSV,2,2,05,51,43,156,34*4A
$GPGLL,3744.95527,N,12230.52410,W,233150.00,A,A*75
$BMXDR,H,52.9,P,0,C,23.0,C,1,P,101597,P,2*6E
$BMMDA,30.002,I,1.016,B,23.0,C,,,52.9,,,,,,,,,,,*37
$BMMTA,23.0,C*0B
$BMMMB,30.0051,I,1.0160,B*77
$GPRMC,233151.00,A,3744.95565,N,12230.52508,W,1.664,,220721,,,A*62
$GPVTG,,T,,M,1.664,N,3.082,K,A*2F
$GPGGA,233151.00,3744.95565,N,12230.52508,W,1,03,2.68,-1.0,M,-29.9,M,,*43
$GPGSA,A,2,27,32,10,,,,,,,,,,2.86,2.68,1.00*07
$GPGSV,2,1,05,10,69,356,28,18,33,113,20,27,53,266,21,32,55,187,21*7D
$GPGSV,2,2,05,51,43,156,34*4A
$GPGLL,3744.95565,N,12230.52508,W,233151.00,A,A*7A
$BMXDR,H,53.0,P,0,C,23.0,C,1,P,101601,P,2*6A
$BMMDA,30.003,I,1.016,B,23.0,C,,,53.0,,,,,,,,,,,*3E
$BMMTA,23.0,C*0B
$BMMMB,30.0063,I,1.0160,B*76
$GPRMC,233152.00,A,3744.95573,N,12230.52431,W,0.581,,220721,,,A*64
$GPVTG,,T,,M,0.581,N,1.076,K,A*2F
$GPGGA,233152.00,3744.95573,N,12230.52431,W,1,03,2.68,2.7,M,-29.9,M,,*65
$GPGSA,A,2,27,32,10,,,,,,,,,,2.86,2.68,1.00*07
$GPGSV,2,1,05,10,69,356,28,18,33,113,19,27,53,266,21,32,55,187,20*76
$GPGSV,2,2,05,51,43,156,34*4A
$GPGLL,3744.95573,N,12230.52431,W,233152.00,A,A*75
$BMXDR,H,53.1,P,0,C,22.9,C,1,P,101597,P,2*6F
$BMMDA,30.002,I,1.016,B,22.9,C,,,53.1,,,,,,,,,,,*36
$BMMTA,22.9,C*03
$BMMMB,30.0050,I,1.0160,B*76
$GPRMC,233153.00,A,3744.95535,N,12230.52317,W,1.387,,220721,,,A*65
$GPVTG,,T,,M,1.387,N,2.568,K,A*27
$GPGGA,233153.00,3744.95535,N,12230.52317,W,1,03,2.68,2.5,M,-29.9,M,,*67
$GPGSA,A,2,27,32,10,,,,,,,,,,2.86,2.68,1.00*07
$GPGSV,2,1,05,10,69,356,29,18,33,113,19,27,53,266,21,32,55,187,20*77
$GPGSV,2,2,05,51,43,156,34*4A
$GPGLL,3744.95535,N,12230.52317,W,233153.00,A,A*75
$BMXDR,H,53.1,P,0,C,22.9,C,1,P,101607,P,2*65
$BMMDA,30.004,I,1.016,B,22.9,C,,,53.1,,,,,,,,,,,*30
$BMMTA,22.9,C*03
$BMMMB,30.0079,I,1.0161,B*7C
$GPRMC,233154.00,A,3744.95555,N,12230.52297,W,1.355,,220721,,,A*62
$GPVTG,,T,,M,1.355,N,2.510,K,A*27
$GPGGA,233154.00,3744.95555,N,12230.52297,W,1,03,2.68,1.8,M,-29.9,M,,*61
$GPGSA,A,2,27,32,10,,,,,,,,,,2.86,2.68,1.00*07
$GPGSV,2,1,05,10,69,356,28,18,33,113,19,27,53,266,22,32,55,187,19*7F
$GPGSV,2,2,05,51,43,156,33*4D
$GPGLL,3744.95555,N,12230.52297,W,233154.00,A,A*7D
$GPRMC,233155.00,A,3744.95644,N,12230.52310,W,2.102,,220721,,,A*6D
$BMXDR,H,53.3,P,0,C,22.9,C,1,P,101609,P,2*69
$GPVTG,,T,,M,2.102,N,3.892,K,A*22
$BMMDA,30.005,I,1.016,B,22.9,C,,,53.3,,,,,,,,,,,*33
$GPGGA,233155.00,3744.95644,N,12230.52310,W,1,03,2.68,1.5,M,-29.9,M,,*60
$BMMTA,22.9,C*03
$GPGSA,A,2,27,32,10,,,,,,,,,,2.86,2.68,1.00*07
$BMMMB,30.0086,I,1.0161,B*7C
$GPGSV,2,1,05,10,69,356,28,18,33,113,19,27,53,266,21,32,55,187,18*7D
$GPGSV,2,2,05,51,43,156,33*4D
$GPGLL,3744.95644,N,12230.52310,W,233155.00,A,A*71
$GPRMC,233156.00,A,3744.95714,N,12230.52439,W,1.983,,220721,,,A*64
$GPVTG,,T,,M,1.983,N,3.673,K,A*21
$GPGGA,233156.00,3744.95714,N,12230.52439,W,1,03,2.68,1.6,M,-29.9,M,,*68
$GPGSA,A,2,27,32,10,,,,,,,,,,2.86,2.68,1.00*07
$GPGSV,2,1,05,10,69,356,28,18,33,113,20,27,53,266,21,32,55,187,18*77
$GPGSV,2,2,05,51,43,156,34*4A
$GPGLL,3744.95714,N,12230.52439,W,233156.00,A,A*7A
$BMXDR,H,53.3,P,0,C,22.9,C,1,P,101608,P,2*68
$BMMDA,30.005,I,1.016,B,22.9,C,,,53.3,,,,,,,,,,,*33
$BMMTA,22.9,C*03
$BMMMB,30.0082,I,1.0161,B*78
$GPRMC,233157.00,A,3744.95694,N,12230.52458,W,0.935,,220721,,,A*67
$GPVTG,,T,,M,0.935,N,1.731,K,A*28
$GPGGA,233157.00,3744.95694,N,12230.52458,W,1,03,2.68,2.2,M,-29.9,M,,*60
$GPGSA,A,2,27,32,10,,,,,,,,,,2.86,2.68,1.00*07
$GPGSV,2,1,05,10,69,356,28,18,33,113,19,27,53,266,21,32,55,187,21*77
$GPGSV,2,2,05,51,43,156,33*4D
$GPGLL,3744.95694,N,12230.52458,W,233157.00,A,A*75
$BMXDR,H,53.5,P,0,C,22.7,C,1,P,101599,P,2*6B
$BMMDA,30.002,I,1.016,B,22.7,C,,,53.5,,,,,,,,,,,*3C
$BMMTA,22.7,C*0D
$BMMMB,30.0056,I,1.0160,B*70
$GPRMC,233158.00,A,3744.95668,N,12230.52412,W,0.150,,220721,,,A*6E
$GPVTG,,T,,M,0.150,N,0.277,K,A*25
$GPGGA,233158.00,3744.95668,N,12230.52412,W,1,03,2.68,2.1,M,-29.9,M,,*61
$GPGSA,A,2,27,32,10,,,,,,,,,,2.86,2.68,1.00*07
$GPGSV,2,1,05,10,69,356,30,18,33,113,18,27,53,266,21,32,55,187,23*7D
$GPGSV,2,2,05,51,43,156,33*4D
$GPGLL,3744.95668,N,12230.52412,W,233158.00,A,A*77
$BMXDR,H,53.8,P,0,C,22.7,C,1,P,101598,P,2*67
$BMMDA,30.002,I,1.016,B,22.7,C,,,53.8,,,,,,,,,,,*31
$BMMTA,22.7,C*0D
$BMMMB,30.0052,I,1.0160,B*74
$GPRMC,233159.00,A,3744.95651,N,12230.52502,W,1.208,,220721,,,A*6A
$GPVTG,,T,,M,1.208,N,2.237,K,A*2C
$GPGGA,233159.00,3744.95651,N,12230.52502,W,1,03,2.68,1.4,M,-29.9,M,,*6C
$GPGSA,A,2,27,32,10,,,,,,,,,,2.86,2.68,1.00*07
$GPGSV,2,1,05,10,69,356,30,18,33,113,16,27,53,266,21,32,55,187,22*72
$GPGSV,2,2,05,51,43,156,33*4D
$GPGLL,3744.95651,N,12230.52502,W,233159.00,A,A*7C
$BMXDR,H,54.1,P,0,C,22.7,C,1,P,101608,P,2*63
$BMMDA,30.005,I,1.016,B,22.7,C,,,54.1,,,,,,,,,,,*38
$BMMTA,22.7,C*0D
$BMMMB,30.0082,I,1.0161,B*78
$GPRMC,233200.00,A,3744.95692,N,12230.52515,W,1.590,,220721,,,A*6A
$GPVTG,,T,,M,1.590,N,2.946,K,A*27
$GPGGA,233200.00,3744.95692,N,12230.52515,W,1,03,2.68,4.0,M,-29.9,M,,*6B
$GPGSA,A,2,27,32,10,,,,,,,,,,2.86,2.68,1.00*07
$GPGSV,2,1,05,10,69,356,29,18,33,113,12,27,53,266,21,32,55,187,23*7F
$GPGSV,2,2,05,51,43,156,33*4D
$GPGLL,3744.95692,N,12230.52515,W,233200.00,A,A*7A
$BMXDR,H,54.5,P,0,C,22.6,C,1,P,101606,P,2*68
$BMMDA,30.004,I,1.016,B,22.6,C,,,54.5,,,,,,,,,,,*3C
$BMMTA,22.6,C*0C
$BMMMB,30.0076,I,1.0161,B*73
$GPRMC,233201.00,A,3744.95650,N,12230.52620,W,2.580,,220721,,,A*62
$GPVTG,,T,,M,2.580,N,4.778,K,A*20
$GPGGA,233201.00,3744.95650,N,12230.52620,W,1,03,2.68,4.7,M,-29.9,M,,*66
$GPGSA,A,2,27,32,10,,,,,,,,,,2.86,2.68,1.00*07
$GPGSV,2,1,05,10,69,356,28,18,33,113,16,27,53,266,21,32,55,187,22*7B
$GPGSV,2,2,05,51,43,156,33*4D
$GPGLL,3744.95650,N,12230.52620,W,233201.00,A,A*70
$BMXDR,H,54.8,P,0,C,22.6,C,1,P,101606,P,2*65
$BMMDA,30.004,I,1.016,B,22.6,C,,,54.8,,,,,,,,,,,*31
$BMMTA,22.6,C*0C
$BMMMB,30.0076,I,1.0161,B*73
$GPRMC,233202.00,V,,,,,,,220721,,,N*7B
$GPVTG,,,,,,,,,N*30
$GPGGA,233202.00,,,,,0,00,99.99,,,,,,*64
$GPGSA,A,1,,,,,,,,,,,,,99.99,99.99,99.99*30
$GPGSV,2,1,05,10,69,356,27,18,33,113,19,27,53,266,19,32,55,187,19*78
$GPGSV,2,2,05,51,43,156,33*4D
$GPGLL,,,,,233202.00,V,N*48
$BMXDR,H,55.1,P,0,C,22.6,C,1,P,101605,P,2*6E
$BMMDA,30.004,I,1.016,B,22.6,C,,,55.1,,,,,,,,,,,*39
$BMMTA,22.6,C*0C
$BMMMB,30.0074,I,1.0161,B*71
$GPRMC,233203.00,V,,,,,,,220721,,,N*7A
$GPVTG,,,,,,,,,N*30
$GPGGA,233203.00,,,,,0,00,99.99,,,,,,*65
$GPGSA,A,1,,,,,,,,,,,,,99.99,99.99,99.99*30
$GPGSV,2,1,05,10,69,356,26,18,33,113,20,27,53,266,19,32,55,187,16*7C
$GPGSV,2,2,05,51,43,156,33*4D
$GPGLL,,,,,233203.00,V,N*49
$GPRMC,233204.00,V,,,,,,,220721,,,N*7D
$GPVTG,,,,,,,,,N*30
$GPGGA,233204.00,,,,,0,00,99.99,,,,,,*62
$GPGSA,A,1,,,,,,,,,,,,,99.99,99.99,99.99*30
$GPGSV,2,1,05,10,69,356,27,18,33,113,21,27,53,266,20,32,55,187,15*75
$GPGSV,2,2,05,51,43,156,34*4A
$GPGLL,,,,,233204.00,V,N*4E
$BMXDR,H,55.4,P,0,C,22.6,C,1,P,101608,P,2*66
$BMMDA,30.005,I,1.016,B,22.6,C,,,55.4,,,,,,,,,,,*3D
$BMMTA,22.6,C*0C
$BMMMB,30.0082,I,1.0161,B*78
$GPRMC,233205.00,V,,,,,,,220721,,,N*7C
$GPVTG,,,,,,,,,N*30
$GPGGA,233205.00,,,,,0,00,99.99,,,,,,*63
$GPGSA,A,1,,,,,,,,,,,,,99.99,99.99,99.99*30
$GPGSV,2,1,05,10,69,356,27,18,33,113,21,27,53,266,20,32,55,187,16*76
$GPGSV,2,2,05,51,43,156,34*4A
$GPGLL,,,,,233205.00,V,N*4F
$BMXDR,H,55.5,P,0,C,22.6,C,1,P,101609,P,2*66
$BMMDA,30.005,I,1.016,B,22.6,C,,,55.5,,,,,,,,,,,*3C
$BMMTA,22.6,C*0C
$BMMMB,30.0086,I,1.0161,B*7C
$GPRMC,233206.00,V,,,,,,,220721,,,N*7F
$GPVTG,,,,,,,,,N*30
$GPGGA,233206.00,,,,,0,00,99.99,,,,,,*60
$GPGSA,A,1,,,,,,,,,,,,,99.99,99.99,99.99*30
$GPGSV,2,1,05,10,69,356,28,18,33,113,20,27,53,266,19,32,55,187,18*7C
$GPGSV,2,2,05,51,43,156,34*4A
$GPGLL,,,,,233206.00,V,N*4C
$BMXDR,H,55.8,P,0,C,22.5,C,1,P,101606,P,2*67
$BMMDA,30.004,I,1.016,B,22.5,C,,,55.8,,,,,,,,,,,*33
$BMMTA,22.5,C*0F
$BMMMB,30.0078,I,1.0161,B*7D
$GPRMC,233207.00,V,,,,,,,220721,,,N*7E
$GPVTG,,,,,,,,,N*30
$GPGGA,233207.00,,,,,0,00,99.99,,,,,,*61
$GPGSA,A,1,,,,,,,,,,,,,99.99,99.99,99.99*30
$GPGSV,2,1,05,10,69,356,28,18,33,113,20,27,53,266,17,32,55,187,19*73
$GPGSV,2,2,05,51,43,156,34*4A
$GPGLL,,,,,233207.00,V,N*4D
$BMXDR,H,56.0,P,0,C,22.5,C,1,P,101606,P,2*6C
$BMMDA,30.004,I,1.016,B,22.5,C,,,56.0,,,,,,,,,,,*38
$BMMTA,22.5,C*0F
$BMMMB,30.0076,I,1.0161,B*73
$GPRMC,233208.00,A,3744.95527,N,12230.52617,W,1.525,,220721,,,A*60
$GPVTG,,T,,M,1.525,N,2.824,K,A*2C
$GPGGA,233208.00,3744.95527,N,12230.52617,W,1,03,2.68,2.7,M,-29.9,M,,*6E
$GPGSA,A,2,27,32,10,,,,,,,,,,2.86,2.68,1.00*07
$GPGSV,2,1,05,10,69,356,29,18,33,113,20,27,53,266,17,32,55,187,19*72
$GPGSV,2,2,05,51,43,156,34*4A
$GPGLL,3744.95527,N,12230.52617,W,233208.00,A,A*7E
$BMXDR,H,56.0,P,0,C,22.5,C,1,P,101608,P,2*62
$BMMDA,30.005,I,1.016,B,22.5,C,,,56.0,,,,,,,,,,,*39
$BMMTA,22.5,C*0F
$BMMMB,30.0083,I,1.0161,B*79
$GPRMC,233209.00,A,3744.95592,N,12230.52644,W,1.207,,220721,,,A*6E
$GPVTG,,T,,M,1.207,N,2.235,K,A*21
$GPGGA,233209.00,3744.95592,N,12230.52644,W,1,03,2.68,2.7,M,-29.9,M,,*67
$GPGSA,A,2,27,32,10,,,,,,,,,,2.86,2.68,1.00*07
$GPGSV,2,1,05,10,69,356,29,18,33,113,20,27,53,266,17,32,55,187,18*73
$GPGSV,2,2,05,51,43,156,35*4B
$GPGLL,3744.95592,N,12230.52644,W,233209.00,A,A*77
$BMXDR,H,55.8,P,0,C,22.6,C,1,P,101610,P,2*63
$BMMDA,30.005,I,1.016,B,22.6,C,,,55.8,,,,,,,,,,,*31
$BMMTA,22.6,C*0C
$BMMMB,30.0088,I,1.0161,B*72
$GPRMC,233210.00,A,3744.95623,N,12230.52720,W,0.768,,220721,,,A*61
$GPVTG,,T,,M,0.768,N,1.423,K,A*2E
$GPGGA,233210.00,3744.95623,N,12230.52720,W,1,03,2.68,2.1,M,-29.9,M,,*63
$GPGSA,A,2,27,32,10,,,,,,,,,,2.86,2.68,1.00*07
$GPGSV,2,1,05,10,69,356,29,18,33,113,21,27,53,266,17,32,55,187,18*72
$GPGSV,2,2,05,51,43,156,35*4B
$GPGLL,3744.95623,N,12230.52720,W,233210.00,A,A*75
$BMXDR,H,55.8,P,0,C,22.5,C,1,P,101597,P,2*6C
$BMMDA,30.002,I,1.016,B,22.5,C,,,55.8,,,,,,,,,,,*35
$BMMTA,22.5,C*0F
$BMMMB,30.0051,I,1.0160,B*77
$GPRMC,233211.00,A,3744.95637,N,12230.52501,W,2.325,,220721,,,A*6B
$GPVTG,,T,,M,2.325,N,4.306,K,A*24
$GPGGA,233211.00,3744.95637,N,12230.52501,W,1,03,2.68,2.3,M,-29.9,M,,*64
$GPGSA,A,2,27,32,10,,,,,,,,,,2.86,2.68,1.00*07
$GPGSV,2,1,05,10,69,356,29,18,33,113,20,27,53,266,18,32,55,187,17*73
$GPGSV,2,2,05,51,43,156,34*4A
$GPGLL,3744.95637,N,12230.52501,W,233211.00,A,A*70
$BMXDR,H,55.8,P,0,C,22.5,C,1,P,101603,P,2*62
$BMMDA,30.003,I,1.016,B,22.5,C,,,55.8,,,,,,,,,,,*34
$BMMTA,22.5,C*0F
$BMMMB,30.0068,I,1.0160,B*7D
$GPRMC,233212.00,A,3744.95621,N,12230.52497,W,1.396,,220721,,,A*6A
$GPVTG,,T,,M,1.396,N,2.586,K,A*27
$GPGGA,233212.00,3744.95621,N,12230.52497,W,1,03,2.68,1.7,M,-29.9,M,,*69
$GPGSA,A,2,27,32,10,,,,,,,,,,2.86,2.68,1.00*07
$GPGSV,2,1,05,10,69,356,29,18,33,113,21,27,53,266,18,32,55,187,16*73
$GPGSV,2,2,05,51,43,156,34*4A
$GPGLL,3744.95621,N,12230.52497,W,233212.00,A,A*7A
$BMXDR,H,55.9,P,0,C,22.4,C,1,P,101599,P,2*62
$BMMDA,30.002,I,1.016,B,22.4,C,,,55.9,,,,,,,,,,,*35
$BMMTA,22.4,C*0E
$BMMMB,30.0056,I,1.0160,B*70
$GPRMC,233213.00,A,3744.95684,N,12230.52574,W,1.579,,220721,,,A*6F
$GPVTG,,T,,M,1.579,N,2.925,K,A*25
$GPGGA,233213.00,3744.95684,N,12230.52574,W,1,03,2.68,2.0,M,-29.9,M,,*6F
$GPGSA,A,2,27,32,10,,,,,,,,,,2.86,2.68,1.00*07
$GPGSV,2,1,05,10,69,356,29,18,33,113,21,27,53,266,18,32,55,187,15*70
$GPGSV,2,2,05,51,43,156,34*4A
$GPGLL,3744.95684,N,12230.52574,W,233213.00,A,A*78
$BMXDR,H,55.9,P,0,C,22.3,C,1,P,101586,P,2*6B
$BMMDA,29.998,I,1.016,B,22.3,C,,,55.9,,,,,,,,,,,*30
$BMMTA,22.3,C*09
$BMMMB,30.0019,I,1.0159,B*71
$BMXDR,H,56.1,P,0,C,22.2,C,1,P,101610,P,2*6D
$BMMDA,30.006,I,1.016,B,22.2,C,,,56.1,,,,,,,,,,,*3C
$BMMTA,22.2,C*08
$BMMMB,30.0090,I,1.0161,B*7B
$BMXDR,H,56.3,P,0,C,22.2,C,1,P,101596,P,2*62
$BMMDA,30.001,I,1.016,B,22.2,C,,,56.3,,,,,,,,,,,*39
$BMMTA,22.2,C*08
$BMMMB,30.0048,I,1.0160,B*7F
$BMXDR,H,56.4,P,0,C,22.2,C,1,P,101587,P,2*65
$BMMDA,29.999,I,1.016,B,22.2,C,,,56.4,,,,,,,,,,,*3E
$BMMTA,22.2,C*08
$BMMMB,30.0021,I,1.0159,B*7A
$GPRMC,233214.00,A,3744.95695,N,12230.52613,W,0.920,,220721,,,A*6B
$GPVTG,,T,,M,0.920,N,1.704,K,A*2A
$GPGGA,233214.00,3744.95695,N,12230.52613,W,1,03,2.68,2.2,M,-29.9,M,,*68
$GPGSA,A,2,27,32,10,,,,,,,,,,2.86,2.68,1.00*07
$GPGSV,2,1,05,10,69,356,29,18,33,113,21,27,53,266,18,32,55,187,15*70
$GPGSV,2,2,05,51,43,156,34*4A
$GPGLL,3744.95695,N,12230.52613,W,233214.00,A,A*7D
$GPRMC,233215.00,A,3744.95823,N,12230.52774,W,2.585,,220721,,,A*68
$GPVTG,,T,,M,2.585,N,4.787,K,A*25
$GPGGA,233215.00,3744.95823,N,12230.52774,W,1,03,2.68,2.5,M,-29.9,M,,*6D
$GPGSA,A,2,27,32,10,,,,,,,,,,2.86,2.68,1.00*07
$GPGSV,2,1,05,10,69,356,28,18,33,113,21,27,53,266,18,32,55,187,13*77
$GPGSV,2,2,05,51,43,156,33*4D
$GPGLL,3744.95823,N,12230.52774,W,233215.00,A,A*7F
$GPRMC,233216.00,A,3744.96094,N,12230.53185,W,6.309,,220721,,,A*63
$GPVTG,,T,,M,6.309,N,11.685,K,A*14
$GPGGA,233216.00,3744.96094,N,12230.53185,W,1,03,2.68,2.4,M,-29.9,M,,*61
$GPGSA,A,2,27,32,10,,,,,,,,,,2.86,2.68,1.00*07
$GPGSV,2,1,05,10,69,356,28,18,33,113,21,27,53,266,19,32,55,187,11*74
$GPGSV,2,2,05,51,43,156,33*4D
$GPGLL,3744.96094,N,12230.53185,W,233216.00,A,A*72
$GPRMC,233217.00,V,,,,,,,220721,,,N*7F
$GPVTG,,,,,,,,,N*30
$GPGGA,233217.00,,,,,0,00,99.99,,,,,,*60
$GPGSA,A,1,,,,,,,,,,,,,99.99,99.99,99.99*30
$GPGSV,2,1,06,10,69,356,29,14,,,26,18,33,113,21,27,53,266,19*48
$GPGSV,2,2,06,32,55,187,09,51,43,156,34*7F
$GPGLL,,,,,233217.00,V,N*4C
$GPRMC,233218.00,A,3744.96270,N,12230.53349,W,4.797,,220721,,,A*66
$GPVTG,,T,,M,4.797,N,8.884,K,A*22
$GPGGA,233218.00,3744.96270,N,12230.53349,W,1,03,2.68,1.9,M,-29.9,M,,*6B
$GPGSA,A,2,27,32,10,,,,,,,,,,2.86,2.68,1.00*07
$GPGSV,2,1,05,10,69,356,29,18,33,113,21,27,53,266,19,32,55,187,10*74
$GPGSV,2,2,05,51,43,156,34*4A
$GPGLL,3744.96270,N,12230.53349,W,233218.00,A,A*76
$BMXDR,H,56.4,P,0,C,22.3,C,1,P,101590,P,2*62
$BMMDA,29.999,I,1.016,B,22.3,C,,,56.4,,,,,,,,,,,*3F
$BMMTA,22.3,C*09
$BMMMB,30.0029,I,1.0159,B*72
$GPRMC,233219.00,A,3744.96259,N,12230.53598,W,5.267,,220721,,,A*6D
$GPVTG,,T,,M,5.267,N,9.754,K,A*2A
$GPGGA,233219.00,3744.96259,N,12230.53598,W,1,03,2.68,1.1,M,-29.9,M,,*63
$GPGSA,A,2,27,32,10,,,,,,,,,,2.86,2.68,1.00*07
$GPGSV,2,1,05,10,69,356,28,18,33,113,21,27,53,266,18,32,55,187,11*75
$GPGSV,2,2,05,51,43,156,31*4F
$GPGLL,3744.96259,N,12230.53598,W,233219.00,A,A*76
$BMXDR,H,56.3,P,0,C,22.1,C,1,P,101612,P,2*6E
$BMMDA,30.006,I,1.016,B,22.1,C,,,56.3,,,,,,,,,,,*3D
$BMMTA,22.1,C*0B
$BMMMB,30.0096,I,1.0161,B*7D
$GPRMC,233220.00,A,3744.96144,N,12230.53545,W,3.221,,220721,,,A*6C
$GPVTG,,T,,M,3.221,N,5.966,K,A*2D
$GPGGA,233220.00,3744.96144,N,12230.53545,W,1,03,2.68,0.1,M,-29.9,M,,*67
$GPGSA,A,2,27,32,10,,,,,,,,,,2.86,2.68,1.00*07
$GPGSV,2,1,05,10,69,356,28,18,33,113,21,27,53,266,17,32,55,187,13*78
$GPGSV,2,2,05,51,43,156,32*4C
$GPGLL,3744.96144,N,12230.53545,W,233220.00,A,A*73
$BMXDR,H,56.5,P,0,C,22.1,C,1,P,101608,P,2*63
$BMMDA,30.005,I,1.016,B,22.1,C,,,56.5,,,,,,,,,,,*38
$BMMTA,22.1,C*0B
$BMMMB,30.0083,I,1.0161,B*79
$GPRMC,233221.00,A,3744.96117,N,12230.53598,W,2.991,,220721,,,A*6A
$GPVTG,,T,,M,2.991,N,5.540,K,A*24
$GPGGA,233221.00,3744.96117,N,12230.53598,W,1,03,2.67,-0.1,M,-29.9,M,,*42
$GPGSA,A,2,27,32,10,,,,,,,,,,2.86,2.67,1.00*08
$GPGSV,2,1,05,10,69,356,28,18,33,113,21,27,53,266,16,32,55,187,13*79
$GPGSV,2,2,05,51,43,156,33*4D
$GPGLL,3744.96117,N,12230.53598,W,233221.00,A,A*74
$BMXDR,H,56.7,P,0,C,22.2,C,1,P,101603,P,2*69
$BMMDA,30.003,I,1.016,B,22.2,C,,,56.7,,,,,,,,,,,*3F
$BMMTA,22.2,C*08
$BMMMB,30.0069,I,1.0160,B*7C
$GPRMC,233222.00,A,3744.95958,N,12230.53202,W,2.591,,220721,,,A*61
$GPVTG,,T,,M,2.591,N,4.798,K,A*2E
$GPGGA,233222.00,3744.95958,N,12230.53202,W,1,03,2.67,-1.1,M,-29.9,M,,*44
$GPGSA,A,2,27,32,10,,,,,,,,,,2.86,2.67,1.00*08
$GPGSV,2,1,05,10,69,356,28,18,33,113,21,27,53,266,16,32,55,187,15*7F
$GPGSV,2,2,05,51,43,156,33*4D
$GPGLL,3744.95958,N,12230.53202,W,233222.00,A,A*73
$GPRMC,233223.00,A,3744.95890,N,12230.53036,W,3.641,,220721,,,A*6F
$GPVTG,,T,,M,3.641,N,6.742,K,A*24
$BMXDR,H,56.8,P,0,C,22.1,C,1,P,101611,P,2*66
$GPGGA,233223.00,3744.95890,N,12230.53036,W,1,03,2.67,-1.0,M,-29.9,M,,*44
$BMMDA,30.006,I,1.016,B,22.1,C,,,56.8,,,,,,,,,,,*36
$GPGSA,A,2,27,32,10,,,,,,,,,,2.86,2.67,1.00*08
$BMMTA,22.1,C*0B
$GPGSV,2,1,05,10,69,356,28,18,33,113,20,27,53,266,17,32,55,187,16*7C
$BMMMB,30.0092,I,1.0161,B*79
$GPGSV,2,2,05,51,43,156,33*4D
$GPGLL,3744.95890,N,12230.53036,W,233223.00,A,A*72
$GPRMC,233224.00,A,3744.95943,N,12230.53075,W,2.192,,220721,,,A*68
$GPVTG,,T,,M,2.192,N,4.059,K,A*23
$GPGGA,233224.00,3744.95943,N,12230.53075,W,1,03,2.67,-1.5,M,-29.9,M,,*4E
$GPGSA,A,2,27,32,10,,,,,,,,,,2.86,2.67,1.00*08
$GPGSV,2,1,05,10,69,356,27,18,33,113,17,27,53,266,19,32,55,187,18*77
$GPGSV,2,2,05,51,43,156,33*4D
$GPGLL,3744.95943,N,12230.53075,W,233224.00,A,A*7D
$BMXDR,H,56.8,P,0,C,22.1,C,1,P,101601,P,2*67
$BMMDA,30.003,I,1.016,B,22.1,C,,,56.8,,,,,,,,,,,*33
$BMMTA,22.1,C*0B
$BMMMB,30.0062,I,1.0160,B*77
$GPRMC,233225.00,A,3744.95945,N,12230.53028,W,1.828,,220721,,,A*6C
$GPVTG,,T,,M,1.828,N,3.386,K,A*2E
$GPGGA,233225.00,3744.95945,N,12230.53028,W,1,03,2.67,-0.9,M,-29.9,M,,*4C
$GPGSA,A,2,27,32,10,,,,,,,,,,2.85,2.67,1.00*0B
$GPGSV,2,1,05,10,69,356,27,18,33,113,15,27,53,266,20,32,55,187,21*75
$GPGSV,2,2,05,51,43,156,32*4C
$GPGLL,3744.95945,N,12230.53028,W,233225.00,A,A*72
$BMXDR,H,56.7,P,0,C,22.0,C,1,P,101605,P,2*6D
$BMMDA,30.004,I,1.016,B,22.0,C,,,56.7,,,,,,,,,,,*3A
$BMMTA,22.0,C*0A
$BMMMB,30.0073,I,1.0160,B*77
$GPRMC,233226.00,V,,,,,,,220721,,,N*7D
$GPVTG,,,,,,,,,N*30
$GPGGA,233226.00,,,,,0,00,99.99,,,,,,*62
$GPGSA,A,1,,,,,,,,,,,,,99.99,99.99,99.99*30
$GPGSV,2,1,05,10,69,356,27,18,33,113,14,27,53,266,20,32,55,187,23*76
$GPGSV,2,2,05,51,43,156,31*4F
$GPGLL,,,,,233226.00,V,N*4E
$BMXDR,H,56.8,P,0,C,21.8,C,1,P,101614,P,2*69
$BMMDA,30.007,I,1.016,B,21.8,C,,,56.8,,,,,,,,,,,*3D
$BMMTA,21.8,C*01
$BMMMB,30.0099,I,1.0161,B*72
$GPRMC,233227.00,V,,,,,,,220721,,,N*7C
$GPVTG,,,,,,,,,N*30
$GPGGA,233227.00,,,,,0,00,99.99,,,,,,*63
$GPGSA,A,1,,,,,,,,,,,,,99.99,99.99,99.99*30
$GPGSV,2,1,05,10,69,356,27,18,33,113,14,27,53,266,19,32,55,187,24*7B
$GPGSV,2,2,05,51,43,156,32*4C
$GPGLL,,,,,233227.00,V,N*4F
$BMXDR,H,57.0,P,0,C,21.9,C,1,P,101607,P,2*63
$BMMDA,30.005,I,1.016,B,21.9,C,,,57.0,,,,,,,,,,,*37
$BMMTA,21.9,C*00
$BMMMB,30.0080,I,1.0161,B*7A
$GPRMC,233228.00,V,,,,,,,220721,,,N*73
$GPVTG,,,,,,,,,N*30
$GPGGA,233228.00,,,,,0,00,99.99,,,,,,*6C
$GPGSA,A,1,,,,,,,,,,,,,99.99,99.99,99.99*30
$GPGSV,2,1,05,10,69,356,27,18,33,113,14,27,53,266,18,32,55,187,23*7D
$GPGSV,2,2,05,51,43,156,32*4C
$GPGLL,,,,,233228.00,V,N*40
$BMXDR,H,57.0,P,0,C,21.9,C,1,P,101609,P,2*6D
$BMMDA,30.005,I,1.016,B,21.9,C,,,57.0,,,,,,,,,,,*37
$BMMTA,21.9,C*00
$BMMMB,30.0086,I,1.0161,B*7C
$GPRMC,233229.00,V,,,,,,,220721,,,N*72
$GPVTG,,,,,,,,,N*30
$GPGGA,233229.00,,,,,0,00,99.99,,,,,,*6D
$GPGSA,A,1,,,,,,,,,,,,,99.99,99.99,99.99*30
$GPGSV,2,1,05,10,69,356,28,18,33,113,14,27,53,266,18,32,55,187,22*73
$GPGSV,2,2,05,51,43,156,33*4D
$GPGLL,,,,,233229.00,V,N*41
$BMXDR,H,57.2,P,0,C,21.9,C,1,P,101595,P,2*69
$BMMDA,30.001,I,1.016,B,21.9,C,,,57.2,,,,,,,,,,,*31
$BMMTA,21.9,C*00
$BMMMB,30.0044,I,1.0159,B*79
$GPRMC,233230.00,V,,,,,,,220721,,,N*7A
$GPVTG,,,,,,,,,N*30
$GPGGA,233230.00,,,,,0,00,99.99,,,,,,*65
$GPGSA,A,1,,,,,,,,,,,,,99.99,99.99,99.99*30
$GPGSV,2,1,05,10,69,356,28,18,33,113,14,27,53,266,18,32,55,187,21*70
$GPGSV,2,2,05,51,43,156,32*4C
$GPGLL,,,,,233230.00,V,N*49
$BMXDR,H,57.4,P,0,C,21.8,C,1,P,101606,P,2*67
$BMMDA,30.004,I,1.016,B,21.8,C,,,57.4,,,,,,,,,,,*33
$BMMTA,21.8,C*01
$BMMMB,30.0077,I,1.0161,B*72
$GPRMC,233231.00,V,,,,,,,220721,,,N*7B
$GPVTG,,,,,,,,,N*30
$GPGGA,233231.00,,,,,0,00,99.99,,,,,,*64
$GPGSA,A,1,,,,,,,,,,,,,99.99,99.99,99.99*30
