$GPVTG,,T,,M,0.281,N,0.521,K,D*2B
$GPGGA,181912.00,3731.73226,N,12215.98024,W,2,06,1.32,5.0,M,-30.0,M,,0000*64
$GPGSA,A,3,05,18,02,51,29,26,,,,,,,2.13,1.32,1.67*07
$GPGSV,4,1,15,02,11,067,19,05,59,069,16,11,04,063,,12,18,167,*79
$GPGSV,4,2,15,13,09,107,,15,15,138,,18,44,270,23,20,28,047,*7A
$GPGSV,4,3,15,23,19,203,,25,43,192,,26,22,313,19,29,73,010,20*79
$GPGSV,4,4,15,31,06,271,,46,46,191,,51,44,156,30*41
$GPGLL,3731.73226,N,12215.98024,W,181912.00,A,D*7A
$BMXDR,H,37.0,P,0,C,38.6,C,1,P,101856,P,2*68
$BMMDA,30.078,I,1.019,B,38.6,C,,,37.0,,,,,,,,,,,*33
$BMMTA,38.6,C*07
$BMMMB,30.0814,I,1.0186,B*76
$GPRMC,181913.00,A,3731.73214,N,12215.98033,W,0.368,,050821,,,D*66
$GPVTG,,T,,M,0.368,N,0.681,K,D*24
$GPGGA,181913.00,3731.73214,N,12215.98033,W,2,06,1.32,4.8,M,-30.0,M,,0000*6B
$GPGSA,A,3,05,18,02,51,29,26,,,,,,,2.13,1.32,1.67*07
$GPGSV,4,1,15,02,11,067,17,05,59,069,13,11,04,063,,12,18,167,*72
$GPGSV,4,2,15,13,09,107,,15,15,138,,18,44,270,21,20,28,047,*78
$GPGSV,4,3,15,23,19,203,,25,43,192,,26,22,313,18,29,73,010,18*73
$GPGSV,4,4,15,31,06,271,,46,46,191,,51,44,156,29*49
$GPGLL,3731.73214,N,12215.98033,W,181913.00,A,D*7C
$BMXDR,H,37.0,P,0,C,38.6,C,1,P,101853,P,2*6D
$BMMDA,30.077,I,1.019,B,38.6,C,,,37.0,,,,,,,,,,,*3C
$BMMTA,38.6,C*07
$BMMMB,30.0807,I,1.0185,B*77
$GPRMC,181914.00,A,3731.73220,N,12215.98041,W,0.236,,050821,,,D*69
$GPVTG,,T,,M,0.236,N,0.437,K,D*21
$GPGGA,181914.00,3731.73220,N,12215.98041,W,2,06,1.32,5.0,M,-30.0,M,,0000*67
$GPGSA,A,3,05,18,02,51,29,26,,,,,,,2.13,1.32,1.67*07
$GPGSV,4,1,15,02,11,067,17,05,59,069,12,11,04,063,,12,18,167,*73
$GPGSV,4,2,15,13,09,107,,15,15,138,,18,44,270,21,20,28,047,*78
$GPGSV,4,3,15,23,19,203,,25,43,192,,26,22,313,18,29,73,010,19*72
$GPGSV,4,4,15,31,06,271,,46,46,191,,51,44,156,29*49
$GPGLL,3731.73220,N,12215.98041,W,181914.00,A,D*79
$BMXDR,H,37.1,P,0,C,38.6,C,1,P,101854,P,2*6B
$BMMDA,30.077,I,1.019,B,38.6,C,,,37.1,,,,,,,,,,,*3D
$BMMTA,38.6,C*07
$BMMMB,30.0808,I,1.0185,B*78
$GPRMC,181915.00,A,3731.73220,N,12215.98047,W,0.289,,050821,,,D*6A
$GPVTG,,T,,M,0.289,N,0.536,K,D*25
$GPGGA,181915.00,3731.73220,N,12215.98047,W,2,06,1.32,5.0,M,-30.0,M,,0000*60
$GPGSA,A,3,05,18,02,51,29,26,,,,,,,2.13,1.32,1.67*07
$GPGSV,4,1,15,02,11,067,17,05,59,069,13,11,04,063,,12,18,167,*72
$GPGSV,4,2,15,13,09,107,,15,15,138,,18,44,270,22,20,28,047,*7B
$GPGSV,4,3,15,23,19,203,,25,43,192,,26,22,313,18,29,73,010,20*78
$GPGSV,4,4,15,31,06,271,,46,46,191,,51,44,156,29*49
$GPGLL,3731.73220,N,12215.98047,W,181915.00,A,D*7E
$BMXDR,H,37.2,P,0,C,38.6,C,1,P,101858,P,2*64
$BMMDA,30.079,I,1.019,B,38.6,C,,,37.2,,,,,,,,,,,*30
$BMMTA,38.6,C*07
$BMMMB,30.0820,I,1.0186,B*71
$GPRMC,181916.00,A,3731.73210,N,12215.98058,W,0.313,,050821,,,D*66
$GPVTG,,T,,M,0.313,N,0.579,K,D*2C
$GPGGA,181916.00,3731.73210,N,12215.98058,W,2,06,1.32,4.9,M,-30.0,M,,0000*66
$GPGSA,A,3,05,18,02,51,29,26,,,,,,,2.13,1.32,1.67*07
$GPGSV,4,1,15,02,11,067,18,05,59,069,16,11,04,063,,12,18,167,*78
$GPGSV,4,2,15,13,09,107,,15,15,138,,18,44,270,22,20,28,047,*7B
$GPGSV,4,3,15,23,19,203,,25,43,192,,26,22,313,20,29,73,010,20*73
$GPGSV,4,4,15,31,06,271,,46,46,191,,51,44,156,30*41
$GPGLL,3731.73210,N,12215.98058,W,181916.00,A,D*70
$GPRMC,181917.00,A,3731.73198,N,12215.98077,W,0.488,,050821,,,D*6C
$BMXDR,H,37.2,P,0,C,38.6,C,1,P,101859,P,2*65
$BMMDA,30.079,I,1.019,B,38.6,C,,,37.2,,,,,,,,,,,*30
$BMMTA,38.6,C*07
$BMMMB,30.0825,I,1.0186,B*74
$GPVTG,,T,,M,0.488,N,0.903,K,D*28
$GPGGA,181917.00,3731.73198,N,12215.98077,W,2,06,1.32,4.7,M,-30.0,M,,0000*67
$GPGSA,A,3,05,18,02,51,29,26,,,,,,,2.13,1.32,1.67*07
$GPGSV,4,1,15,02,11,067,19,05,59,069,17,11,04,063,,12,18,167,*78
$GPGSV,4,2,15,13,09,107,,15,15,138,,18,44,270,22,20,28,047,*7B
$GPGSV,4,3,15,23,19,203,,25,43,192,,26,22,313,20,29,73,010,20*73
$GPGSV,4,4,15,31,06,271,,46,46,191,,51,44,156,30*41
$GPGLL,3731.73198,N,12215.98077,W,181917.00,A,D*7F
$GPRMC,181918.00,A,3731.73204,N,12215.98061,W,0.247,,050821,,,D*67
$GPVTG,,T,,M,0.247,N,0.458,K,D*2E
$GPGGA,181918.00,3731.73204,N,12215.98061,W,2,06,1.32,4.5,M,-30.0,M,,0000*6B
$GPGSA,A,3,05,18,02,51,29,26,,,,,,,2.13,1.32,1.67*07
$GPGSV,4,1,15,02,11,067,19,05,59,069,17,11,04,063,,12,18,167,*78
$GPGSV,4,2,15,13,09,107,,15,15,138,,18,44,270,22,20,28,047,*7B
$GPGSV,4,3,15,23,19,203,,25,43,192,,26,22,313,20,29,73,010,20*73
$GPGSV,4,4,15,31,06,271,,46,46,191,,51,44,156,29*49
$GPGLL,3731.73204,N,12215.98061,W,181918.00,A,D*71
$BMXDR,H,37.2,P,0,C,38.6,C,1,P,101857,P,2*6B
$BMMDA,30.078,I,1.019,B,38.6,C,,,37.2,,,,,,,,,,,*31
$BMMTA,38.6,C*07
$BMMMB,30.0818,I,1.0186,B*7A
$GPRMC,181919.00,A,3731.73215,N,12215.98053,W,0.268,,050821,,,D*6A
$GPVTG,,T,,M,0.268,N,0.497,K,D*20
$GPGGA,181919.00,3731.73215,N,12215.98053,W,2,06,1.32,4.7,M,-30.0,M,,0000*69
$GPGSA,A,3,05,18,02,51,29,26,,,,,,,2.13,1.32,1.67*07
$GPGSV,4,1,15,02,11,067,18,05,59,069,18,11,04,063,,12,18,167,*76
$GPGSV,4,2,15,13,09,107,,15,15,138,,18,44,270,22,20,28,047,*7B
$GPGSV,4,3,15,23,19,203,,25,43,192,,26,22,313,20,29,73,010,20*73
$GPGSV,4,4,15,31,06,271,,46,46,191,,51,44,156,30*41
$GPGLL,3731.73215,N,12215.98053,W,181919.00,A,D*71
$BMXDR,H,37.3,P,0,C,38.6,C,1,P,101855,P,2*68
$BMMDA,30.078,I,1.019,B,38.6,C,,,37.3,,,,,,,,,,,*30
$BMMTA,38.6,C*07
$BMMMB,30.0812,I,1.0185,B*73
$GPRMC,181920.00,A,3731.73238,N,12215.98021,W,0.051,,050821,,,D*62
$GPVTG,,T,,M,0.051,N,0.094,K,D*2F
$GPGGA,181920.00,3731.73238,N,12215.98021,W,2,06,1.32,4.6,M,-30.0,M,,0000*68
$GPGSA,A,3,05,18,02,51,29,26,,,,,,,2.13,1.32,1.67*07
$GPGSV,4,1,15,02,11,067,17,05,59,069,19,11,04,063,,12,18,167,*78
$GPGSV,4,2,15,13,09,106,,15,15,138,,18,44,270,22,20,28,047,*7A
$GPGSV,4,3,15,23,19,203,,25,43,192,,26,22,313,20,29,73,010,20*73
$GPGSV,4,4,15,31,06,271,,46,46,191,,51,44,156,30*41
$GPGLL,3731.73238,N,12215.98021,W,181920.00,A,D*71
$BMXDR,H,37.3,P,0,C,38.6,C,1,P,101858,P,2*65
$BMMDA,30.079,I,1.019,B,38.6,C,,,37.3,,,,,,,,,,,*31
$BMMTA,38.6,C*07
$BMMMB,30.0821,I,1.0186,B*70
$GPRMC,181921.00,A,3731.73238,N,12215.98006,W,0.162,,050821,,,D*67
$GPVTG,,T,,M,0.162,N,0.300,K,D*20
$GPGGA,181921.00,3731.73238,N,12215.98006,W,2,06,1.32,4.6,M,-30.0,M,,0000*6C
$GPGSA,A,3,05,18,02,51,29,26,,,,,,,2.13,1.32,1.67*07
$GPGSV,4,1,15,02,11,067,17,05,59,069,19,11,04,063,,12,18,167,*78
$GPGSV,4,2,15,13,09,106,,15,15,138,,18,44,270,22,20,28,047,*7A
$GPGSV,4,3,15,23,19,203,,25,43,192,,26,22,313,21,29,73,010,20*72
$GPGSV,4,4,15,31,06,271,,46,46,191,,51,44,156,30*41
$GPGLL,3731.73238,N,12215.98006,W,181921.00,A,D*75
$BMXDR,H,37.2,P,0,C,38.6,C,1,P,101855,P,2*69
$BMMDA,30.078,I,1.019,B,38.6,C,,,37.2,,,,,,,,,,,*31
$BMMTA,38.6,C*07
$BMMMB,30.0811,I,1.0185,B*70
$GPRMC,181922.00,A,3731.73256,N,12215.97984,W,0.210,,050821,,,D*66
$GPVTG,,T,,M,0.210,N,0.389,K,D*27
$GPGGA,181922.00,3731.73256,N,12215.97984,W,2,06,1.32,4.9,M,-30.0,M,,0000*64
$GPGSA,A,3,05,18,02,51,29,26,,,,,,,2.13,1.32,1.67*07
$GPGSV,4,1,15,02,11,067,16,05,59,069,18,11,04,063,,12,18,167,*78
$GPGSV,4,2,15,13,09,106,,15,16,138,,18,44,270,21,20,28,047,*7A
$GPGSV,4,3,15,23,19,203,,25,43,192,,26,22,313,20,29,73,010,20*73
$GPGSV,4,4,15,31,06,271,,46,46,191,,51,44,156,30*41
$GPGLL,3731.73256,N,12215.97984,W,181922.00,A,D*72
$BMXDR,H,37.3,P,0,C,38.6,C,1,P,101861,P,2*6F
$BMMDA,30.080,I,1.019,B,38.6,C,,,37.3,,,,,,,,,,,*37
$BMMTA,38.6,C*07
$BMMMB,30.0830,I,1.0186,B*70
$GPRMC,181923.00,A,3731.73260,N,12215.98007,W,0.325,,050821,,,D*68
$GPVTG,,T,,M,0.325,N,0.602,K,D*26
$GPGGA,181923.00,3731.73260,N,12215.98007,W,2,06,1.32,5.2,M,-30.0,M,,0000*67
$GPGSA,A,3,05,18,02,51,29,26,,,,,,,2.13,1.32,1.67*07
$GPGSV,4,1,15,02,11,067,16,05,59,069,18,11,04,063,,12,18,167,*78
$GPGSV,4,2,15,13,09,106,,15,16,138,,18,44,270,22,20,28,047,*79
$GPGSV,4,3,15,23,19,203,,25,43,192,,26,22,313,21,29,73,010,20*72
$GPGSV,4,4,15,31,06,271,,46,46,191,,51,44,156,31*40
$GPGLL,3731.73260,N,12215.98007,W,181923.00,A,D*7B
$BMXDR,H,37.3,P,0,C,38.6,C,1,P,101859,P,2*64
$BMMDA,30.079,I,1.019,B,38.6,C,,,37.3,,,,,,,,,,,*31
$BMMTA,38.6,C*07
$BMMMB,30.0824,I,1.0186,B*75
$GPRMC,181924.00,A,3731.73275,N,12215.97955,W,0.226,,050821,,,D*68
$GPVTG,,T,,M,0.226,N,0.419,K,D*2C
$GPGGA,181924.00,3731.73275,N,12215.97955,W,2,06,1.32,5.4,M,-30.0,M,,0000*63
$GPGSA,A,3,05,18,02,51,29,26,,,,,,,2.13,1.32,1.67*07
$GPGSV,4,1,15,02,11,067,15,05,59,069,16,11,04,063,,12,18,167,*75
$GPGSV,4,2,15,13,09,106,,15,16,138,,18,44,270,21,20,28,047,*7A
$GPGSV,4,3,15,23,19,203,,25,43,192,,26,22,313,20,29,73,010,19*79
$GPGSV,4,4,15,31,06,271,,46,46,191,,51,44,156,29*49
$GPGLL,3731.73275,N,12215.97955,W,181924.00,A,D*79
$BMXDR,H,37.2,P,0,C,38.6,C,1,P,101863,P,2*6C
$BMMDA,30.080,I,1.019,B,38.6,C,,,37.2,,,,,,,,,,,*36
$BMMTA,38.6,C*07
$BMMMB,30.0837,I,1.0186,B*77
$GPRMC,181925.00,A,3731.73268,N,12215.97958,W,0.137,,050821,,,D*6B
$GPVTG,,T,,M,0.137,N,0.254,K,D*20
$GPGGA,181925.00,3731.73268,N,12215.97958,W,2,06,1.32,5.3,M,-30.0,M,,0000*64
$GPGSA,A,3,05,18,02,51,29,26,,,,,,,2.13,1.32,1.67*07
$GPGSV,4,1,15,02,11,067,13,05,59,069,14,11,04,063,,12,18,167,*71
$GPGSV,4,2,15,13,09,106,,15,16,138,,18,44,270,21,20,28,047,*7A
$GPGSV,4,3,15,23,19,203,,25,43,192,,26,22,313,20,29,73,010,18*78
$GPGSV,4,4,15,31,06,271,,46,46,191,,51,44,156,29*49
$GPGLL,3731.73268,N,12215.97958,W,181925.00,A,D*79
$BMXDR,H,37.1,P,0,C,38.6,C,1,P,101860,P,2*6C
$BMMDA,30.079,I,1.019,B,38.6,C,,,37.1,,,,,,,,,,,*33
$BMMTA,38.6,C*07
$BMMMB,30.0827,I,1.0186,B*76
$GPRMC,181926.00,A,3731.73283,N,12215.97925,W,0.225,,050821,,,D*67
$GPVTG,,T,,M,0.225,N,0.417,K,D*21
$GPGGA,181926.00,3731.73283,N,12215.97925,W,2,06,1.32,5.3,M,-30.0,M,,0000*68
$GPGSA,A,3,05,18,02,51,29,26,,,,,,,2.13,1.32,1.67*07
$GPGSV,4,1,15,02,11,067,13,05,59,069,13,11,04,063,,12,18,167,*76
$GPGSV,4,2,15,13,09,106,,15,16,138,,18,44,270,20,20,28,047,*7B
$GPGSV,4,3,15,23,19,203,,25,43,192,,26,22,313,19,29,73,010,18*72
$GPGSV,4,4,15,31,06,271,,46,46,191,,51,44,156,29*49
$GPGLL,3731.73283,N,12215.97925,W,181926.00,A,D*75
$GPRMC,181927.00,A,3731.73304,N,12215.97906,W,0.143,,050821,,,D*6A
$GPVTG,,T,,M,0.143,N,0.265,K,D*21
$GPGGA,181927.00,3731.73304,N,12215.97906,W,2,06,1.32,5.3,M,-30.0,M,,0000*66
$GPGSA,A,3,05,18,02,51,29,26,,,,,,,2.13,1.32,1.67*07
$GPGSV,4,1,15,02,11,067,16,05,59,069,15,11,04,063,,12,18,167,*75
$GPGSV,4,2,15,13,09,106,,15,16,138,,18,44,270,21,20,28,047,*7A
$GPGSV,4,3,15,23,19,203,,25,43,192,,26,22,313,20,29,73,010,18*78
$GPGSV,4,4,15,31,06,271,,46,46,191,,51,44,156,29*49
$GPGLL,3731.73304,N,12215.97906,W,181927.00,A,D*7B
$BMXDR,H,37.2,P,0,C,38.6,C,1,P,101861,P,2*6E
$BMMDA,30.080,I,1.019,B,38.6,C,,,37.2,,,,,,,,,,,*36
$BMMTA,38.6,C*07
$BMMMB,30.0831,I,1.0186,B*71
$GPRMC,181928.00,A,3731.73294,N,12215.97896,W,0.237,,050821,,,D*65
$GPVTG,,T,,M,0.237,N,0.438,K,D*2F
$GPGGA,181928.00,3731.73294,N,12215.97896,W,2,06,1.32,5.5,M,-30.0,M,,0000*6F
$GPGSA,A,3,05,18,02,51,29,26,,,,,,,2.13,1.32,1.67*07
$GPGSV,4,1,15,02,11,067,16,05,59,069,16,11,04,063,,12,18,167,*76
$GPGSV,4,2,15,13,09,106,,15,16,138,,18,44,270,21,20,28,047,*7A
$GPGSV,4,3,15,23,19,203,,25,43,192,,26,22,313,21,29,73,010,18*79
$GPGSV,4,4,15,31,06,271,,46,46,191,,51,44,156,29*49
$GPGLL,3731.73294,N,12215.97896,W,181928.00,A,D*74
$BMXDR,H,37.3,P,0,C,38.6,C,1,P,101862,P,2*6C
$BMMDA,30.080,I,1.019,B,38.6,C,,,37.3,,,,,,,,,,,*37
$BMMTA,38.6,C*07
$BMMMB,30.0832,I,1.0186,B*72
$GPRMC,181929.00,A,3731.73318,N,12215.97865,W,0.176,,050821,,,D*6B
$GPVTG,,T,,M,0.176,N,0.325,K,D*22
$GPGGA,181929.00,3731.73318,N,12215.97865,W,2,06,1.32,5.7,M,-30.0,M,,0000*65
$GPGSA,A,3,05,18,02,51,29,26,,,,,,,2.13,1.32,1.67*07
$GPGSV,4,1,15,02,11,067,16,05,59,069,16,11,04,063,,12,18,167,*76
$GPGSV,4,2,15,13,09,106,,15,16,138,,18,44,270,21,20,28,047,*7A
$GPGSV,4,3,15,23,19,203,,25,43,192,,26,22,313,20,29,73,010,18*78
$GPGSV,4,4,15,31,06,271,,46,46,191,,51,44,156,29*49
$GPGLL,3731.73318,N,12215.97865,W,181929.00,A,D*7C
$BMXDR,H,37.1,P,0,C,38.6,C,1,P,101861,P,2*6D
$BMMDA,30.080,I,1.019,B,38.6,C,,,37.1,,,,,,,,,,,*35
$BMMTA,38.6,C*07
$BMMMB,30.0831,I,1.0186,B*71
$GPRMC,181930.00,A,3731.73336,N,12215.97843,W,0.228,,050821,,,D*63
$GPVTG,,T,,M,0.228,N,0.421,K,D*29
$GPGGA,181930.00,3731.73336,N,12215.97843,W,2,06,1.32,5.9,M,-30.0,M,,0000*6B
$GPGSA,A,3,05,18,02,51,29,26,,,,,,,2.13,1.32,1.67*07
$GPGSV,4,1,15,02,11,067,15,05,59,069,16,11,04,063,,12,18,167,*75
$GPGSV,4,2,15,13,09,106,,15,16,138,,18,44,270,20,20,28,047,*7B
$GPGSV,4,3,15,23,20,203,,25,43,192,,26,22,313,20,29,73,010,19*73
$GPGSV,4,4,15,31,06,271,,46,46,191,,51,44,156,29*49
$GPGLL,3731.73336,N,12215.97843,W,181930.00,A,D*7C
$BMXDR,H,37.3,P,0,C,38.6,C,1,P,101861,P,2*6F
$BMMDA,30.080,I,1.019,B,38.6,C,,,37.3,,,,,,,,,,,*37
$BMMTA,38.6,C*07
$BMMMB,30.0831,I,1.0186,B*71
$GPRMC,181931.00,A,3731.73347,N,12215.97816,W,0.356,,050821,,,D*6C
$GPVTG,,T,,M,0.356,N,0.658,K,D*2D
$GPGGA,181931.00,3731.73347,N,12215.97816,W,2,06,1.32,6.1,M,-30.0,M,,0000*67
$GPGSA,A,3,05,18,02,51,29,26,,,,,,,2.13,1.32,1.67*07
$GPGSV,4,1,15,02,11,067,16,05,59,069,15,11,04,063,,12,18,167,*75
$GPGSV,4,2,15,13,09,106,,15,16,138,,18,44,270,21,20,28,047,*7A
$GPGSV,4,3,15,23,20,203,,25,43,192,,26,22,313,20,29,73,010,20*79
$GPGSV,4,4,15,31,06,271,,46,46,191,,51,44,156,30*41
$GPGLL,3731.73347,N,12215.97816,W,181931.00,A,D*7B
$BMXDR,H,37.2,P,0,C,38.6,C,1,P,101854,P,2*68
$BMMDA,30.078,I,1.019,B,38.6,C,,,37.2,,,,,,,,,,,*31
$BMMTA,38.6,C*07
$BMMMB,30.0811,I,1.0185,B*70
$GPRMC,181932.00,A,3731.73371,N,12215.97758,W,0.700,,050821,,,D*68
$GPVTG,,T,,M,0.700,N,1.296,K,D*2D
$GPGGA,181932.00,3731.73371,N,12215.97758,W,2,06,1.32,6.2,M,-30.0,M,,0000*67
$GPGSA,A,3,05,18,02,51,29,26,,,,,,,2.13,1.32,1.67*07
$GPGSV,4,1,15,02,11,067,17,05,59,069,16,11,04,063,,12,18,167,*77
$GPGSV,4,2,15,13,09,106,,15,16,138,,18,44,270,21,20,28,047,*7A
$GPGSV,4,3,15,23,20,203,,25,42,192,,26,22,313,20,29,73,010,21*79
$GPGSV,4,4,15,31,06,271,,46,46,191,,51,44,156,30*41
$GPGLL,3731.73371,N,12215.97758,W,181932.00,A,D*78
$BMXDR,H,37.3,P,0,C,38.7,C,1,P,101857,P,2*6B
$BMMDA,30.078,I,1.019,B,38.7,C,,,37.3,,,,,,,,,,,*31
$BMMTA,38.7,C*06
$BMMMB,30.0817,I,1.0186,B*75
$GPRMC,181933.00,A,3731.73372,N,12215.97751,W,0.441,,050821,,,D*65
$GPVTG,,T,,M,0.441,N,0.816,K,D*28
$GPGGA,181933.00,3731.73372,N,12215.97751,W,2,06,1.32,6.4,M,-30.0,M,,0000*6A
$GPGSA,A,3,05,18,02,51,29,26,,,,,,,2.13,1.32,1.67*07
$GPGSV,4,1,15,02,11,067,17,05,59,069,16,11,04,063,,12,18,167,*77
$GPGSV,4,2,15,13,09,106,,15,16,138,,18,44,270,21,20,28,047,*7A
$GPGSV,4,3,15,23,20,203,,25,42,192,,26,22,313,20,29,73,010,21*79
$GPGSV,4,4,15,31,06,271,,46,46,191,,51,44,156,30*41
$GPGLL,3731.73372,N,12215.97751,W,181933.00,A,D*73
$BMXDR,H,37.4,P,0,C,38.6,C,1,P,101854,P,2*6E
$BMMDA,30.077,I,1.019,B,38.6,C,,,37.4,,,,,,,,,,,*38
$BMMTA,38.6,C*07
$BMMMB,30.0808,I,1.0185,B*78
$GPRMC,181934.00,A,3731.73401,N,12215.97695,W,0.861,,050821,,,D*66
$GPVTG,,T,,M,0.861,N,1.594,K,D*20
$GPGGA,181934.00,3731.73401,N,12215.97695,W,2,06,1.32,6.4,M,-30.0,M,,0000*67
$GPGSA,A,3,05,18,02,51,29,26,,,,,,,2.13,1.32,1.67*07
$GPGSV,4,1,15,02,11,067,17,05,59,069,17,11,04,063,,12,18,167,*76
$GPGSV,4,2,15,13,09,106,,15,16,138,,18,44,270,21,20,28,047,*7A
$GPGSV,4,3,15,23,20,203,,25,42,192,,26,22,313,20,29,73,010,21*79
$GPGSV,4,4,15,31,06,271,,46,46,191,,51,44,156,30*41
$GPGLL,3731.73401,N,12215.97695,W,181934.00,A,D*7E
$BMXDR,H,37.2,P,0,C,38.6,C,1,P,101856,P,2*6A
$BMMDA,30.078,I,1.019,B,38.6,C,,,37.2,,,,,,,,,,,*31
$BMMTA,38.6,C*07
$BMMMB,30.0814,I,1.0186,B*76
$GPRMC,181935.00,A,3731.73393,N,12215.97704,W,0.418,,050821,,,D*60
$GPVTG,,T,,M,0.418,N,0.775,K,D*2E
$GPGGA,181935.00,3731.73393,N,12215.97704,W,2,06,1.32,6.3,M,-30.0,M,,0000*64
$GPGSA,A,3,05,18,02,51,29,26,,,,,,,2.13,1.32,1.67*07
$GPGSV,4,1,15,02,11,067,16,05,59,069,16,11,04,063,,12,18,167,*76
$GPGSV,4,2,15,13,09,106,,15,16,138,,18,44,270,20,20,28,047,*7B
$GPGSV,4,3,15,23,20,203,,25,42,192,,26,22,313,19,29,73,011,20*73
$GPGSV,4,4,15,31,06,271,06,46,46,191,,51,44,156,29*4F
$GPGLL,3731.73393,N,12215.97704,W,181935.00,A,D*7A
$GPRMC,181936.00,A,3731.73409,N,12215.97698,W,0.355,,050821,,,D*6D
$BMXDR,H,37.2,P,0,C,38.7,C,1,P,101857,P,2*6A
$GPVTG,,T,,M,0.355,N,0.658,K,D*2E
$BMMDA,30.078,I,1.019,B,38.7,C,,,37.2,,,,,,,,,,,*30
$GPGGA,181936.00,3731.73409,N,12215.97698,W,2,06,1.32,6.1,M,-30.0,M,,0000*65
$BMMTA,38.7,C*06
$GPGSA,A,3,05,18,02,51,29,26,,,,,,,2.13,1.32,1.67*07
$BMMMB,30.0819,I,1.0186,B*7B
$GPGSV,4,1,15,02,11,067,15,05,59,069,16,11,04,063,,12,18,167,*75
$GPGSV,4,2,15,13,09,106,,15,16,138,,18,44,270,21,20,28,047,*7A
$GPGSV,4,3,15,23,20,203,,25,42,192,,26,22,313,19,29,73,011,19*79
$GPGSV,4,4,15,31,06,271,08,46,46,191,,51,44,156,29*41
$GPGLL,3731.73409,N,12215.97698,W,181936.00,A,D*79
$GPRMC,181937.00,A,3731.73414,N,12215.97675,W,0.410,,050821,,,D*65
$GPVTG,,T,,M,0.410,N,0.760,K,D*22
$GPGGA,181937.00,3731.73414,N,12215.97675,W,2,06,1.32,6.0,M,-30.0,M,,0000*6A
$GPGSA,A,3,05,18,02,51,29,26,,,,,,,2.13,1.32,1.67*07
$GPGSV,4,1,15,02,11,067,14,05,59,069,14,11,04,063,,12,18,167,*76
$GPGSV,4,2,15,13,09,106,,15,16,138,,18,44,270,21,20,28,047,*7A
$GPGSV,4,3,15,23,20,203,,25,42,192,,26,22,313,18,29,73,011,18*79
$GPGSV,4,4,15,31,06,270,09,46,46,191,,51,44,156,30*49
$GPGLL,3731.73414,N,12215.97675,W,181937.00,A,D*77
$BMXDR,H,37.2,P,0,C,38.7,C,1,P,101858,P,2*65
$BMMDA,30.079,I,1.019,B,38.7,C,,,37.2,,,,,,,,,,,*31
$BMMTA,38.7,C*06
$BMMMB,30.0822,I,1.0186,B*73
$GPRMC,181938.00,A,3731.73406,N,12215.97658,W,0.384,,050821,,,D*6C
$GPVTG,,T,,M,0.384,N,0.710,K,D*2F
$GPGGA,181938.00,3731.73406,N,12215.97658,W,2,06,1.32,5.9,M,-30.0,M,,0000*63
$GPGSA,A,3,05,18,02,51,29,26,,,,,,,2.13,1.32,1.67*07
$GPGSV,4,1,15,02,11,067,15,05,59,069,15,11,04,063,,12,18,167,*76
$GPGSV,4,2,15,13,09,106,,15,16,138,,18,44,270,21,20,28,047,*7A
$GPGSV,4,3,15,23,20,203,,25,42,192,,26,22,313,19,29,73,011,19*79
$GPGSV,4,4,15,31,06,270,11,46,46,191,,51,44,156,30*40
$GPGLL,3731.73406,N,12215.97658,W,181938.00,A,D*74
$BMXDR,H,37.2,P,0,C,38.6,C,1,P,101855,P,2*69
$BMMDA,30.078,I,1.019,B,38.6,C,,,37.2,,,,,,,,,,,*31
$BMMTA,38.6,C*07
$BMMMB,30.0813,I,1.0186,B*71
$GPRMC,181939.00,A,3731.73413,N,12215.97655,W,0.268,,050821,,,D*67
$GPVTG,,T,,M,0.268,N,0.496,K,D*21
$GPGGA,181939.00,3731.73413,N,12215.97655,W,2,06,1.32,5.9,M,-30.0,M,,0000*6B
$GPGSA,A,3,05,18,02,51,29,26,,,,,,,2.13,1.32,1.67*07
$GPGSV,4,1,15,02,11,067,15,05,59,069,16,11,04,063,,12,18,167,*75
$GPGSV,4,2,15,13,09,106,,15,16,138,,18,44,270,22,20,28,047,*79
$GPGSV,4,3,15,23,20,203,,25,42,192,,26,22,313,19,29,73,011,19*79
$GPGSV,4,4,15,31,06,270,12,46,46,191,,51,44,156,30*43
$GPGLL,3731.73413,N,12215.97655,W,181939.00,A,D*7C
$BMXDR,H,37.2,P,0,C,38.7,C,1,P,101856,P,2*6B
$BMMDA,30.078,I,1.019,B,38.7,C,,,37.2,,,,,,,,,,,*30
$BMMTA,38.7,C*06
$BMMMB,30.0814,I,1.0186,B*76
$GPRMC,181940.00,A,3731.73412,N,12215.97649,W,0.316,,050821,,,D*6D
$GPVTG,,T,,M,0.316,N,0.584,K,D*2B
$GPGGA,181940.00,3731.73412,N,12215.97649,W,2,06,1.32,6.0,M,-30.0,M,,0000*63
$GPGSA,A,3,05,18,02,51,29,26,,,,,,,2.13,1.32,1.67*07
$GPGSV,4,1,15,02,11,067,15,05,59,069,17,11,04,063,,12,18,167,*74
$GPGSV,4,2,15,13,09,106,,15,16,138,,18,44,270,22,20,28,047,*79
$GPGSV,4,3,15,23,20,203,,25,42,192,,26,22,313,20,29,73,011,19*73
$GPGSV,4,4,15,31,06,270,13,46,46,191,,51,44,156,30*42
$GPGLL,3731.73412,N,12215.97649,W,181940.00,A,D*7E
$BMXDR,H,37.2,P,0,C,38.6,C,1,P,101855,P,2*69
$BMMDA,30.078,I,1.019,B,38.6,C,,,37.2,,,,,,,,,,,*31
$BMMTA,38.6,C*07
$BMMMB,30.0813,I,1.0186,B*71
$GPRMC,181941.00,A,3731.73423,N,12215.97644,W,0.186,,050821,,,D*68
$GPVTG,,T,,M,0.186,N,0.345,K,D*2B
$GPGGA,181941.00,3731.73423,N,12215.97644,W,2,06,1.32,6.2,M,-30.0,M,,0000*6F
$GPGSA,A,3,05,18,02,51,29,26,,,,,,,2.13,1.32,1.67*07
$GPGSV,4,1,15,02,11,067,15,05,59,069,17,11,04,063,,12,18,167,*74
$GPGSV,4,2,15,13,09,106,,15,16,138,,18,44,270,22,20,28,047,*79
$GPGSV,4,3,15,23,20,203,,25,42,192,,26,22,313,20,29,73,011,19*73
$GPGSV,4,4,15,31,06,270,13,46,46,191,,51,44,156,30*42
$GPGLL,3731.73423,N,12215.97644,W,181941.00,A,D*70
$BMXDR,H,37.2,P,0,C,38.7,C,1,P,101858,P,2*65
$BMMDA,30.079,I,1.019,B,38.7,C,,,37.2,,,,,,,,,,,*31
$BMMTA,38.7,C*06
$BMMMB,30.0820,I,1.0186,B*71
$GPRMC,181942.00,A,3731.73452,N,12215.97616,W,0.418,,050821,,,D*68
$GPVTG,,T,,M,0.418,N,0.774,K,D*2F
$GPGGA,181942.00,3731.73452,N,12215.97616,W,2,06,1.32,6.3,M,-30.0,M,,0000*6C
$GPGSA,A,3,05,18,02,51,29,26,,,,,,,2.13,1.32,1.67*07
$GPGSV,4,1,15,02,11,067,16,05,59,069,16,11,04,063,,12,18,167,*76
$GPGSV,4,2,15,13,09,106,,15,16,138,,18,44,270,22,20,28,047,*79
$GPGSV,4,3,15,23,20,203,,25,42,192,,26,22,313,20,29,73,011,20*79
$GPGSV,4,4,15,31,06,270,12,46,46,191,,51,44,156,30*43
$GPGLL,3731.73452,N,12215.97616,W,181942.00,A,D*72
$BMXDR,H,37.3,P,0,C,38.7,C,1,P,101854,P,2*68
$BMMDA,30.077,I,1.019,B,38.7,C,,,37.3,,,,,,,,,,,*3E
$BMMTA,38.7,C*06
$BMMMB,30.0808,I,1.0185,B*78
$GPRMC,181943.00,A,3731.73453,N,12215.97601,W,0.438,,050821,,,D*6C
$GPVTG,,T,,M,0.438,N,0.810,K,D*20
$GPGGA,181943.00,3731.73453,N,12215.97601,W,2,06,1.32,6.5,M,-30.0,M,,0000*6C
$GPGSA,A,3,05,18,02,51,29,26,,,,,,,2.13,1.32,1.67*07
$GPGSV,4,1,15,02,11,067,15,05,59,069,16,11,04,063,,12,18,167,*75
$GPGSV,4,2,15,13,09,106,,15,16,138,,18,44,270,22,20,28,047,*79
$GPGSV,4,3,15,23,20,203,,25,42,192,,26,22,313,20,29,73,011,20*79
$GPGSV,4,4,15,31,06,270,12,46,46,191,,51,44,156,30*43
$GPGLL,3731.73453,N,12215.97601,W,181943.00,A,D*74
$BMXDR,H,37.1,P,0,C,38.7,C,1,P,101855,P,2*6B
$BMMDA,30.078,I,1.019,B,38.7,C,,,37.1,,,,,,,,,,,*33
$BMMTA,38.7,C*06
$BMMMB,30.0813,I,1.0186,B*71
$GPRMC,181944.00,A,3731.73465,N,12215.97580,W,0.570,,050821,,,D*69
$GPVTG,,T,,M,0.570,N,1.056,K,D*26
$GPGGA,181944.00,3731.73465,N,12215.97580,W,2,06,1.32,6.6,M,-30.0,M,,0000*67
$GPGSA,A,3,05,18,02,51,29,26,,,,,,,2.13,1.32,1.67*07
$GPGSV,4,1,15,02,11,067,16,05,59,069,15,11,04,063,,12,18,167,*75
$GPGSV,4,2,15,13,09,106,,15,16,138,,18,44,270,22,20,28,047,*79
$GPGSV,4,3,15,23,20,203,,25,42,192,,26,22,313,20,29,73,011,21*78
$GPGSV,4,4,15,31,06,270,16,46,46,191,,51,44,156,30*47
$GPGLL,3731.73465,N,12215.97580,W,181944.00,A,D*7C
$GPRMC,181945.00,A,3731.73487,N,12215.97558,W,0.765,,050821,,,D*67
$BMXDR,H,37.1,P,0,C,38.7,C,1,P,101861,P,2*6C
$GPVTG,,T,,M,0.765,N,1.416,K,D*20
$BMMDA,30.079,I,1.019,B,38.7,C,,,37.1,,,,,,,,,,,*32
$GPGGA,181945.00,3731.73487,N,12215.97558,W,2,06,1.32,6.4,M,-30.0,M,,0000*6D
$BMMTA,38.7,C*06
$GPGSA,A,3,05,18,02,51,29,26,,,,,,,2.13,1.32,1.67*07
$BMMMB,30.0829,I,1.0186,B*78
$GPGSV,4,1,15,02,11,067,16,05,59,069,16,11,04,063,,12,18,167,*76
$GPGSV,4,2,15,13,09,106,,15,16,138,,18,44,270,22,20,28,047,*79
$GPGSV,4,3,15,23,20,203,,25,42,192,,26,22,313,21,29,73,011,22*7A
$GPGSV,4,4,15,31,06,270,17,46,46,191,,51,44,156,31*47
$GPGLL,3731.73487,N,12215.97558,W,181945.00,A,D*74
$GPRMC,181946.00,A,3731.73485,N,12215.97589,W,0.457,,050821,,,D*68
$GPVTG,,T,,M,0.457,N,0.846,K,D*2A
$GPGGA,181946.00,3731.73485,N,12215.97589,W,2,06,1.32,6.4,M,-30.0,M,,0000*60
$GPGSA,A,3,05,18,02,51,29,26,,,,,,,2.13,1.32,1.67*07
$GPGSV,4,1,15,02,11,067,15,05,59,069,15,11,04,063,,12,18,167,*76
$GPGSV,4,2,15,13,09,106,,15,16,138,,18,44,270,21,20,28,047,*7A
$GPGSV,4,3,15,23,20,203,,25,42,192,,26,22,313,20,29,73,011,20*79
$GPGSV,4,4,15,31,06,270,15,46,46,191,,51,44,156,29*4C
$GPGLL,3731.73485,N,12215.97589,W,181946.00,A,D*79
$BMXDR,H,37.2,P,0,C,38.7,C,1,P,101856,P,2*6B
$BMMDA,30.078,I,1.019,B,38.7,C,,,37.2,,,,,,,,,,,*30
$BMMTA,38.7,C*06
$BMMMB,30.0816,I,1.0186,B*74
$GPRMC,181947.00,A,3731.73474,N,12215.97571,W,0.424,,050821,,,D*64
$GPVTG,,T,,M,0.424,N,0.785,K,D*2E
$GPGGA,181947.00,3731.73474,N,12215.97571,W,2,06,1.32,6.5,M,-30.0,M,,0000*69
$GPGSA,A,3,05,18,02,51,29,26,,,,,,,2.13,1.32,1.67*07
$GPGSV,4,1,15,02,11,067,15,05,59,069,14,11,04,063,,12,18,167,*77
$GPGSV,4,2,15,13,09,106,,15,16,138,,18,44,270,21,20,28,047,*7A
$GPGSV,4,3,15,23,20,203,,25,42,192,,26,22,313,20,29,73,011,20*79
$GPGSV,4,4,15,31,06,270,15,46,46,191,,51,44,156,29*4C
$GPGLL,3731.73474,N,12215.97571,W,181947.00,A,D*71
$BMXDR,H,37.2,P,0,C,38.7,C,1,P,101859,P,2*64
$BMMDA,30.079,I,1.019,B,38.7,C,,,37.2,,,,,,,,,,,*31
$BMMTA,38.7,C*06
$BMMMB,30.0824,I,1.0186,B*75
$GPRMC,181948.00,A,3731.73468,N,12215.97579,W,0.270,,050821,,,D*69
$GPVTG,,T,,M,0.270,N,0.500,K,D*26
$GPGGA,181948.00,3731.73468,N,12215.97579,W,2,06,1.32,6.7,M,-30.0,M,,0000*61
$GPGSA,A,3,05,18,02,51,29,26,,,,,,,2.13,1.32,1.67*07
$GPGSV,4,1,15,02,11,067,14,05,59,069,13,11,04,063,,12,18,167,*71
$GPGSV,4,2,15,13,09,106,,15,16,138,,18,44,270,21,20,28,047,*7A
$GPGSV,4,3,15,23,20,203,,25,42,192,,26,22,313,19,29,73,011,18*78
$GPGSV,4,4,15,31,06,270,15,46,46,191,,51,44,156,29*4C
$GPGLL,3731.73468,N,12215.97579,W,181948.00,A,D*7B
$BMXDR,H,37.2,P,0,C,38.7,C,1,P,101861,P,2*6F
$BMMDA,30.079,I,1.019,B,38.7,C,,,37.2,,,,,,,,,,,*31
$BMMTA,38.7,C*06
$BMMMB,30.0828,I,1.0186,B*79
$GPRMC,181949.00,A,3731.73455,N,12215.97613,W,0.245,,050821,,,D*6F
$GPVTG,,T,,M,0.245,N,0.454,K,D*20
$GPGGA,181949.00,3731.73455,N,12215.97613,W,2,06,1.32,6.9,M,-30.0,M,,0000*6F
$GPGSA,A,3,05,18,02,51,29,26,,,,,,,2.13,1.32,1.67*07
$GPGSV,4,1,15,02,11,067,16,05,59,069,14,11,04,063,,12,18,167,*74
$GPGSV,4,2,15,13,09,106,,15,16,138,,18,44,270,22,20,28,047,*79
$GPGSV,4,3,15,23,20,203,,25,42,192,,26,22,313,19,29,73,011,19*79
$GPGSV,4,4,15,31,06,270,16,46,46,191,,51,44,156,29*4F
$GPGLL,3731.73455,N,12215.97613,W,181949.00,A,D*7B
$BMXDR,H,37.2,P,0,C,38.7,C,1,P,101858,P,2*65
$BMMDA,30.079,I,1.019,B,38.7,C,,,37.2,,,,,,,,,,,*31
$BMMTA,38.7,C*06
$BMMMB,30.0822,I,1.0186,B*73
$GPRMC,181950.00,A,3731.73437,N,12215.97639,W,0.511,,050821,,,D*6D
$GPVTG,,T,,M,0.511,N,0.946,K,D*28
$GPGGA,181950.00,3731.73437,N,12215.97639,W,2,06,1.32,6.9,M,-30.0,M,,0000*6B
$GPGSA,A,3,05,18,02,51,29,26,,,,,,,2.13,1.32,1.67*07
$GPGSV,4,1,15,02,11,067,16,05,59,069,15,11,04,063,,12,18,167,*75
$GPGSV,4,2,15,13,09,106,,15,16,138,,18,44,270,22,20,28,047,*79
$GPGSV,4,3,15,23,20,203,,25,42,192,,26,22,313,19,29,73,011,19*79
$GPGSV,4,4,15,31,06,270,17,46,46,191,,51,44,156,30*46
$GPGLL,3731.73437,N,12215.97639,W,181950.00,A,D*7F
$BMXDR,H,37.2,P,0,C,38.7,C,1,P,101857,P,2*6A
$BMMDA,30.078,I,1.019,B,38.7,C,,,37.2,,,,,,,,,,,*30
$BMMTA,38.7,C*06
$BMMMB,30.0817,I,1.0186,B*75
$GPRMC,181951.00,A,3731.73433,N,12215.97637,W,0.375,,050821,,,D*62
$GPVTG,,T,,M,0.375,N,0.695,K,D*2D
$GPGGA,181951.00,3731.73433,N,12215.97637,W,2,06,1.32,7.0,M,-30.0,M,,0000*68
$GPGSA,A,3,05,18,02,51,29,26,,,,,,,2.13,1.32,1.67*07
$GPGSV,4,1,15,02,11,067,16,05,59,069,17,11,04,063,,12,18,167,*77
$GPGSV,4,2,15,13,09,106,,15,16,138,,18,44,270,22,20,28,047,*79
$GPGSV,4,3,15,23,20,203,,25,42,192,,26,22,313,18,29,73,011,19*78
$GPGSV,4,4,15,31,06,270,17,46,46,191,,51,44,156,30*46
$GPGLL,3731.73433,N,12215.97637,W,181951.00,A,D*74
$BMXDR,H,37.2,P,0,C,38.7,C,1,P,101857,P,2*6A
$BMMDA,30.078,I,1.019,B,38.7,C,,,37.2,,,,,,,,,,,*30
$BMMTA,38.7,C*06
$BMMMB,30.0818,I,1.0186,B*7A
$GPRMC,181952.00,A,3731.73422,N,12215.97619,W,0.326,,050821,,,D*6B
$GPVTG,,T,,M,0.326,N,0.604,K,D*23
$GPGGA,181952.00,3731.73422,N,12215.97619,W,2,06,1.32,6.9,M,-30.0,M,,0000*6F
$GPGSA,A,3,05,18,02,51,29,26,,,,,,,2.13,1.32,1.67*07
$GPGSV,4,1,15,02,11,067,17,05,59,069,17,11,04,063,,12,18,167,*76
$GPGSV,4,2,15,13,09,106,,15,16,138,,18,44,270,22,20,28,047,*79
$GPGSV,4,3,15,23,20,203,,25,42,192,,26,22,313,19,29,73,011,19*79
$GPGSV,4,4,15,31,06,270,17,46,46,191,,51,44,156,30*46
$GPGLL,3731.73422,N,12215.97619,W,181952.00,A,D*7B
$BMXDR,H,37.5,P,0,C,38.7,C,1,P,101862,P,2*6B
$BMMDA,30.080,I,1.019,B,38.7,C,,,37.5,,,,,,,,,,,*30
$BMMTA,38.7,C*06
$BMMMB,30.0833,I,1.0186,B*73
$GPRMC,181953.00,A,3731.73413,N,12215.97622,W,0.296,,050821,,,D*6A
$GPVTG,,T,,M,0.296,N,0.548,K,D*22
$GPGGA,181953.00,3731.73413,N,12215.97622,W,2,06,1.32,6.9,M,-30.0,M,,0000*64
$GPGSA,A,3,05,18,02,51,29,26,,,,,,,2.13,1.32,1.67*07
$GPGSV,4,1,15,02,10,067,17,05,59,069,18,11,04,063,,12,18,167,*78
$GPGSV,4,2,15,13,09,106,,15,16,138,,18,44,270,22,20,28,047,*79
$GPGSV,4,3,15,23,20,203,,25,42,192,,26,22,313,19,29,73,011,20*73
$GPGSV,4,4,15,31,06,270,17,46,46,191,,51,44,156,30*46
$GPGLL,3731.73413,N,12215.97622,W,181953.00,A,D*70
$BMXDR,H,37.6,P,0,C,38.7,C,1,P,101857,P,2*6E
$GPRMC,181954.00,A,3731.73407,N,12215.97614,W,0.367,,050821,,,D*62
$BMMDA,30.078,I,1.019,B,38.7,C,,,37.6,,,,,,,,,,,*34
$GPVTG,,T,,M,0.367,N,0.680,K,D*2A
$BMMTA,38.7,C*06
$GPGGA,181954.00,3731.73407,N,12215.97614,W,2,06,1.32,6.9,M,-30.0,M,,0000*63
$BMMMB,30.0817,I,1.0186,B*75
$GPGSA,A,3,05,18,02,51,29,26,,,,,,,2.13,1.32,1.67*07
$GPGSV,4,1,15,02,10,067,16,05,59,069,18,11,04,063,,12,18,167,*79
$GPGSV,4,2,15,13,09,106,,15,16,138,,18,44,270,22,20,28,047,*79
$GPGSV,4,3,15,23,20,203,,25,42,192,,26,22,313,19,29,73,011,20*73
$GPGSV,4,4,15,31,06,270,17,46,46,191,,51,44,156,30*46
$GPGLL,3731.73407,N,12215.97614,W,181954.00,A,D*77
$GPRMC,181955.00,A,3731.73411,N,12215.97603,W,0.334,,050821,,,D*64
$GPVTG,,T,,M,0.334,N,0.618,K,D*2D
$GPGGA,181955.00,3731.73411,N,12215.97603,W,2,06,1.32,6.9,M,-30.0,M,,0000*63
$GPGSA,A,3,05,18,02,51,29,26,,,,,,,2.13,1.32,1.67*07
$GPGSV,4,1,15,02,10,067,16,05,59,069,19,11,04,063,,12,18,167,*78
$GPGSV,4,2,15,13,09,106,,15,16,138,,18,44,270,23,20,28,047,*78
$GPGSV,4,3,15,23,20,203,,25,42,192,,26,22,313,18,29,73,011,21*73
$GPGSV,4,4,15,31,06,270,17,46,46,191,,51,44,156,30*46
$GPGLL,3731.73411,N,12215.97603,W,181955.00,A,D*77
$BMXDR,H,37.4,P,0,C,38.7,C,1,P,101863,P,2*6B
$BMMDA,30.080,I,1.019,B,38.7,C,,,37.4,,,,,,,,,,,*31
$BMMTA,38.7,C*06
$BMMMB,30.0836,I,1.0186,B*76
$GPRMC,181956.00,A,3731.73406,N,12215.97599,W,0.318,,050821,,,D*6F
$GPVTG,,T,,M,0.318,N,0.588,K,D*29
$GPGGA,181956.00,3731.73406,N,12215.97599,W,2,06,1.32,6.9,M,-30.0,M,,0000*66
$GPGSA,A,3,05,18,02,51,29,26,,,,,,,2.13,1.32,1.67*07
$GPGSV,4,1,15,02,10,067,16,05,59,069,19,11,04,063,,12,18,167,*78
$GPGSV,4,2,15,13,09,106,,15,16,138,,18,44,270,23,20,28,047,*78
$GPGSV,4,3,15,23,20,203,,25,42,192,,26,22,313,19,29,73,011,20*73
$GPGSV,4,4,15,31,06,270,15,46,46,191,,51,44,156,30*44
$GPGLL,3731.73406,N,12215.97599,W,181956.00,A,D*72
$BMXDR,H,37.3,P,0,C,38.7,C,1,P,101856,P,2*6A
$BMMDA,30.078,I,1.019,B,38.7,C,,,37.3,,,,,,,,,,,*31
$BMMTA,38.7,C*06
$BMMMB,30.0816,I,1.0186,B*74
$GPRMC,181957.00,A,3731.73395,N,12215.97617,W,0.294,,050821,,,D*63
$GPVTG,,T,,M,0.294,N,0.545,K,D*2D
$GPGGA,181957.00,3731.73395,N,12215.97617,W,2,06,1.32,6.7,M,-30.0,M,,0000*61
$GPGSA,A,3,05,18,02,51,29,26,,,,,,,2.13,1.32,1.67*07
$GPGSV,4,1,15,02,10,067,15,05,59,069,18,11,04,063,,12,18,167,*7A
$GPGSV,4,2,15,13,09,106,,15,16,138,,18,44,270,22,20,28,047,*79
$GPGSV,4,3,15,23,20,203,,25,42,192,,26,22,313,19,29,73,011,20*73
$GPGSV,4,4,15,31,06,270,14,46,46,191,,51,44,156,30*45
$GPGLL,3731.73395,N,12215.97617,W,181957.00,A,D*7B
$BMXDR,H,37.4,P,0,C,38.7,C,1,P,101857,P,2*6C
$BMMDA,30.078,I,1.019,B,38.7,C,,,37.4,,,,,,,,,,,*36
$BMMTA,38.7,C*06
$BMMMB,30.0819,I,1.0186,B*7B
$GPRMC,181958.00,A,3731.73409,N,12215.97618,W,0.251,,050821,,,D*68
$GPVTG,,T,,M,0.251,N,0.465,K,D*27
$GPGGA,181958.00,3731.73409,N,12215.97618,W,2,06,1.32,6.8,M,-30.0,M,,0000*6C
$GPGSA,A,3,05,18,02,51,29,26,,,,,,,2.13,1.32,1.67*07
$GPGSV,4,1,15,02,10,067,13,05,59,069,18,11,04,063,,12,18,167,*7C
$GPGSV,4,2,15,13,09,106,,15,16,138,,18,44,270,22,20,28,047,*79
$GPGSV,4,3,15,23,20,203,,25,42,192,,26,22,313,18,29,73,011,19*78
$GPGSV,4,4,15,31,06,270,14,46,46,191,,51,44,156,29*4D
$GPGLL,3731.73409,N,12215.97618,W,181958.00,A,D*79
$BMXDR,H,37.6,P,0,C,38.7,C,1,P,101856,P,2*6F
$BMMDA,30.078,I,1.019,B,38.7,C,,,37.6,,,,,,,,,,,*34
$BMMTA,38.7,C*06
$BMMMB,30.0814,I,1.0186,B*76
$GPRMC,181959.00,A,3731.73403,N,12215.97631,W,0.297,,050821,,,D*62
$GPVTG,,T,,M,0.297,N,0.549,K,D*22
$GPGGA,181959.00,3731.73403,N,12215.97631,W,2,06,1.32,6.7,M,-30.0,M,,0000*63
$GPGSA,A,3,05,18,02,51,29,26,,,,,,,2.13,1.32,1.67*07
$GPGSV,4,1,15,02,10,067,11,05,59,069,17,11,04,063,,12,18,167,*71
$GPGSV,4,2,15,13,09,106,,15,16,138,,18,44,270,22,20,28,047,*79
$GPGSV,4,3,15,23,20,203,,25,42,192,,26,22,313,17,29,73,011,18*76
$GPGSV,4,4,15,31,06,270,14,46,46,191,,51,44,156,30*45
$GPGLL,3731.73403,N,12215.97631,W,181959.00,A,D*79
$BMXDR,H,37.6,P,0,C,38.7,C,1,P,101855,P,2*6C
$BMMDA,30.078,I,1.019,B,38.7,C,,,37.6,,,,,,,,,,,*34
$BMMTA,38.7,C*06
$BMMMB,30.0812,I,1.0186,B*70
$GPRMC,182000.00,A,3731.73407,N,12215.97639,W,0.211,,050821,,,D*66
$GPVTG,,T,,M,0.211,N,0.391,K,D*2F
$GPGGA,182000.00,3731.73407,N,12215.97639,W,2,06,1.32,6.8,M,-30.0,M,,0000*66
$GPGSA,A,3,05,18,02,51,29,26,,,,,,,2.13,1.32,1.67*07
$GPGSV,4,1,15,02,10,067,10,05,59,069,17,11,04,063,,12,18,167,*70
$GPGSV,4,2,15,13,09,106,,15,16,138,,18,44,270,22,20,28,047,*79
$GPGSV,4,3,15,23,20,203,,25,42,192,,26,22,313,17,29,73,011,20*7D
$GPGSV,4,4,15,31,06,270,14,46,46,191,,51,44,156,30*45
$GPGLL,3731.73407,N,12215.97639,W,182000.00,A,D*73
$BMXDR,H,37.4,P,0,C,38.7,C,1,P,101854,P,2*6F
$BMMDA,30.077,I,1.019,B,38.7,C,,,37.4,,,,,,,,,,,*39
$BMMTA,38.7,C*06
$BMMMB,30.0808,I,1.0185,B*78
$GPRMC,182001.00,A,3731.73413,N,12215.97630,W,0.121,,050821,,,D*6B
$GPVTG,,T,,M,0.121,N,0.224,K,D*20
$GPGGA,182001.00,3731.73413,N,12215.97630,W,2,06,1.32,6.8,M,-30.0,M,,0000*6B
$GPGSA,A,3,05,18,02,51,29,26,,,,,,,2.13,1.32,1.67*07
$GPGSV,4,1,15,02,10,067,10,05,59,069,16,11,04,063,,12,18,167,*71
$GPGSV,4,2,15,13,09,106,,15,16,138,,18,44,270,22,20,28,047,*79
$GPGSV,4,3,15,23,20,203,,25,42,192,,26,22,313,17,29,73,011,20*7D
$GPGSV,4,4,15,31,06,270,14,46,46,191,,51,44,156,29*4D
$GPGLL,3731.73413,N,12215.97630,W,182001.00,A,D*7E
$BMXDR,H,37.3,P,0,C,38.6,C,1,P,101840,P,2*6C
$BMMDA,30.073,I,1.018,B,38.6,C,,,37.3,,,,,,,,,,,*3A
$BMMTA,38.6,C*07
$BMMMB,30.0768,I,1.0184,B*70
$GPRMC,182002.00,A,3731.73414,N,12215.97622,W,0.178,,050821,,,D*60
$GPVTG,,T,,M,0.178,N,0.329,K,D*20
$GPGGA,182002.00,3731.73414,N,12215.97622,W,2,06,1.32,6.9,M,-30.0,M,,0000*6D
$GPGSA,A,3,05,18,02,51,29,26,,,,,,,2.13,1.32,1.67*07
$GPGSV,4,1,15,02,10,067,15,05,59,069,15,11,03,064,,12,18,167,*77
$GPGSV,4,2,15,13,09,106,,15,16,138,,18,44,270,22,20,28,047,*79
$GPGSV,4,3,15,23,20,203,,25,42,192,,26,22,313,17,29,73,011,20*7D
$GPGSV,4,4,15,31,06,270,11,46,46,191,,51,44,156,29*48
$GPGLL,3731.73414,N,12215.97622,W,182002.00,A,D*79
$GPRMC,182003.00,A,3731.73426,N,12215.97645,W,0.152,,050821,,,D*69
$BMXDR,H,37.2,P,0,C,38.7,C,1,P,101853,P,2*6E
$GPVTG,,T,,M,0.152,N,0.282,K,D*28
$BMMDA,30.077,I,1.019,B,38.7,C,,,37.2,,,,,,,,,,,*3F
$GPGGA,182003.00,3731.73426,N,12215.97645,W,2,06,1.32,7.0,M,-30.0,M,,0000*64
$BMMTA,38.7,C*06
$GPGSA,A,3,05,18,02,51,29,26,,,,,,,2.13,1.32,1.67*07
$GPGSV,4,1,15,02,10,067,15,05,59,069,16,11,03,064,,12,18,167,*74
$BMMMB,30.0806,I,1.0185,B*76
$GPGSV,4,2,15,13,09,106,,15,16,138,,18,44,270,22,20,28,047,*79
$GPGSV,4,3,15,23,20,203,,25,42,192,,26,22,313,17,29,73,011,20*7D
$GPGSV,4,4,15,31,06,270,11,46,46,191,,51,44,156,30*40
$GPGLL,3731.73426,N,12215.97645,W,182003.00,A,D*78
$GPRMC,182004.00,A,3731.73429,N,12215.97647,W,0.159,,050821,,,D*68
$GPVTG,,T,,M,0.159,N,0.294,K,D*24
$GPGGA,182004.00,3731.73429,N,12215.97647,W,2,06,1.32,7.2,M,-30.0,M,,0000*6C
$GPGSA,A,3,05,18,02,51,29,26,,,,,,,2.13,1.32,1.67*07
$GPGSV,4,1,15,02,10,067,15,05,59,069,17,11,03,064,,12,18,167,*75
$GPGSV,4,2,15,13,09,106,,15,16,138,,18,44,270,22,20,28,047,*79
$GPGSV,4,3,15,23,20,203,,25,42,192,,26,22,313,17,29,73,011,20*7D
$GPGSV,4,4,15,31,06,270,11,46,46,191,,51,44,156,30*40
$GPGLL,3731.73429,N,12215.97647,W,182004.00,A,D*72
$BMXDR,H,37.2,P,0,C,38.7,C,1,P,101851,P,2*6C
$BMMDA,30.077,I,1.019,B,38.7,C,,,37.2,,,,,,,,,,,*3F
$BMMTA,38.7,C*06
$BMMMB,30.0800,I,1.0185,B*70
$GPRMC,182005.00,A,3731.73433,N,12215.97639,W,0.216,,050821,,,D*63
$GPVTG,,T,,M,0.216,N,0.401,K,D*26
$GPGGA,182005.00,3731.73433,N,12215.97639,W,2,06,1.32,7.5,M,-30.0,M,,0000*68
$GPGSA,A,3,05,18,02,51,29,26,,,,,,,2.13,1.32,1.67*07
$GPGSV,4,1,15,02,10,067,15,05,59,069,17,11,03,064,,12,18,167,*75
$GPGSV,4,2,15,13,09,106,,15,16,138,,18,44,270,21,20,28,047,*7A
$GPGSV,4,3,15,23,20,203,,25,42,192,,26,22,313,17,29,73,011,19*77
$GPGSV,4,4,15,31,06,270,11,46,46,191,,51,44,156,30*40
$GPGLL,3731.73433,N,12215.97639,W,182005.00,A,D*71
$BMXDR,H,37.2,P,0,C,38.7,C,1,P,101853,P,2*6E
$BMMDA,30.077,I,1.019,B,38.7,C,,,37.2,,,,,,,,,,,*3F
$BMMTA,38.7,C*06
$BMMMB,30.0807,I,1.0185,B*77
$GPRMC,182006.00,A,3731.73440,N,12215.97648,W,0.220,,050821,,,D*67
$GPVTG,,T,,M,0.220,N,0.407,K,D*25
$GPGGA,182006.00,3731.73440,N,12215.97648,W,2,06,1.32,7.6,M,-30.0,M,,0000*6A
$GPGSA,A,3,05,18,02,51,29,26,,,,,,,2.13,1.32,1.67*07
$GPGSV,4,1,15,02,10,067,16,05,59,069,17,11,03,064,,12,18,167,*76
$GPGSV,4,2,15,13,09,106,,15,16,138,,18,44,270,22,20,28,047,*79
$GPGSV,4,3,15,23,20,203,,25,42,192,,26,22,313,19,29,73,011,20*73
$GPGSV,4,4,15,31,06,270,12,46,46,191,,51,44,156,30*43
$GPGLL,3731.73440,N,12215.97648,W,182006.00,A,D*70
$BMXDR,H,37.0,P,0,C,38.7,C,1,P,101859,P,2*66
$BMMDA,30.079,I,1.019,B,38.7,C,,,37.0,,,,,,,,,,,*33
$BMMTA,38.7,C*06
$BMMMB,30.0823,I,1.0186,B*72
$GPRMC,182007.00,A,3731.73435,N,12215.97658,W,0.130,,050821,,,D*67
$GPVTG,,T,,M,0.130,N,0.241,K,D*23
$GPGGA,182007.00,3731.73435,N,12215.97658,W,2,06,1.32,7.8,M,-30.0,M,,0000*66
$GPGSA,A,3,05,18,02,51,29,26,,,,,,,2.13,1.32,1.67*07
$GPGSV,4,1,15,02,10,067,16,05,59,069,17,11,03,064,,12,18,167,*76
$GPGSV,4,2,15,13,09,106,,15,16,138,,18,44,270,22,20,28,047,*79
$GPGSV,4,3,15,23,20,203,,25,42,192,,26,22,313,18,29,73,011,20*72
$GPGSV,4,4,15,31,06,270,12,46,46,191,,51,44,156,30*43
$GPGLL,3731.73435,N,12215.97658,W,182007.00,A,D*72
$BMXDR,H,37.0,P,0,C,38.7,C,1,P,101858,P,2*67
$BMMDA,30.079,I,1.019,B,38.7,C,,,37.0,,,,,,,,,,,*33
$BMMTA,38.7,C*06
$BMMMB,30.0821,I,1.0186,B*70
$GPRMC,182008.00,A,3731.73439,N,12215.97663,W,0.168,,050821,,,D*61
$GPVTG,,T,,M,0.168,N,0.311,K,D*2A
$GPGGA,182008.00,3731.73439,N,12215.97663,W,2,06,1.32,8.0,M,-30.0,M,,0000*6A
$GPGSA,A,3,05,18,02,51,29,26,,,,,,,2.13,1.32,1.67*07
$GPGSV,4,1,15,02,10,067,16,05,59,069,18,11,03,064,,12,18,167,*79
$GPGSV,4,2,15,13,09,106,,15,16,138,,18,44,270,22,20,28,047,*79
$GPGSV,4,3,15,23,20,203,,25,42,192,,26,22,313,18,29,73,011,20*72
$GPGSV,4,4,15,31,06,270,16,46,46,191,,51,44,156,30*47
$GPGLL,3731.73439,N,12215.97663,W,182008.00,A,D*79
$BMXDR,H,37.0,P,0,C,38.7,C,1,P,101856,P,2*69
$BMMDA,30.078,I,1.019,B,38.7,C,,,37.0,,,,,,,,,,,*32
$BMMTA,38.7,C*06
$BMMMB,30.0815,I,1.0186,B*77
$GPRMC,182009.00,A,3731.73445,N,12215.97701,W,0.465,,050821,,,D*66
$GPVTG,,T,,M,0.465,N,0.861,K,D*2E
$GPGGA,182009.00,3731.73445,N,12215.97701,W,2,06,1.32,8.0,M,-30.0,M,,0000*65
$GPGSA,A,3,05,18,02,51,29,26,,,,,,,2.13,1.32,1.67*07
$GPGSV,4,1,15,02,10,067,16,05,59,069,17,11,03,064,,12,18,167,*76
$GPGSV,4,2,15,13,09,106,,15,16,138,,18,45,271,21,20,28,047,*7A
$GPGSV,4,3,15,23,20,203,,25,42,192,,26,22,313,15,29,73,011,19*75
$GPGSV,4,4,15,31,06,270,09,46,46,191,,51,44,156,30*49
$GPGLL,3731.73445,N,12215.97701,W,182009.00,A,D*76
$BMXDR,H,37.0,P,0,C,38.7,C,1,P,101859,P,2*66
$BMMDA,30.079,I,1.019,B,38.7,C,,,37.0,,,,,,,,,,,*33
$BMMTA,38.7,C*06
$BMMMB,30.0824,I,1.0186,B*75
$GPRMC,182010.00,A,3731.73449,N,12215.97706,W,0.356,,050821,,,D*62
$GPVTG,,T,,M,0.356,N,0.660,K,D*26
$GPGGA,182010.00,3731.73449,N,12215.97706,W,2,06,1.32,8.1,M,-30.0,M,,0000*67
$GPGSA,A,3,05,18,02,51,29,26,,,,,,,2.13,1.32,1.67*07
$GPGSV,4,1,15,02,10,067,15,05,59,069,17,11,03,064,,12,18,167,*75
$GPGSV,4,2,15,13,09,106,,15,16,138,,18,45,271,20,20,28,047,*7B
$GPGSV,4,3,15,23,20,203,,25,42,192,,26,22,313,13,29,73,011,18*72
$GPGSV,4,4,15,31,06,270,08,46,46,191,,51,44,156,29*40
$GPGLL,3731.73449,N,12215.97706,W,182010.00,A,D*75
$BMXDR,H,37.0,P,0,C,38.7,C,1,P,101860,P,2*6C
$BMMDA,30.079,I,1.019,B,38.7,C,,,37.0,,,,,,,,,,,*33
$BMMTA,38.7,C*06
$BMMMB,30.0828,I,1.0186,B*79
$GPRMC,182011.00,A,3731.73445,N,12215.97715,W,0.392,,050821,,,D*65
$GPVTG,,T,,M,0.392,N,0.727,K,D*2C
$GPGGA,182011.00,3731.73445,N,12215.97715,W,2,06,1.32,8.3,M,-30.0,M,,0000*6A
$GPGSA,A,3,05,18,02,51,29,26,,,,,,,2.13,1.32,1.67*07
$GPGSV,4,1,15,02,10,067,16,05,59,069,18,11,03,064,,12,18,167,*79
$GPGSV,4,2,15,13,09,106,,15,16,138,,18,45,271,21,20,28,047,*7A
$GPGSV,4,3,15,23,20,203,,25,42,192,,26,22,313,13,29,73,011,18*72
$GPGSV,4,4,15,31,06,270,10,46,46,191,,51,44,156,30*41
$GPGLL,3731.73445,N,12215.97715,W,182011.00,A,D*7A
$GPRMC,182012.00,A,3731.73442,N,12215.97753,W,0.617,,050821,,,D*6B
$BMXDR,H,36.9,P,0,C,38.7,C,1,P,101858,P,2*6F
$GPVTG,,T,,M,0.617,N,1.142,K,D*20
$BMMDA,30.079,I,1.019,B,38.7,C,,,36.9,,,,,,,,,,,*3B
$GPGGA,182012.00,3731.73442,N,12215.97753,W,2,06,1.32,8.5,M,-30.0,M,,0000*6A
$BMMTA,38.7,C*06
$GPGSA,A,3,05,18,02,51,29,26,,,,,,,2.13,1.32,1.67*07
$BMMMB,30.0822,I,1.0186,B*73
$GPGSV,4,1,15,02,10,067,16,05,59,069,19,11,03,064,,12,18,167,*78
$GPGSV,4,2,15,13,09,106,,15,16,138,,18,45,271,21,20,28,047,*7A
$GPGSV,4,3,15,23,20,203,,25,42,192,,26,22,313,15,29,73,011,19*75
$GPGSV,4,4,15,31,06,270,10,46,46,191,,51,44,156,30*41
$GPGLL,3731.73442,N,12215.97753,W,182012.00,A,D*7C
$GPRMC,182013.00,A,3731.73449,N,12215.97787,W,0.680,,050821,,,D*66
$GPVTG,,T,,M,0.680,N,1.260,K,D*2D
$GPGGA,182013.00,3731.73449,N,12215.97787,W,2,06,1.32,8.7,M,-30.0,M,,0000*6B
$GPGSA,A,3,05,18,02,51,29,26,,,,,,,2.13,1.32,1.67*07
$GPGSV,4,1,15,02,10,067,16,05,59,069,19,11,03,064,,12,18,167,*78
$GPGSV,4,2,15,13,09,106,,15,16,138,,18,45,271,21,20,28,047,*7A
$GPGSV,4,3,15,23,20,203,,25,42,192,,26,22,313,15,29,73,011,20*7F
$GPGSV,4,4,15,31,06,270,11,46,46,191,,51,44,156,30*40
$GPGLL,3731.73449,N,12215.97787,W,182013.00,A,D*7F
$BMXDR,H,37.0,P,0,C,38.7,C,1,P,101858,P,2*67
$BMMDA,30.079,I,1.019,B,38.7,C,,,37.0,,,,,,,,,,,*33
$BMMTA,38.7,C*06
$BMMMB,30.0822,I,1.0186,B*73
$GPRMC,182014.00,A,3731.73468,N,12215.97801,W,0.596,,050821,,,D*67
$GPVTG,,T,,M,0.596,N,1.104,K,D*28
$GPGGA,182014.00,3731.73468,N,12215.97801,W,2,06,1.32,8.9,M,-30.0,M,,0000*60
$GPGSA,A,3,05,18,02,51,29,26,,,,,,,2.13,1.32,1.67*07
$GPGSV,4,1,15,02,10,067,15,05,59,069,20,11,03,064,,12,18,167,*71
$GPGSV,4,2,15,13,09,106,,15,16,138,,18,45,271,22,20,28,047,*79
$GPGSV,4,3,15,23,20,203,,25,42,192,,26,22,313,15,29,73,011,20*7F
$GPGSV,4,4,15,31,06,270,12,46,46,191,,51,44,156,30*43
$GPGLL,3731.73468,N,12215.97801,W,182014.00,A,D*7A
$BMXDR,H,37.0,P,0,C,38.7,C,1,P,101860,P,2*6C
$BMMDA,30.079,I,1.019,B,38.7,C,,,37.0,,,,,,,,,,,*33
$BMMTA,38.7,C*06
$BMMMB,30.0826,I,1.0186,B*77
$GPRMC,182015.00,A,3731.73470,N,12215.97782,W,0.310,,050821,,,D*63
$GPVTG,,T,,M,0.310,N,0.573,K,D*25
$GPGGA,182015.00,3731.73470,N,12215.97782,W,2,06,1.32,9.0,M,-30.0,M,,0000*64
$GPGSA,A,3,05,18,02,51,29,26,,,,,,,2.13,1.32,1.67*07
$GPGSV,4,1,15,02,10,067,15,05,59,069,21,11,03,064,,12,18,167,*70
$GPGSV,4,2,15,13,09,106,,15,16,138,,18,45,271,22,20,28,047,*79
$GPGSV,4,3,15,23,20,203,,25,42,192,,26,22,313,17,29,73,011,20*7D
$GPGSV,4,4,15,31,06,270,12,46,46,191,,51,44,156,30*43
$GPGLL,3731.73470,N,12215.97782,W,182015.00,A,D*76
$BMXDR,H,37.0,P,0,C,38.7,C,1,P,101860,P,2*6C
$BMMDA,30.079,I,1.019,B,38.7,C,,,37.0,,,,,,,,,,,*33
$BMMTA,38.7,C*06
$BMMMB,30.0827,I,1.0186,B*76
$GPRMC,182016.00,A,3731.73464,N,12215.97789,W,0.347,,050821,,,D*6C
$GPVTG,,T,,M,0.347,N,0.642,K,D*26
$GPGGA,182016.00,3731.73464,N,12215.97789,W,2,06,1.32,8.9,M,-30.0,M,,0000*61
$GPGSA,A,3,05,18,02,51,29,26,,,,,,,2.13,1.32,1.67*07
$GPGSV,4,1,15,02,10,067,15,05,59,069,20,11,03,064,,12,18,167,*71
$GPGSV,4,2,15,13,09,106,,15,16,138,,18,45,271,21,20,28,047,*7A
$GPGSV,4,3,15,23,20,203,,25,42,192,,26,22,313,16,29,73,011,19*76
$GPGSV,4,4,15,31,06,270,14,46,46,191,,51,44,156,30*45
$GPGLL,3731.73464,N,12215.97789,W,182016.00,A,D*7B
$BMXDR,H,37.1,P,0,C,38.7,C,1,P,101855,P,2*6B
$BMMDA,30.078,I,1.019,B,38.7,C,,,37.1,,,,,,,,,,,*33
$BMMTA,38.7,C*06
$BMMMB,30.0812,I,1.0185,B*73
$GPRMC,182017.00,A,3731.73482,N,12215.97763,W,0.054,,050821,,,D*60
$GPVTG,,T,,M,0.054,N,0.101,K,D*27
$GPGGA,182017.00,3731.73482,N,12215.97763,W,2,06,1.32,9.2,M,-30.0,M,,0000*66
$GPGSA,A,3,05,18,02,51,29,26,,,,,,,2.13,1.32,1.67*07
$GPGSV,4,1,15,02,10,067,16,05,59,069,20,11,03,064,,12,18,167,*72
$GPGSV,4,2,15,13,09,106,,15,16,138,,18,45,271,22,20,28,047,*79
$GPGSV,4,3,15,23,20,203,,25,42,192,,26,22,313,17,29,73,011,20*7D
$GPGSV,4,4,15,31,06,270,15,46,46,191,,51,44,156,31*45
$GPGLL,3731.73482,N,12215.97763,W,182017.00,A,D*76
$BMXDR,H,37.1,P,0,C,38.7,C,1,P,101858,P,2*66
$BMMDA,30.079,I,1.019,B,38.7,C,,,37.1,,,,,,,,,,,*32
$BMMTA,38.7,C*06
$BMMMB,30.0820,I,1.0186,B*71
$GPRMC,182018.00,A,3731.73482,N,12215.97778,W,0.203,,050821,,,D*65
$GPVTG,,T,,M,0.203,N,0.375,K,D*26
$GPGGA,182018.00,3731.73482,N,12215.97778,W,2,06,1.32,9.3,M,-30.0,M,,0000*62
$GPGSA,A,3,05,18,02,51,29,26,,,,,,,2.13,1.32,1.67*07
$GPGSV,4,1,15,02,10,067,16,05,59,069,21,11,03,064,,12,18,167,*73
$GPGSV,4,2,15,13,09,106,,15,16,138,,18,45,271,22,20,28,047,*79
$GPGSV,4,3,15,23,20,203,,25,42,192,,26,22,313,17,29,73,011,20*7D
$GPGSV,4,4,15,31,06,270,14,46,46,191,,51,44,156,30*45
$GPGLL,3731.73482,N,12215.97778,W,182018.00,A,D*73
$BMXDR,H,37.2,P,0,C,38.7,C,1,P,101859,P,2*64
$BMMDA,30.079,I,1.019,B,38.7,C,,,37.2,,,,,,,,,,,*31
$BMMTA,38.7,C*06
$BMMMB,30.0823,I,1.0186,B*72
$GPRMC,182019.00,A,3731.73469,N,12215.97781,W,0.372,,050821,,,D*60
$GPVTG,,T,,M,0.372,N,0.689,K,D*27
$GPGGA,182019.00,3731.73469,N,12215.97781,W,2,06,1.32,9.5,M,-30.0,M,,0000*66
$GPGSA,A,3,05,18,02,51,29,26,,,,,,,2.13,1.32,1.67*07
$GPGSV,4,1,15,02,10,067,16,05,59,069,20,11,03,064,,12,18,167,*72
$GPGSV,4,2,15,13,09,106,,15,16,138,,18,45,271,21,20,28,047,*7A
$GPGSV,4,3,15,23,20,203,,25,42,192,,26,22,313,18,29,73,012,20*71
$GPGSV,4,4,15,31,06,270,13,46,46,191,,51,44,156,30*42
$GPGLL,3731.73469,N,12215.97781,W,182019.00,A,D*71
$BMXDR,H,37.3,P,0,C,38.7,C,1,P,101858,P,2*64
$BMMDA,30.079,I,1.019,B,38.7,C,,,37.3,,,,,,,,,,,*30
$BMMTA,38.7,C*06
$BMMMB,30.0821,I,1.0186,B*70
$GPRMC,182020.00,A,3731.73475,N,12215.97773,W,0.286,,050821,,,D*60
$GPVTG,,T,,M,0.286,N,0.530,K,D*2C
$GPGGA,182020.00,3731.73475,N,12215.97773,W,2,06,1.32,9.8,M,-30.0,M,,0000*61
$GPGSA,A,3,05,18,02,51,29,26,,,,,,,2.13,1.32,1.67*07
$GPGSV,4,1,15,02,10,067,14,05,59,069,18,11,03,064,,12,18,167,*7B
$GPGSV,4,2,15,13,09,106,,15,16,138,,18,45,271,19,20,28,047,*71
$GPGSV,4,3,15,23,20,203,,25,42,192,,26,22,313,17,29,73,012,18*75
$GPGSV,4,4,15,31,06,270,09,46,46,191,,51,44,156,28*40
$GPGLL,3731.73475,N,12215.97773,W,182020.00,A,D*7B
$GPRMC,182021.00,A,3731.73472,N,12215.97758,W,0.497,,050821,,,D*69
$BMXDR,H,37.4,P,0,C,38.8,C,1,P,101857,P,2*63
$GPVTG,,T,,M,0.497,N,0.920,K,D*27
$BMMDA,30.078,I,1.019,B,38.8,C,,,37.4,,,,,,,,,,,*39
$GPGGA,182021.00,3731.73472,N,12215.97758,W,2,06,1.32,10.0,M,-30.0,M,,0000*5E
$BMMTA,38.8,C*09
$GPGSA,A,3,05,18,02,51,29,26,,,,,,,2.13,1.32,1.67*07
$BMMMB,30.0819,I,1.0186,B*7B
$GPGSV,4,1,15,02,10,067,15,05,59,069,19,11,03,064,,12,18,167,*7B
$GPGSV,4,2,15,13,09,106,,15,16,138,,18,45,271,19,20,28,047,*71
$GPGSV,4,3,15,23,20,203,,25,42,192,,26,22,313,17,29,73,012,19*74
$GPGSV,4,4,15,31,06,270,09,46,46,191,,51,44,156,29*41
$GPGLL,3731.73472,N,12215.97758,W,182021.00,A,D*74
$GPRMC,182022.00,A,3731.73476,N,12215.97745,W,0.413,,050821,,,D*6E
$GPVTG,,T,,M,0.413,N,0.765,K,D*24
$GPGGA,182022.00,3731.73476,N,12215.97745,W,2,06,1.32,10.3,M,-30.0,M,,0000*56
$GPGSA,A,3,05,18,02,51,29,26,,,,,,,2.13,1.32,1.67*07
$GPGSV,4,1,15,02,10,067,15,05,59,069,20,11,03,064,,12,18,167,*71
$GPGSV,4,2,15,13,09,106,,15,16,138,,18,45,271,20,20,28,047,*7B
$GPGSV,4,3,15,23,20,203,,25,42,192,,26,22,313,19,29,73,012,19*7A
$GPGSV,4,4,15,31,06,270,10,46,46,191,,51,44,156,29*49
$GPGLL,3731.73476,N,12215.97745,W,182022.00,A,D*7F
$BMXDR,H,37.2,P,0,C,38.7,C,1,P,101858,P,2*65
$BMMDA,30.079,I,1.019,B,38.7,C,,,37.2,,,,,,,,,,,*31
$BMMTA,38.7,C*06
$BMMMB,30.0822,I,1.0186,B*73
$GPRMC,182023.00,A,3731.73479,N,12215.97724,W,0.369,,050821,,,D*6D
$GPVTG,,T,,M,0.369,N,0.683,K,D*27
$GPGGA,182023.00,3731.73479,N,12215.97724,W,2,06,1.32,10.6,M,-30.0,M,,0000*5A
$GPGSA,A,3,05,18,02,51,29,26,,,,,,,2.13,1.32,1.67*07
$GPGSV,4,1,15,02,10,067,15,05,59,069,20,11,03,064,,12,18,167,*71
$GPGSV,4,2,15,13,09,106,,15,16,138,,18,45,271,20,20,28,047,*7B
$GPGSV,4,3,15,23,20,203,,25,42,192,,26,22,313,19,29,73,012,20*70
$GPGSV,4,4,15,31,06,270,11,46,46,191,,51,44,156,30*40
$GPGLL,3731.73479,N,12215.97724,W,182023.00,A,D*76
$BMXDR,H,37.2,P,0,C,38.7,C,1,P,101859,P,2*64
$BMMDA,30.079,I,1.019,B,38.7,C,,,37.2,,,,,,,,,,,*31
$BMMTA,38.7,C*06
$BMMMB,30.0823,I,1.0186,B*72
$GPRMC,182024.00,A,3731.73487,N,12215.97720,W,0.271,,050821,,,D*67
$GPVTG,,T,,M,0.271,N,0.502,K,D*25
$GPGGA,182024.00,3731.73487,N,12215.97720,W,2,06,1.32,10.9,M,-30.0,M,,0000*57
$GPGSA,A,3,05,18,02,51,29,26,,,,,,,2.13,1.32,1.67*07
$GPGSV,4,1,15,02,10,067,15,05,59,069,20,11,03,064,,12,18,167,*71
$GPGSV,4,2,15,13,09,106,,15,16,138,,18,45,271,21,20,28,047,*7A
$GPGSV,4,3,15,23,20,203,,25,42,192,,26,22,313,19,29,73,012,19*7A
$GPGSV,4,4,15,31,06,270,11,46,46,191,,51,44,156,30*40
$GPGLL,3731.73487,N,12215.97720,W,182024.00,A,D*74
$BMXDR,H,37.2,P,0,C,38.7,C,1,P,101856,P,2*6B
$BMMDA,30.078,I,1.019,B,38.7,C,,,37.2,,,,,,,,,,,*30
$BMMTA,38.7,C*06
$BMMMB,30.0815,I,1.0186,B*77
$GPRMC,182025.00,A,3731.73499,N,12215.97716,W,0.269,,050821,,,D*65
$GPVTG,,T,,M,0.269,N,0.498,K,D*2E
$GPGGA,182025.00,3731.73499,N,12215.97716,W,2,06,1.32,10.9,M,-30.0,M,,0000*5C
$GPGSA,A,3,05,18,02,51,29,26,,,,,,,2.13,1.32,1.67*07
$GPGSV,4,1,15,02,10,067,15,05,59,069,20,11,03,064,,12,18,167,*71
$GPGSV,4,2,15,13,09,106,,15,16,138,,18,45,271,20,20,28,047,*7B
$GPGSV,4,3,15,23,20,203,,25,42,192,,26,22,313,19,29,73,012,19*7A
$GPGSV,4,4,15,31,06,270,12,46,46,191,,51,44,156,30*43
$GPGLL,3731.73499,N,12215.97716,W,182025.00,A,D*7F
$BMXDR,H,37.2,P,0,C,38.7,C,1,P,101847,P,2*6B
$BMMDA,30.076,I,1.018,B,38.7,C,,,37.2,,,,,,,,,,,*3F
$BMMTA,38.7,C*06
$BMMMB,30.0790,I,1.0185,B*76
$GPRMC,182026.00,A,3731.73510,N,12215.97736,W,0.060,,050821,,,D*6F
$GPVTG,,T,,M,0.060,N,0.112,K,D*22
$GPGGA,182026.00,3731.73510,N,12215.97736,W,2,06,1.32,10.9,M,-30.0,M,,0000*5D
$GPGSA,A,3,05,18,02,51,29,26,,,,,,,2.13,1.32,1.66*06
$GPGSV,4,1,15,02,10,067,10,05,59,069,20,11,03,064,,12,18,167,*74
$GPGSV,4,2,15,13,09,106,,15,16,138,,18,45,271,21,20,28,047,*7A
$GPGSV,4,3,15,23,20,203,,25,42,192,,26,22,313,19,29,73,012,18*7B
$GPGSV,4,4,15,31,06,270,15,46,46,191,,51,44,156,30*44
$GPGLL,3731.73510,N,12215.97736,W,182026.00,A,D*7E
$BMXDR,H,37.2,P,0,C,38.8,C,1,P,101857,P,2*65
$BMMDA,30.078,I,1.019,B,38.8,C,,,37.2,,,,,,,,,,,*3F
$BMMTA,38.8,C*09
$BMMMB,30.0817,I,1.0186,B*75
$GPRMC,182027.00,A,3731.73540,N,12215.97733,W,0.345,,050821,,,D*6A
$GPVTG,,T,,M,0.345,N,0.640,K,D*26
$GPGGA,182027.00,3731.73540,N,12215.97733,W,2,06,1.32,11.0,M,-30.0,M,,0000*54
$GPGSA,A,3,05,18,02,51,29,26,,,,,,,2.13,1.32,1.66*06
$GPGSV,4,1,15,02,10,067,10,05,59,069,20,11,03,064,,12,18,167,*74
$GPGSV,4,2,15,13,09,106,,15,16,138,,18,45,271,21,20,28,047,*7A
$GPGSV,4,3,15,23,20,203,,25,42,192,,26,22,313,19,29,73,012,19*7A
$GPGSV,4,4,15,31,06,270,15,46,46,191,,51,44,156,30*44
$GPGLL,3731.73540,N,12215.97733,W,182027.00,A,D*7F
$BMXDR,H,37.3,P,0,C,38.8,C,1,P,101855,P,2*66
$BMMDA,30.078,I,1.019,B,38.8,C,,,37.3,,,,,,,,,,,*3E
$BMMTA,38.8,C*09
$BMMMB,30.0813,I,1.0186,B*71
$GPRMC,182028.00,A,3731.73545,N,12215.97705,W,0.512,,050821,,,D*61
$GPVTG,,T,,M,0.512,N,0.949,K,D*24
$GPGGA,182028.00,3731.73545,N,12215.97705,W,2,06,1.32,11.1,M,-30.0,M,,0000*5A
$GPGSA,A,3,05,18,02,51,29,26,,,,,,,2.13,1.32,1.66*06
$GPGSV,4,1,15,02,10,067,10,05,59,069,21,11,03,064,,12,18,167,*75
$GPGSV,4,2,15,13,09,106,,15,16,138,,18,45,271,21,20,28,047,*7A
$GPGSV,4,3,15,23,20,203,,25,42,192,,26,22,313,19,29,73,012,19*7A
$GPGSV,4,4,15,31,06,270,15,46,46,191,,51,44,156,30*44
$GPGLL,3731.73545,N,12215.97705,W,182028.00,A,D*70
$BMXDR,H,37.4,P,0,C,38.8,C,1,P,101861,P,2*66
$BMMDA,30.080,I,1.019,B,38.8,C,,,37.4,,,,,,,,,,,*3E
$BMMTA,38.8,C*09
$BMMMB,30.0830,I,1.0186,B*70
$GPRMC,182029.00,A,3731.73546,N,12215.97708,W,0.415,,050821,,,D*68
$GPVTG,,T,,M,0.415,N,0.769,K,D*2E
$GPGGA,182029.00,3731.73546,N,12215.97708,W,2,06,1.32,11.2,M,-30.0,M,,0000*56
$GPGSA,A,3,05,18,02,51,29,26,,,,,,,2.13,1.32,1.66*06
$GPGSV,4,1,15,02,10,067,11,05,59,069,21,11,03,064,,12,18,167,*74
$GPGSV,4,2,15,13,09,106,,15,16,138,,18,45,271,22,20,28,047,*79
$GPGSV,4,3,15,23,20,203,,25,42,192,,26,22,313,19,29,73,012,19*7A
$GPGSV,4,4,15,31,06,270,16,46,46,191,,51,44,156,31*46
$GPGLL,3731.73546,N,12215.97708,W,182029.00,A,D*7F
$BMXDR,H,37.4,P,0,C,38.8,C,1,P,101860,P,2*67
$GPRMC,182030.00,A,3731.73557,N,12215.97710,W,0.359,,050821,,,D*66
$GPVTG,,T,,M,0.359,N,0.665,K,D*2C
$BMMDA,30.079,I,1.019,B,38.8,C,,,37.4,,,,,,,,,,,*38
$GPGGA,182030.00,3731.73557,N,12215.97710,W,2,06,1.32,11.5,M,-30.0,M,,0000*50
$BMMTA,38.8,C*09
$GPGSA,A,3,05,18,02,51,29,26,,,,,,,2.13,1.32,1.66*06
$BMMMB,30.0826,I,1.0186,B*77
$GPGSV,4,1,15,02,10,067,10,05,59,069,21,11,03,064,,12,18,167,*75
$GPGSV,4,2,15,13,09,106,,15,16,138,,18,45,271,21,20,28,047,*7A
$GPGSV,4,3,15,23,20,203,,25,42,192,,26,22,313,19,29,73,012,19*7A
$GPGSV,4,4,15,31,06,270,15,46,46,191,,51,44,156,30*44
$GPGLL,3731.73557,N,12215.97710,W,182030.00,A,D*7E
$GPRMC,182031.00,A,3731.73559,N,12215.97694,W,0.468,,050821,,,D*61
$GPVTG,,T,,M,0.468,N,0.867,K,D*25
$GPGGA,182031.00,3731.73559,N,12215.97694,W,2,06,1.32,11.6,M,-30.0,M,,0000*51
$GPGSA,A,3,05,18,02,51,29,26,,,,,,,2.13,1.32,1.66*06
$GPGSV,4,1,15,02,10,067,10,05,59,069,20,11,03,064,,12,18,167,*74
$GPGSV,4,2,15,13,09,106,,15,16,138,,18,45,271,20,20,28,047,*7B
$GPGSV,4,3,15,23,20,203,,25,42,192,,26,22,313,18,29,73,012,19*7B
$GPGSV,4,4,15,31,06,270,14,46,46,191,,51,44,156,29*4D
$GPGLL,3731.73559,N,12215.97694,W,182031.00,A,D*7C
$BMXDR,H,37.5,P,0,C,38.8,C,1,P,101860,P,2*66
$BMMDA,30.079,I,1.019,B,38.8,C,,,37.5,,,,,,,,,,,*39
$BMMTA,38.8,C*09
$BMMMB,30.0828,I,1.0186,B*79
$GPRMC,182032.00,A,3731.73553,N,12215.97710,W,0.190,,050821,,,D*67
$GPVTG,,T,,M,0.190,N,0.352,K,D*2A
$GPGGA,182032.00,3731.73553,N,12215.97710,W,2,06,1.32,11.6,M,-30.0,M,,0000*55
$GPGSA,A,3,05,18,02,51,29,26,,,,,,,2.13,1.32,1.66*06
$GPGSV,4,1,15,02,10,067,13,05,59,069,19,11,03,064,,12,18,167,*7D
$GPGSV,4,2,15,13,09,106,,15,16,138,,18,45,271,20,20,28,047,*7B
$GPGSV,4,3,15,23,20,203,,25,42,192,,26,22,313,17,29,73,012,18*75
$GPGSV,4,4,15,31,06,270,13,46,46,191,,51,44,156,28*4B
$GPGLL,3731.73553,N,12215.97710,W,182032.00,A,D*78
$BMXDR,H,37.3,P,0,C,38.7,C,1,P,101851,P,2*6D
$BMMDA,30.076,I,1.019,B,38.7,C,,,37.3,,,,,,,,,,,*3F
$BMMTA,38.7,C*06
$BMMMB,30.0799,I,1.0185,B*7F
$GPRMC,182033.00,A,3731.73554,N,12215.97717,W,0.135,,050821,,,D*69
$GPVTG,,T,,M,0.135,N,0.251,K,D*27
$GPGGA,182033.00,3731.73554,N,12215.97717,W,2,06,1.32,12.1,M,-30.0,M,,0000*50
$GPGSA,A,3,05,18,02,51,29,26,,,,,,,2.13,1.32,1.66*06
$GPGSV,4,1,15,02,10,067,14,05,59,069,20,11,03,064,,12,18,167,*70
$GPGSV,4,2,15,13,09,106,,15,16,138,,18,45,271,22,20,28,047,*79
$GPGSV,4,3,15,23,20,203,,25,42,192,,26,22,313,19,29,73,012,19*7A
$GPGSV,4,4,15,31,06,270,14,46,46,191,,51,44,156,30*45
$GPGLL,3731.73554,N,12215.97717,W,182033.00,A,D*79
$BMXDR,H,37.2,P,0,C,38.8,C,1,P,101854,P,2*66
$BMMDA,30.078,I,1.019,B,38.8,C,,,37.2,,,,,,,,,,,*3F
$BMMTA,38.8,C*09
$BMMMB,30.0810,I,1.0185,B*71
$GPRMC,182034.00,A,3731.73542,N,12215.97729,W,0.097,,050821,,,D*6D
$GPVTG,,T,,M,0.097,N,0.180,K,D*21
$GPGGA,182034.00,3731.73542,N,12215.97729,W,2,06,1.32,12.1,M,-30.0,M,,0000*5D
$GPGSA,A,3,05,18,02,51,29,26,,,,,,,2.13,1.32,1.66*06
$GPGSV,4,1,15,02,10,067,14,05,59,069,20,11,03,064,,12,18,167,*70
$GPGSV,4,2,15,13,09,106,,15,16,138,,18,45,271,21,20,28,047,*7A
$GPGSV,4,3,15,23,20,203,,25,42,192,,26,22,313,19,29,73,012,18*7B
$GPGSV,4,4,15,31,06,270,14,46,46,191,,51,44,156,30*45
$GPGLL,3731.73542,N,12215.97729,W,182034.00,A,D*74
$BMXDR,H,37.1,P,0,C,38.8,C,1,P,101855,P,2*64
$BMMDA,30.078,I,1.019,B,38.8,C,,,37.1,,,,,,,,,,,*3C
$BMMTA,38.8,C*09
$BMMMB,30.0813,I,1.0186,B*71
$GPRMC,182035.00,A,3731.73536,N,12215.97729,W,0.180,,050821,,,D*68
$GPVTG,,T,,M,0.180,N,0.333,K,D*2C
$GPGGA,182035.00,3731.73536,N,12215.97729,W,2,06,1.32,12.4,M,-30.0,M,,0000*5A
$GPGSA,A,3,05,18,02,51,29,26,,,,,,,2.13,1.32,1.66*06
$GPGSV,4,1,15,02,10,067,14,05,59,069,19,11,03,064,,12,18,167,*7A
$GPGSV,4,2,15,13,09,106,,15,16,138,,18,45,271,21,20,28,047,*7A
$GPGSV,4,3,15,23,20,203,,25,42,192,,26,22,313,19,29,73,012,19*7A
$GPGSV,4,4,15,31,06,270,14,46,46,191,,51,44,156,30*45
$GPGLL,3731.73536,N,12215.97729,W,182035.00,A,D*76
$BMXDR,H,37.0,P,0,C,38.8,C,1,P,101860,P,2*63
$BMMDA,30.079,I,1.019,B,38.8,C,,,37.0,,,,,,,,,,,*3C
$BMMTA,38.8,C*09
$BMMMB,30.0826,I,1.0186,B*77
$GPRMC,182036.00,A,3731.73526,N,12215.97763,W,0.306,,050821,,,D*68
$GPVTG,,T,,M,0.306,N,0.566,K,D*26
$GPGGA,182036.00,3731.73526,N,12215.97763,W,2,06,1.32,12.6,M,-30.0,M,,0000*54
$GPGSA,A,3,05,18,02,51,29,26,,,,,,,2.13,1.32,1.66*06
$GPGSV,4,1,15,02,10,067,14,05,59,069,19,11,03,064,,12,18,167,*7A
$GPGSV,4,2,15,13,09,106,,15,16,138,,18,45,271,21,20,28,047,*7A
$GPGSV,4,3,15,23,20,203,,25,42,192,,26,22,313,20,29,73,012,19*70
$GPGSV,4,4,15,31,06,270,14,46,46,191,,51,44,156,30*45
$GPGLL,3731.73526,N,12215.97763,W,182036.00,A,D*7A
$BMXDR,H,37.2,P,0,C,38.8,C,1,P,101861,P,2*60
$BMMDA,30.079,I,1.019,B,38.8,C,,,37.2,,,,,,,,,,,*3E
$BMMTA,38.8,C*09
$BMMMB,30.0829,I,1.0186,B*78
$GPRMC,182037.00,A,3731.73521,N,12215.97778,W,0.265,,050821,,,D*60
$GPVTG,,T,,M,0.265,N,0.491,K,D*2B
$GPGGA,182037.00,3731.73521,N,12215.97778,W,2,06,1.32,13.0,M,-30.0,M,,0000*5F
$GPGSA,A,3,05,18,02,51,29,26,,,,,,,2.13,1.32,1.66*06
$GPGSV,4,1,15,02,10,067,14,05,59,069,20,11,03,064,,12,18,167,*70
$GPGSV,4,2,15,13,09,106,,15,16,138,,18,45,271,21,20,28,047,*7A
$GPGSV,4,3,15,23,20,203,,25,42,192,,26,22,313,20,29,73,012,19*70
$GPGSV,4,4,15,31,06,270,14,46,46,191,,51,44,156,30*45
$GPGLL,3731.73521,N,12215.97778,W,182037.00,A,D*76
$BMXDR,H,37.1,P,0,C,38.8,C,1,P,101864,P,2*66
$BMMDA,30.080,I,1.019,B,38.8,C,,,37.1,,,,,,,,,,,*3B
$BMMTA,38.8,C*09
$BMMMB,30.0838,I,1.0186,B*78
$GPRMC,182038.00,A,3731.73516,N,12215.97769,W,0.271,,050821,,,D*6E
$GPVTG,,T,,M,0.271,N,0.502,K,D*25
$GPGGA,182038.00,3731.73516,N,12215.97769,W,2,06,1.32,13.5,M,-30.0,M,,0000*51
$GPGSA,A,3,05,18,02,51,29,26,,,,,,,2.13,1.32,1.66*06
$GPGSV,4,1,15,02,10,067,14,05,59,069,20,11,03,064,,12,18,167,*70
$GPGSV,4,2,15,13,09,106,,15,16,138,,18,45,271,22,20,28,047,*79
$GPGSV,4,3,15,23,20,203,,25,42,192,,26,22,313,19,29,73,012,18*7B
$GPGSV,4,4,15,31,06,270,13,46,46,191,,51,44,156,30*42
$GPGLL,3731.73516,N,12215.97769,W,182038.00,A,D*7D
$GPRMC,182039.00,A,3731.73506,N,12215.97781,W,0.348,,050821,,,D*63
$BMXDR,H,37.1,P,0,C,38.8,C,1,P,101862,P,2*60
$GPVTG,,T,,M,0.348,N,0.645,K,D*2E
$BMMDA,30.080,I,1.019,B,38.8,C,,,37.1,,,,,,,,,,,*3B
$GPGGA,182039.00,3731.73506,N,12215.97781,W,2,06,1.32,13.9,M,-30.0,M,,0000*5B
$BMMTA,38.8,C*09
$GPGSA,A,3,05,18,02,51,29,26,,,,,,,2.13,1.32,1.66*06
$BMMMB,30.0834,I,1.0186,B*74
$GPGSV,4,1,15,02,10,067,14,05,59,069,20,11,03,064,,12,18,167,*70
$GPGSV,4,2,15,13,09,106,,15,16,138,,18,45,271,22,20,28,047,*79
$GPGSV,4,3,15,23,20,203,,25,42,192,,26,22,313,19,29,73,012,17*74
$GPGSV,4,4,15,31,06,270,13,46,46,191,,51,44,156,30*42
$GPGLL,3731.73506,N,12215.97781,W,182039.00,A,D*7B
$GPRMC,182040.00,A,3731.73481,N,12215.97792,W,0.434,,050821,,,D*6D
$GPVTG,,T,,M,0.434,N,0.804,K,D*29
$GPGGA,182040.00,3731.73481,N,12215.97792,W,2,06,1.32,14.2,M,-30.0,M,,0000*55
$GPGSA,A,3,05,18,02,51,29,26,,,,,,,2.13,1.32,1.66*06
$GPGSV,4,1,15,02,10,067,14,05,59,068,21,11,03,064,,12,18,167,*70
$GPGSV,4,2,15,13,09,106,,15,16,138,,18,45,271,22,20,28,047,*79
$GPGSV,4,3,15,23,20,203,,25,42,192,,26,22,313,20,29,73,012,17*7E
$GPGSV,4,4,15,31,06,270,13,46,46,191,,51,44,156,29*4A
$GPGLL,3731.73481,N,12215.97792,W,182040.00,A,D*79
$BMXDR,H,37.1,P,0,C,38.7,C,1,P,101855,P,2*6B
$BMMDA,30.078,I,1.019,B,38.7,C,,,37.1,,,,,,,,,,,*33
$BMMTA,38.7,C*06
$BMMMB,30.0811,I,1.0185,B*70
$GPRMC,182041.00,A,3731.73460,N,12215.97820,W,0.526,,050821,,,D*67
$GPVTG,,T,,M,0.526,N,0.975,K,D*2C
$GPGGA,182041.00,3731.73460,N,12215.97820,W,2,06,1.32,14.5,M,-30.0,M,,0000*5A
$GPGSA,A,3,05,18,02,51,29,26,,,,,,,2.13,1.32,1.66*06
$GPGSV,4,1,15,02,10,067,14,05,59,068,20,11,03,064,,12,18,167,*71
$GPGSV,4,2,15,13,09,106,,15,16,138,,18,45,271,22,20,28,047,*79
$GPGSV,4,3,15,23,20,203,,25,42,192,,26,22,313,20,29,73,012,17*7E
$GPGSV,4,4,15,31,06,270,13,46,46,191,,51,44,156,30*42
$GPGLL,3731.73460,N,12215.97820,W,182041.00,A,D*71
$BMXDR,H,37.0,P,0,C,38.8,C,1,P,101863,P,2*60
$BMMDA,30.080,I,1.019,B,38.8,C,,,37.0,,,,,,,,,,,*3A
$BMMTA,38.8,C*09
$BMMMB,30.0837,I,1.0186,B*77
$GPRMC,182042.00,A,3731.73459,N,12215.97808,W,0.421,,050821,,,D*62
$GPVTG,,T,,M,0.421,N,0.780,K,D*2E
$GPGGA,182042.00,3731.73459,N,12215.97808,W,2,06,1.32,14.9,M,-30.0,M,,0000*55
$GPGSA,A,3,05,18,02,51,29,26,,,,,,,2.13,1.32,1.66*06
$GPGSV,4,1,15,02,10,067,14,05,59,068,19,11,03,064,,12,18,167,*7B
$GPGSV,4,2,15,13,09,106,,15,16,138,,18,45,271,21,20,28,047,*7A
$GPGSV,4,3,15,23,20,203,,25,42,192,,26,22,313,20,29,73,012,16*7F
$GPGSV,4,4,15,31,06,270,12,46,46,191,,51,44,156,29*4B
$GPGLL,3731.73459,N,12215.97808,W,182042.00,A,D*72
$BMXDR,H,37.1,P,0,C,38.8,C,1,P,101856,P,2*67
$BMMDA,30.078,I,1.019,B,38.8,C,,,37.1,,,,,,,,,,,*3C
$BMMTA,38.8,C*09
$BMMMB,30.0816,I,1.0186,B*74
$GPRMC,182043.00,A,3731.73482,N,12215.97779,W,0.335,,050821,,,D*6E
$GPVTG,,T,,M,0.335,N,0.620,K,D*27
$GPGGA,182043.00,3731.73482,N,12215.97779,W,2,06,1.32,15.4,M,-30.0,M,,0000*57
$GPGSA,A,3,05,18,02,51,29,26,,,,,,,2.13,1.32,1.66*06
$GPGSV,4,1,15,02,10,067,14,05,59,068,18,11,03,064,,12,18,167,*7A
$GPGSV,4,2,15,13,09,106,,15,16,138,,18,45,271,20,20,28,047,*7B
