$GPVTG,,T,,M,0.431,N,0.798,K,D*26
$GPGGA,201912.00,3731.73669,N,12215.97463,W,2,07,1.23,-7.2,M,-30.0,M,,0000*44
$GPGSA,A,3,18,13,29,15,26,23,16,,,,,,2.19,1.23,1.81*06
$GPGSV,3,1,12,05,13,049,,10,39,232,23,13,21,053,15,15,41,079,23*76
$GPGSV,3,2,12,16,28,293,27,18,67,013,21,23,74,245,25,26,28,257,16*7D
$GPGSV,3,3,12,27,13,317,10,29,42,140,25,46,46,191,,51,44,156,*79
$GPGLL,3731.73669,N,12215.97463,W,201912.00,A,D*76
$BMXDR,H,30.6,P,0,C,39.7,C,1,P,101790,P,2*6C
$BMMDA,30.058,I,1.018,B,39.7,C,,,30.6,,,,,,,,,,,*31
$BMMTA,39.7,C*07
$BMMMB,30.0619,I,1.0179,B*75
$GPRMC,201913.00,A,3731.73664,N,12215.97464,W,0.178,,050821,,,D*64
$GPVTG,,T,,M,0.178,N,0.329,K,D*20
$GPGGA,201913.00,3731.73664,N,12215.97464,W,2,07,1.23,-7.3,M,-30.0,M,,0000*4E
$GPGSA,A,3,18,13,29,15,26,23,16,,,,,,2.19,1.23,1.81*06
$GPGSV,3,1,12,05,13,049,,10,39,232,24,13,21,053,13,15,41,079,23*77
$GPGSV,3,2,12,16,28,293,27,18,67,013,21,23,74,245,24,26,28,257,15*7F
$GPGSV,3,3,12,27,13,317,10,29,42,140,25,46,46,191,,51,44,156,*79
$GPGLL,3731.73664,N,12215.97464,W,201913.00,A,D*7D
$BMXDR,H,30.8,P,0,C,39.7,C,1,P,101793,P,2*61
$BMMDA,30.059,I,1.018,B,39.7,C,,,30.8,,,,,,,,,,,*3E
$BMMTA,39.7,C*07
$BMMMB,30.0629,I,1.0179,B*76
$GPRMC,201914.00,A,3731.73657,N,12215.97465,W,0.081,,050821,,,D*65
$GPVTG,,T,,M,0.081,N,0.150,K,D*2B
$GPGGA,201914.00,3731.73657,N,12215.97465,W,2,07,1.23,-7.4,M,-30.0,M,,0000*4F
$GPGSA,A,3,18,13,29,15,26,23,16,,,,,,2.19,1.23,1.81*06
$GPGSV,3,1,12,05,13,049,,10,39,232,24,13,21,053,14,15,41,079,23*70
$GPGSV,3,2,12,16,28,293,27,18,67,013,22,23,74,245,25,26,28,257,17*7F
$GPGSV,3,3,12,27,13,317,11,29,42,140,25,46,46,191,,51,44,156,*78
$GPGLL,3731.73657,N,12215.97465,W,201914.00,A,D*7B
$BMXDR,H,31.0,P,0,C,39.7,C,1,P,101789,P,2*63
$BMMDA,30.058,I,1.018,B,39.7,C,,,31.0,,,,,,,,,,,*36
$BMMTA,39.7,C*07
$BMMMB,30.0616,I,1.0179,B*7A
$GPRMC,201915.00,A,3731.73650,N,12215.97468,W,0.181,,050821,,,D*6F
$GPVTG,,T,,M,0.181,N,0.336,K,D*28
$GPGGA,201915.00,3731.73650,N,12215.97468,W,2,07,1.23,-7.4,M,-30.0,M,,0000*44
$GPGSA,A,3,18,13,29,15,26,23,16,,,,,,2.19,1.23,1.81*06
$GPGSV,3,1,12,05,13,049,,10,39,232,25,13,21,053,14,15,41,079,23*71
$GPGSV,3,2,12,16,28,293,28,18,67,013,22,23,74,245,25,26,28,257,18*7F
$GPGSV,3,3,12,27,13,317,11,29,42,140,25,46,46,191,,51,44,156,*78
$GPGLL,3731.73650,N,12215.97468,W,201915.00,A,D*70
$BMXDR,H,31.2,P,0,C,39.8,C,1,P,101790,P,2*66
$BMMDA,30.059,I,1.018,B,39.8,C,,,31.2,,,,,,,,,,,*3A
$BMMTA,39.8,C*08
$BMMMB,30.0621,I,1.0179,B*7E
$GPRMC,201916.00,A,3731.73656,N,12215.97462,W,0.137,,050821,,,D*6D
$GPVTG,,T,,M,0.137,N,0.254,K,D*20
$GPGGA,201916.00,3731.73656,N,12215.97462,W,2,07,1.23,-7.5,M,-30.0,M,,0000*4A
$GPGSA,A,3,18,13,29,15,26,23,16,,,,,,2.19,1.23,1.81*06
$GPGSV,3,1,12,05,13,049,,10,39,232,26,13,21,053,14,15,41,079,23*72
$GPGSV,3,2,12,16,28,293,28,18,67,013,22,23,74,245,24,26,28,257,19*7F
$GPGSV,3,3,12,27,13,317,11,29,42,140,23,46,46,191,,51,44,156,*7E
$GPGLL,3731.73656,N,12215.97462,W,201916.00,A,D*7F
$BMXDR,H,31.3,P,0,C,39.8,C,1,P,101791,P,2*66
$BMMDA,30.059,I,1.018,B,39.8,C,,,31.3,,,,,,,,,,,*3B
$BMMTA,39.8,C*08
$BMMMB,30.0624,I,1.0179,B*7B
$GPRMC,201917.00,A,3731.73659,N,12215.97448,W,0.230,,050821,,,D*6F
$GPVTG,,T,,M,0.230,N,0.426,K,D*27
$GPGGA,201917.00,3731.73659,N,12215.97448,W,2,07,1.23,-7.5,M,-30.0,M,,0000*4C
$GPGSA,A,3,18,13,29,15,26,23,16,,,,,,2.19,1.23,1.81*06
$GPGSV,3,1,12,05,13,049,,10,39,232,27,13,21,053,14,15,41,079,23*73
$GPGSV,3,2,12,16,28,293,27,18,67,013,21,23,74,245,24,26,28,257,18*72
$GPGSV,3,3,12,27,13,317,11,29,42,140,24,46,46,191,,51,44,156,*79
$GPGLL,3731.73659,N,12215.97448,W,201917.00,A,D*79
$BMXDR,H,31.6,P,0,C,39.7,C,1,P,101795,P,2*68
$BMMDA,30.060,I,1.018,B,39.7,C,,,31.6,,,,,,,,,,,*3B
$BMMTA,39.7,C*07
$BMMMB,30.0634,I,1.0179,B*7A
$GPRMC,201918.00,A,3731.73662,N,12215.97441,W,0.322,,050821,,,D*63
$GPVTG,,T,,M,0.322,N,0.596,K,D*2F
$GPGGA,201918.00,3731.73662,N,12215.97441,W,2,07,1.23,-7.5,M,-30.0,M,,0000*42
$GPGSA,A,3,18,13,29,15,26,23,16,,,,,,2.19,1.23,1.81*06
$GPGSV,3,1,12,05,13,049,,10,39,232,26,13,21,053,13,15,41,079,23*75
$GPGSV,3,2,12,16,28,293,28,18,67,013,21,23,74,245,25,26,28,257,18*7C
$GPGSV,3,3,12,27,13,317,11,29,42,140,24,46,46,191,,51,44,156,27*7C
$GPGLL,3731.73662,N,12215.97441,W,201918.00,A,D*77
$BMXDR,H,31.2,P,0,C,39.7,C,1,P,101788,P,2*60
$BMMDA,30.058,I,1.018,B,39.7,C,,,31.2,,,,,,,,,,,*34
$BMMTA,39.7,C*07
$BMMMB,30.0615,I,1.0179,B*79
$GPRMC,201919.00,A,3731.73618,N,12215.97436,W,0.698,,050821,,,D*6B
$GPVTG,,T,,M,0.698,N,1.292,K,D*29
$GPGGA,201919.00,3731.73618,N,12215.97436,W,2,08,1.05,-7.6,M,-30.0,M,,0000*46
$GPGSA,A,3,18,13,51,29,15,26,23,16,,,,,2.09,1.05,1.80*06
$GPGSV,3,1,12,05,13,049,,10,39,232,25,13,21,053,14,15,41,079,22*70
$GPGSV,3,2,12,16,28,293,29,18,67,013,22,23,74,245,25,26,28,257,17*71
$GPGSV,3,3,12,27,13,317,11,29,42,140,24,46,46,191,,51,44,156,26*7D
$GPGLL,3731.73618,N,12215.97436,W,201919.00,A,D*7B
$GPRMC,201920.00,A,3731.73604,N,12215.97445,W,0.596,,050821,,,D*65
$GPVTG,,T,,M,0.596,N,1.104,K,D*28
$GPGGA,201920.00,3731.73604,N,12215.97445,W,2,07,1.23,-7.5,M,-30.0,M,,0000*4D
$GPGSA,A,3,18,13,29,15,26,23,16,,,,,,2.19,1.23,1.81*06
$GPGSV,3,1,12,05,13,049,,10,39,232,25,13,21,053,14,15,41,079,23*71
$GPGSV,3,2,12,16,28,293,29,18,67,013,21,23,74,245,25,26,28,257,17*72
$GPGSV,3,3,12,27,13,317,13,29,42,140,25,46,46,191,,51,44,156,*7A
$GPGLL,3731.73604,N,12215.97445,W,201920.00,A,D*78
$BMXDR,H,31.0,P,0,C,39.7,C,1,P,101793,P,2*68
$BMMDA,30.059,I,1.018,B,39.7,C,,,31.0,,,,,,,,,,,*37
$BMMTA,39.7,C*07
$BMMMB,30.0628,I,1.0179,B*77
$GPRMC,201921.00,A,3731.73621,N,12215.97424,W,0.376,,050821,,,D*6C
$GPVTG,,T,,M,0.376,N,0.697,K,D*2C
$GPGGA,201921.00,3731.73621,N,12215.97424,W,2,07,1.23,-7.5,M,-30.0,M,,0000*4C
$GPGSA,A,3,18,13,29,15,26,23,16,,,,,,2.19,1.23,1.81*06
$GPGSV,3,1,12,05,13,049,,10,39,232,25,13,21,053,13,15,41,079,22*77
$GPGSV,3,2,12,16,28,293,29,18,67,013,22,23,74,245,26,26,28,257,17*72
$GPGSV,3,3,12,27,13,317,13,29,42,140,24,46,46,191,,51,44,156,*7B
$GPGLL,3731.73621,N,12215.97424,W,201921.00,A,D*79
$BMXDR,H,30.5,P,0,C,39.7,C,1,P,101790,P,2*6F
$BMMDA,30.059,I,1.018,B,39.7,C,,,30.5,,,,,,,,,,,*33
$BMMTA,39.7,C*07
$BMMMB,30.0621,I,1.0179,B*7E
$GPRMC,201922.00,A,3731.73614,N,12215.97424,W,0.387,,050821,,,D*67
$GPVTG,,T,,M,0.387,N,0.718,K,D*24
$GPGGA,201922.00,3731.73614,N,12215.97424,W,2,07,1.23,-7.5,M,-30.0,M,,0000*49
$GPGSA,A,3,18,13,29,15,26,23,16,,,,,,2.19,1.23,1.81*06
$GPGSV,3,1,12,05,13,049,,10,39,232,25,13,21,053,11,15,41,079,23*74
$GPGSV,3,2,12,16,28,293,29,18,67,013,22,23,74,245,25,26,28,257,16*70
$GPGSV,3,3,12,27,13,317,13,29,42,140,25,46,46,191,,51,44,156,*7A
$GPGLL,3731.73614,N,12215.97424,W,201922.00,A,D*7C
$BMXDR,H,30.5,P,0,C,39.7,C,1,P,101783,P,2*6D
$BMMDA,30.056,I,1.018,B,39.7,C,,,30.5,,,,,,,,,,,*3C
$BMMTA,39.7,C*07
$BMMMB,30.0599,I,1.0178,B*7F
$GPRMC,201923.00,A,3731.73633,N,12215.97403,W,0.392,,050821,,,D*62
$GPVTG,,T,,M,0.392,N,0.726,K,D*2D
$GPGGA,201923.00,3731.73633,N,12215.97403,W,2,07,1.23,-7.5,M,-30.0,M,,0000*48
$GPGSA,A,3,18,13,29,15,26,23,16,,,,,,2.19,1.23,1.81*06
$GPGSV,3,1,12,05,13,049,,10,39,232,25,13,21,053,14,15,41,079,24*76
$GPGSV,3,2,12,16,28,293,28,18,67,013,22,23,74,245,25,26,28,257,15*72
$GPGSV,3,3,12,27,13,317,13,29,42,140,24,46,46,191,,51,44,156,*7B
$GPGLL,3731.73633,N,12215.97403,W,201923.00,A,D*7D
$BMXDR,H,30.5,P,0,C,39.8,C,1,P,101789,P,2*68
$BMMDA,30.058,I,1.018,B,39.8,C,,,30.5,,,,,,,,,,,*3D
$BMMTA,39.8,C*08
$BMMMB,30.0618,I,1.0179,B*74
$GPRMC,201924.00,A,3731.73642,N,12215.97391,W,0.389,,050821,,,D*65
$GPVTG,,T,,M,0.389,N,0.720,K,D*21
$GPGGA,201924.00,3731.73642,N,12215.97391,W,2,07,1.23,-7.6,M,-30.0,M,,0000*46
$GPGSA,A,3,18,13,29,15,26,23,16,,,,,,2.19,1.23,1.81*06
$GPGSV,3,1,12,05,13,049,,10,39,232,26,13,21,053,15,15,41,079,25*75
$GPGSV,3,2,12,16,28,293,28,18,67,013,22,23,74,245,25,26,28,257,15*72
$GPGSV,3,3,12,27,13,317,13,29,42,140,24,46,46,191,,51,44,156,*7B
$GPGLL,3731.73642,N,12215.97391,W,201924.00,A,D*70
$BMXDR,H,30.5,P,0,C,39.8,C,1,P,101788,P,2*69
$BMMDA,30.058,I,1.018,B,39.8,C,,,30.5,,,,,,,,,,,*3D
$BMMTA,39.8,C*08
$BMMMB,30.0616,I,1.0179,B*7A
$GPRMC,201925.00,A,3731.73618,N,12215.97417,W,0.281,,050821,,,D*6B
$GPVTG,,T,,M,0.281,N,0.521,K,D*2B
$GPGGA,201925.00,3731.73618,N,12215.97417,W,2,08,1.13,-7.6,M,-30.0,M,,0000*4D
$GPGSA,A,3,18,10,13,29,15,26,23,16,,,,,2.12,1.13,1.80*0E
$GPGSV,3,1,12,05,13,049,,10,39,232,26,13,21,053,15,15,41,079,25*75
$GPGSV,3,2,12,16,28,293,28,18,67,013,22,23,74,245,26,26,28,257,16*72
$GPGSV,3,3,12,27,13,317,,29,42,140,25,46,46,191,,51,44,156,*78
$GPGLL,3731.73618,N,12215.97417,W,201925.00,A,D*77
$BMXDR,H,30.5,P,0,C,39.8,C,1,P,101786,P,2*67
$BMMDA,30.057,I,1.018,B,39.8,C,,,30.5,,,,,,,,,,,*32
$BMMTA,39.8,C*08
$BMMMB,30.0607,I,1.0179,B*7A
$GPRMC,201926.00,A,3731.73656,N,12215.97392,W,0.440,,050821,,,D*63
$GPVTG,,T,,M,0.440,N,0.815,K,D*2A
$GPGGA,201926.00,3731.73656,N,12215.97392,W,2,08,1.13,-7.7,M,-30.0,M,,0000*4F
$GPGSA,A,3,18,10,13,29,15,26,23,16,,,,,2.12,1.13,1.80*0E
$GPGSV,3,1,12,05,13,049,,10,39,232,26,13,21,053,13,15,41,079,24*72
$GPGSV,3,2,12,16,28,293,28,18,67,013,22,23,74,245,26,26,28,257,16*72
$GPGSV,3,3,12,27,13,317,,29,42,140,25,46,46,191,,51,44,156,*78
$GPGLL,3731.73656,N,12215.97392,W,201926.00,A,D*74
$BMXDR,H,30.4,P,0,C,39.8,C,1,P,101787,P,2*67
$BMMDA,30.058,I,1.018,B,39.8,C,,,30.4,,,,,,,,,,,*3C
$BMMTA,39.8,C*08
$BMMMB,30.0610,I,1.0179,B*7C
$GPRMC,201927.00,A,3731.73673,N,12215.97370,W,0.623,,050821,,,D*6E
$GPVTG,,T,,M,0.623,N,1.154,K,D*20
$GPGGA,201927.00,3731.73673,N,12215.97370,W,2,08,1.13,-7.9,M,-30.0,M,,0000*4B
$GPGSA,A,3,18,10,13,29,15,26,23,16,,,,,2.12,1.13,1.80*0E
$GPGSV,3,1,12,05,13,049,,10,39,232,24,13,21,053,12,15,41,079,22*77
$GPGSV,3,2,12,16,28,293,27,18,67,013,21,23,74,245,24,26,28,257,16*7C
$GPGSV,3,3,12,27,13,317,,29,42,140,24,46,46,191,,51,44,156,*79
$GPGLL,3731.73673,N,12215.97370,W,201927.00,A,D*7E
$BMXDR,H,30.5,P,0,C,39.8,C,1,P,101786,P,2*67
$BMMDA,30.057,I,1.018,B,39.8,C,,,30.5,,,,,,,,,,,*32
$BMMTA,39.8,C*08
$BMMMB,30.0609,I,1.0179,B*74
$GPRMC,201928.00,A,3731.73705,N,12215.97344,W,0.818,,050821,,,D*60
$GPVTG,,T,,M,0.818,N,1.514,K,D*26
$GPGGA,201928.00,3731.73705,N,12215.97344,W,2,08,1.13,-8.0,M,-30.0,M,,0000*45
$GPGSA,A,3,18,10,13,29,15,26,23,16,,,,,2.12,1.13,1.80*0E
$GPGSV,3,1,12,05,12,049,,10,39,232,23,13,21,053,12,15,41,079,21*72
$GPGSV,3,2,12,16,28,293,27,18,67,013,19,23,74,245,23,26,28,257,16*70
$GPGSV,3,3,12,27,13,317,,29,42,140,23,46,46,191,,51,44,156,*7E
$GPGLL,3731.73705,N,12215.97344,W,201928.00,A,D*76
$GPRMC,201929.00,A,3731.73715,N,12215.97337,W,0.677,,050821,,,D*63
$GPVTG,,T,,M,0.677,N,1.254,K,D*22
$GPGGA,201929.00,3731.73715,N,12215.97337,W,2,07,1.30,-8.1,M,-30.0,M,,0000*4E
$GPGSA,A,3,18,10,29,15,26,23,16,,,,,,2.68,1.30,2.34*0C
$GPGSV,3,1,12,05,12,049,,10,39,232,20,13,21,053,09,15,41,079,21*7B
$GPGSV,3,2,12,16,28,293,24,18,67,013,16,23,74,245,20,26,28,257,13*7A
$GPGSV,3,3,12,27,13,317,,29,42,140,24,46,46,191,,51,44,156,*79
$GPGLL,3731.73715,N,12215.97337,W,201929.00,A,D*72
$BMXDR,H,31.4,P,0,C,39.8,C,1,P,101793,P,2*63
$BMMDA,30.059,I,1.018,B,39.8,C,,,31.4,,,,,,,,,,,*3C
$BMMTA,39.8,C*08
$BMMMB,30.0628,I,1.0179,B*77
$GPRMC,201930.00,A,3731.73737,N,12215.97321,W,0.800,,050821,,,D*62
$GPVTG,,T,,M,0.800,N,1.481,K,D*22
$GPGGA,201930.00,3731.73737,N,12215.97321,W,2,07,1.30,-8.2,M,-30.0,M,,0000*42
$GPGSA,A,3,18,10,29,15,26,23,16,,,,,,2.68,1.30,2.34*0C
$GPGSV,3,1,12,05,12,049,,10,39,232,19,13,21,053,09,15,41,079,21*71
$GPGSV,3,2,12,16,28,293,24,18,67,013,15,23,74,245,17,26,28,257,12*7C
$GPGSV,3,3,12,27,13,317,,29,42,140,24,46,46,191,,51,44,156,*79
$GPGLL,3731.73737,N,12215.97321,W,201930.00,A,D*7D
$BMXDR,H,31.2,P,0,C,39.8,C,1,P,101794,P,2*62
$BMMDA,30.060,I,1.018,B,39.8,C,,,31.2,,,,,,,,,,,*30
$BMMTA,39.8,C*08
$BMMMB,30.0633,I,1.0179,B*7D
