$CCMWV,238.0,T,017.4,N,A*30
$CCVWT,122.0,L,17.4,N,9.0,M,32.2,K*58
$CCMWD,238.0,T,238.0,M,17.4,N,9.0,M*7F
$IIMWV,238,R,17.4,N,A*18
$CCMWV,238.0,T,017.4,N,A*30
$CCVWT,122.0,L,17.4,N,9.0,M,32.2,K*58
$CCMWD,238.0,T,238.0,M,17.4,N,9.0,M*7F
$IIMWV,225,T,21.4,N,A*17
$CCMWV,250.0,T,011.5,N,A*39
$CCVWT,110.1,L,11.5,N,5.9,M,21.3,K*59
$CCMWD,259.0,T,249.0,M,11.5,N,5.9,M*7C
$IIRMC,220712,A,0906.452,S,14012.516,W,06.6,227,211110,10,E,A*0B
$CCMWV,222.0,T,021.4,N,A*3E
$CCVWT,137.7,L,21.4,N,11.0,M,39.6,K*68
$CCMWD,092.0,T,082.0,M,21.4,N,11.0,M*42
$IIVHW,,,220,M,06.1,N,,*63
$IIVLW,03013,N,012.2,N*53
$CCMWV,222.0,T,021.4,N,A*3E
$CCVWT,137.7,L,21.4,N,11.0,M,39.6,K*68
$CCMWD,092.0,T,082.0,M,21.4,N,11.0,M*42
$IIVWR,122,L,17.4,N,,,,*7C
$IIDPT,000.9,+0.7,*49
$IIGLL,0906.455,S,14012.519,W,220714,A,A*5D
$CCMWV,224.0,T,022.1,N,A*3E
$CCVWT,135.6,L,22.1,N,11.4,M,40.9,K*68
$CCMWD,085.0,T,085.0,M,22.1,N,11.4,M*41
$IIHDG,221,,,10,E*12
$IIMTW,+26.5,C*39
$CCMWV,219.0,T,021.3,N,A*31
$CCVWT,140.9,L,21.3,N,11.0,M,39.5,K*62
$CCMWD,080.0,T,080.0,M,21.3,N,11.0,M*44
$IIMWV,232,R,16.2,N,A*15
$CCMWV,219.0,T,021.3,N,A*31
$CCVWT,140.9,L,21.3,N,11.0,M,39.5,K*62
$CCMWD,080.0,T,080.0,M,21.3,N,11.0,M*44
$IIMWV,224,T,21.2,N,A*10
$IIRMB,A,3.00,R,,RANGI   ,,,,,561.80,230,06.5,V,A*0F
$CCMWV,217.0,T,020.6,N,A*3B
$CCVWT,143.4,L,20.6,N,10.6,M,38.2,K*69
$CCMWD,087.0,T,077.0,M,20.6,N,10.6,M*48
$IIRMC,220714,A,0906.455,S,14012.519,W,06.6,227,211110,10,E,A*05
$CCMWV,217.0,T,020.6,N,A*3B
$CCVWT,143.4,L,20.6,N,10.6,M,38.2,K*69
$CCMWD,087.0,T,077.0,M,20.6,N,10.6,M*48
$IIVHW,,,221,M,06.0,N,,*63
$IIVLW,03013,N,012.2,N*53
$CCMWV,215.0,T,020.1,N,A*3E
$CCVWT,145.4,L,20.1,N,10.3,M,37.2,K*62
$CCMWD,085.0,T,075.0,M,20.1,N,10.3,M*4A
$IIVWR,130,L,15.5,N,,,,*7C
$IIDPT,000.9,+0.7,*49
$IIGLL,0906.455,S,14012.519,W,220714,A,A*5D
$CCMWV,218.0,T,020.8,N,A*3A
$CCVWT,142.5,L,20.8,N,10.7,M,38.6,K*62
$CCMWD,077.0,T,077.0,M,20.8,N,10.7,M*48
$IIHDG,220,,,10,E*13
$IIMTW,+26.5,C*39
$CCMWV,218.0,T,020.8,N,A*3A
$CCVWT,142.5,L,20.8,N,10.7,M,38.6,K*62
$CCMWD,077.0,T,077.0,M,20.8,N,10.7,M*48
$IIMWV,230,R,15.5,N,A*13
$CCMWV,218.0,T,020.8,N,A*3A
$CCVWT,142.5,L,20.8,N,10.7,M,38.6,K*62
$CCMWD,077.0,T,077.0,M,20.8,N,10.7,M*48
$IIMWV,218,T,20.4,N,A*18
$CCMWV,215.0,T,020.2,N,A*3D
$CCVWT,145.1,L,20.2,N,10.4,M,37.4,K*65
$CCMWD,084.0,T,074.0,M,20.2,N,10.4,M*4E
$IIRMC,220714,A,0906.455,S,14012.519,W,06.6,227,211110,10,E,A*05
$CCMWV,216.0,T,020.4,N,A*38
$CCVWT,144.4,L,20.4,N,10.5,M,37.7,K*65
$CCMWD,082.0,T,072.0,M,20.4,N,10.5,M*49
$IIVHW,,,217,M,06.5,N,,*63
$IIVLW,03013,N,012.2,N*53
$CCMWV,219.0,T,020.2,N,A*31
$CCVWT,141.3,L,20.2,N,10.4,M,37.4,K*63
$CCMWD,085.0,T,075.0,M,20.2,N,10.4,M*4E
$IIVWR,126,L,15.6,N,,,,*78
$IIDPT,001.0,+0.7,*41
$IIGLL,0906.458,S,14012.521,W,220716,A,A*59
$CCMWV,221.0,T,020.9,N,A*31
$CCVWT,138.7,L,20.9,N,10.7,M,38.6,K*6C
$CCMWD,078.0,T,078.0,M,20.9,N,10.7,M*49
$IIHDG,217,,,10,E*17
$IIMTW,+26.5,C*39
$CCMWV,221.0,T,020.9,N,A*31
$CCVWT,138.7,L,20.9,N,10.7,M,38.6,K*6C
$CCMWD,078.0,T,078.0,M,20.9,N,10.7,M*49
$IIMWV,234,R,15.6,N,A*14
$CCMWV,221.0,T,020.9,N,A*31
$CCVWT,138.7,L,20.9,N,10.7,M,38.6,K*6C
$CCMWD,078.0,T,078.0,M,20.9,N,10.7,M*49
$IIMWV,217,T,20.0,N,A*13
$IIRMB,A,3.00,R,,RANGI   ,,,,,561.80,230,06.4,V,A*0E
$CCMWV,218.0,T,019.8,N,A*30
$CCVWT,142.1,L,19.8,N,10.2,M,36.7,K*66
$CCMWD,084.0,T,074.0,M,19.8,N,10.2,M*48
$IIRMC,220716,A,0906.458,S,14012.521,W,06.5,223,211110,10,E,A*06
$CCMWV,219.0,T,020.1,N,A*32
$CCVWT,141.2,L,20.1,N,10.4,M,37.3,K*66
$CCMWD,081.0,T,071.0,M,20.1,N,10.4,M*4D
$IIVHW,,,213,M,06.8,N,,*6A
$IIVLW,03013,N,012.2,N*53
$CCMWV,222.0,T,020.8,N,A*33
$CCVWT,138.2,L,20.8,N,10.7,M,38.5,K*6B
$CCMWD,084.0,T,074.0,M,20.8,N,10.7,M*47
$IIVWR,123,L,16.5,N,,,,*7D
$IIDPT,001.0,+0.7,*41
$IIGLL,0906.458,S,14012.521,W,220716,A,A*59
$CCMWV,224.0,T,021.5,N,A*39
$CCVWT,135.8,L,21.5,N,11.0,M,39.8,K*6A
$CCMWD,077.0,T,077.0,M,21.5,N,11.0,M*42
$IIHDG,213,,,10,E*13
$IIMTW,+26.5,C*39
$CCMWV,224.0,T,021.5,N,A*39
$CCVWT,135.8,L,21.5,N,11.0,M,39.8,K*6A
$CCMWD,077.0,T,077.0,M,21.5,N,11.0,M*42
$IIMWV,237,R,16.5,N,A*17
$CCMWV,224.0,T,021.5,N,A*39
$CCVWT,135.8,L,21.5,N,11.0,M,39.8,K*6A
$CCMWD,077.0,T,077.0,M,21.5,N,11.0,M*42
$IIMWV,221,T,20.9,N,A*1F
$IIRMB,A,3.00,R,,RANGI   ,,,,,561.80,230,06.6,V,A*0C
$CCMWV,222.0,T,021.0,N,A*3A
$CCVWT,137.9,L,21.0,N,10.8,M,38.9,K*65
$CCMWD,085.0,T,075.0,M,21.0,N,10.8,M*41
$IIRMC,220718,A,0906.460,S,14012.524,W,06.6,225,211110,10,E,A*03
$CCMWV,223.0,T,021.1,N,A*3A
$CCVWT,137.4,L,21.1,N,10.9,M,39.2,K*62
$CCMWD,083.0,T,073.0,M,21.1,N,10.9,M*41
$IIVHW,,,211,M,07.0,N,,*61
$IIVLW,03013,N,012.2,N*53
$CCMWV,226.0,T,021.4,N,A*3A
$CCVWT,134.0,L,21.4,N,11.0,M,39.7,K*6D
$CCMWD,087.0,T,077.0,M,21.4,N,11.0,M*4C
$IIVWR,119,L,17.1,N,,,,*71
$IIDPT,001.0,+0.7,*41
$IIGLL,0906.460,S,14012.524,W,220718,A,A*59
$CCMWV,228.0,T,022.1,N,A*32
$CCVWT,131.6,L,22.1,N,11.4,M,41.0,K*64
$CCMWD,079.0,T,079.0,M,22.1,N,11.4,M*41
$IIHDG,211,,,10,E*11
$IIMTW,+26.5,C*39
$CCMWV,229.0,T,021.2,N,A*33
$CCVWT,130.6,L,21.2,N,10.9,M,39.3,K*65
$CCMWD,080.0,T,080.0,M,21.2,N,10.9,M*4D
$IIMWV,243,R,16.3,N,A*12
$CCMWV,229.0,T,021.2,N,A*33
$CCVWT,130.6,L,21.2,N,10.9,M,39.3,K*65
$CCMWD,080.0,T,080.0,M,21.2,N,10.9,M*4D
$IIMWV,224,T,21.2,N,A*10
$CCMWV,227.0,T,020.5,N,A*3B
$CCVWT,133.0,L,20.5,N,10.5,M,38.0,K*68
$CCMWD,087.0,T,077.0,M,20.5,N,10.5,M*48
$IIRMC,220718,A,0906.460,S,14012.524,W,06.6,225,211110,10,E,A*03
$CCMWV,227.0,T,020.5,N,A*3B
$CCVWT,133.0,L,20.5,N,10.5,M,38.0,K*68
$CCMWD,087.0,T,077.0,M,20.5,N,10.5,M*48
$CCVDR,340.0,T,330.0,M,1.62,N*0B
$IIVHW,,,211,M,07.0,N,,*61
$IIVLW,03013,N,012.2,N*53
$CCMWV,227.0,T,020.5,N,A*3B
$CCVWT,133.0,L,20.5,N,10.5,M,38.0,K*68
$CCMWD,087.0,T,077.0,M,20.5,N,10.5,M*48
$CCVDR,340.0,T,330.0,M,1.62,N*0B
$IIVWR,117,L,16.3,N,,,,*7C
$IIDPT,001.7,+0.7,*46
$IIGLL,0906.462,S,14012.526,W,220720,A,A*52
$CCMWV,229.0,T,021.0,N,A*31
$CCVWT,131.3,L,21.0,N,10.8,M,38.9,K*69
$CCMWD,082.0,T,082.0,M,21.0,N,10.8,M*4E
$CCVDR,340.0,T,340.0,M,1.62,N*0C
$IIHDG,214,,,10,E*14
$IIMTW,+26.5,C*39
$CCMWV,228.0,T,020.7,N,A*36
$CCVWT,132.3,L,20.7,N,10.6,M,38.3,K*68
$CCMWD,081.0,T,081.0,M,20.7,N,10.6,M*46
$CCVDR,340.0,T,340.0,M,1.62,N*0C
$IIMWV,242,R,15.9,N,A*1A
$CCMWV,228.0,T,020.7,N,A*36
$CCVWT,132.3,L,20.7,N,10.6,M,38.3,K*68
$CCMWD,081.0,T,081.0,M,20.7,N,10.6,M*46
$CCVDR,340.0,T,340.0,M,1.62,N*0C
$IIMWV,225,T,20.3,N,A*11
$IIRMB,A,3.00,R,,RANGI   ,,,,,561.80,230,06.5,V,A*0F
$CCMWV,225.0,T,020.0,N,A*3C
$CCVWT,134.8,L,20.0,N,10.3,M,37.0,K*6B
$CCMWD,089.0,T,079.0,M,20.0,N,10.3,M*4B
$CCVDR,340.0,T,330.0,M,1.62,N*0B
$IIRMC,220720,A,0906.462,S,14012.526,W,06.6,225,211110,10,E,A*08
$CCMWV,225.0,T,020.0,N,A*3C
$CCVWT,134.8,L,20.0,N,10.3,M,37.0,K*6B
$CCMWD,089.0,T,079.0,M,20.0,N,10.3,M*4B
$CCVDR,340.0,T,330.0,M,1.62,N*0B
$IIVHW,,,214,M,06.7,N,,*62
$IIVLW,03013,N,012.2,N*53
$CCMWV,228.0,T,020.8,N,A*39
$CCVWT,132.4,L,20.8,N,10.7,M,38.6,K*64
$CCMWD,091.0,T,081.0,M,20.8,N,10.7,M*49
$CCVDR,340.0,T,330.0,M,1.62,N*0B
$IIVWR,116,L,17.0,N,,,,*7F
$IIDPT,001.6,+0.7,*47
$IIGLL,0906.462,S,14012.526,W,220720,A,A*52
$CCMWV,229.0,T,021.4,N,A*35
$CCVWT,130.8,L,21.4,N,11.0,M,39.6,K*60
$CCMWD,086.0,T,086.0,M,21.4,N,11.0,M*43
$CCVDR,340.0,T,340.0,M,1.62,N*0C
$IIHDG,217,,,10,E*17
$IIMTW,+26.5,C*39
$CCMWV,229.0,T,021.4,N,A*35
$CCVWT,130.8,L,21.4,N,11.0,M,39.6,K*60
$CCMWD,086.0,T,086.0,M,21.4,N,11.0,M*43
$CCVDR,340.0,T,340.0,M,1.62,N*0C
$IIMWV,244,R,17.0,N,A*17
$CCMWV,229.0,T,021.4,N,A*35
$CCVWT,130.8,L,21.4,N,11.0,M,39.6,K*60
$CCMWD,086.0,T,086.0,M,21.4,N,11.0,M*43
$CCVDR,340.0,T,340.0,M,1.62,N*0C
$IIMWV,224,T,19.8,N,A*11
$CCMWV,227.0,T,020.6,N,A*38
$CCVWT,133.0,L,20.6,N,10.6,M,38.1,K*69
$CCMWD,093.0,T,083.0,M,20.6,N,10.6,M*46
$CCVDR,340.0,T,330.0,M,1.62,N*0B
$IIRMC,220720,A,0906.462,S,14012.526,W,06.6,225,211110,10,E,A*08
$CCMWV,227.0,T,020.4,N,A*3A
$CCVWT,133.4,L,20.4,N,10.5,M,37.8,K*6A
$CCMWD,095.0,T,085.0,M,20.4,N,10.5,M*47
$CCVDR,340.0,T,330.0,M,1.62,N*0B
$IIVHW,,,219,M,06.3,N,,*6B
$IIVLW,03013,N,012.2,N*53
$CCMWV,226.0,T,021.3,N,A*3D
$CCVWT,134.5,L,21.3,N,10.9,M,39.4,K*64
$CCMWD,094.0,T,084.0,M,21.3,N,10.9,M*4D
$CCVDR,340.0,T,330.0,M,1.62,N*0B
$IIVWR,118,L,17.7,N,,,,*76
$IIDPT,001.2,+0.7,*43
$IIGLL,0906.464,S,14012.529,W,220722,A,A*59
$CCMWV,228.0,T,022.1,N,A*32
$CCVWT,132.3,L,22.1,N,11.4,M,40.9,K*6A
$CCMWD,086.0,T,086.0,M,22.1,N,11.4,M*41
$CCVDR,260.0,T,260.0,M,2.70,N*0C
$IIHDG,219,,,10,E*19
$IIMTW,+26.5,C*39
$CCMWV,228.0,T,022.1,N,A*32
$CCVWT,132.3,L,22.1,N,11.4,M,40.9,K*6A
$CCMWD,086.0,T,086.0,M,22.1,N,11.4,M*41
$CCVDR,260.0,T,260.0,M,2.70,N*0C
$IIMWV,242,R,17.7,N,A*16
$CCMWV,228.0,T,022.1,N,A*32
$CCVWT,132.3,L,22.1,N,11.4,M,40.9,K*6A
$CCMWD,086.0,T,086.0,M,22.1,N,11.4,M*41
$CCVDR,260.0,T,260.0,M,2.70,N*0C
$IIMWV,228,T,20.6,N,A*19
$IIRMB,A,3.00,R,,RANGI   ,,,,,561.80,230,06.8,V,A*02
$CCMWV,225.0,T,021.2,N,A*3F
$CCVWT,135.3,L,21.2,N,10.9,M,39.3,K*65
$CCMWD,093.0,T,083.0,M,21.2,N,10.9,M*4C
$CCVDR,260.0,T,250.0,M,2.70,N*0F
$IIRMC,220722,A,0906.464,S,14012.529,W,06.8,223,211110,10,E,A*0B
$CCMWV,224.0,T,020.9,N,A*34
$CCVWT,135.9,L,20.9,N,10.8,M,38.8,K*6E
$CCMWD,096.0,T,086.0,M,20.9,N,10.8,M*47
$CCVDR,260.0,T,250.0,M,2.70,N*0F
$IIVHW,,,222,M,06.3,N,,*63
$IIVLW,03013,N,012.2,N*53
$CCMWV,219.0,T,021.0,N,A*32
$CCVWT,141.1,L,21.0,N,10.8,M,38.9,K*6C
$CCMWD,090.0,T,080.0,M,21.0,N,10.8,M*4F
$CCVDR,260.0,T,250.0,M,2.70,N*0F
$IIVWR,124,L,17.2,N,,,,*7C
$IIDPT,001.2,+0.7,*43
$IIGLL,0906.464,S,14012.529,W,220722,A,A*59
$CCMWV,221.0,T,021.8,N,A*31
$CCVWT,138.8,L,21.8,N,11.2,M,40.4,K*6A
$CCMWD,083.0,T,083.0,M,21.8,N,11.2,M*4D
$CCVDR,260.0,T,260.0,M,2.70,N*0C
$IIHDG,222,,,10,E*11
$IIMTW,+26.5,C*39
$CCMWV,221.0,T,021.8,N,A*31
$CCVWT,138.8,L,21.8,N,11.2,M,40.4,K*6A
$CCMWD,083.0,T,083.0,M,21.8,N,11.2,M*4D
$CCVDR,260.0,T,260.0,M,2.70,N*0C
$IIMWV,236,R,17.2,N,A*10
$CCMWV,221.0,T,021.8,N,A*31
$CCVWT,138.8,L,21.8,N,11.2,M,40.4,K*6A
$CCMWD,083.0,T,083.0,M,21.8,N,11.2,M*4D
$CCVDR,260.0,T,260.0,M,2.70,N*0C
$IIMWV,219,T,20.9,N,A*14
$IIRMB,A,3.00,R,,RANGI   ,,,,,561.80,230,06.6,V,A*0C
$CCMWV,219.0,T,020.8,N,A*3B
$CCVWT,141.3,L,20.8,N,10.7,M,38.4,K*65
$CCMWD,090.0,T,080.0,M,20.8,N,10.7,M*49
$CCVDR,350.0,T,340.0,M,1.09,N*00
$IIRMC,220724,A,0906.467,S,14012.532,W,06.7,221,211110,10,E,A*09
$CCMWV,219.0,T,020.8,N,A*3B
$CCVWT,141.3,L,20.8,N,10.7,M,38.4,K*65
$CCMWD,090.0,T,080.0,M,20.8,N,10.7,M*49
$CCVDR,350.0,T,340.0,M,1.09,N*00
$IIVHW,,,222,M,06.8,N,,*68
$IIVLW,03013,N,012.2,N*53
$CCMWV,216.0,T,020.3,N,A*3F
$CCVWT,144.3,L,20.3,N,10.4,M,37.5,K*66
$CCMWD,087.0,T,077.0,M,20.3,N,10.4,M*4F
$CCVDR,350.0,T,340.0,M,1.09,N*00
$IIVWR,127,L,16.4,N,,,,*78
$IIDPT,001.2,+0.7,*43
$IIGLL,0906.467,S,14012.532,W,220724,A,A*56
$CCMWV,218.0,T,021.1,N,A*32
$CCVWT,141.7,L,21.1,N,10.9,M,39.1,K*63
$CCMWD,079.0,T,079.0,M,21.1,N,10.9,M*4E
$CCVDR,350.0,T,350.0,M,1.09,N*01
$IIHDG,221,,,10,E*12
$IIMTW,+26.5,C*39
$CCMWV,219.0,T,021.3,N,A*31
$CCVWT,140.7,L,21.3,N,11.0,M,39.5,K*6C
$CCMWD,080.0,T,080.0,M,21.3,N,11.0,M*44
$CCVDR,350.0,T,350.0,M,1.09,N*01
$IIMWV,234,R,16.7,N,A*16
$CCMWV,219.0,T,021.3,N,A*31
$CCVWT,140.7,L,21.3,N,11.0,M,39.5,K*6C
$CCMWD,080.0,T,080.0,M,21.3,N,11.0,M*44
$CCVDR,350.0,T,350.0,M,1.09,N*01
$IIMWV,218,T,21.1,N,A*1C
$IIRMB,A,3.00,R,,RANGI   ,,,,,561.80,230,06.7,V,A*0D
$CCMWV,217.0,T,020.9,N,A*34
$CCVWT,142.6,L,20.9,N,10.7,M,38.6,K*60
$CCMWD,088.0,T,078.0,M,20.9,N,10.7,M*46
$CCVDR,350.0,T,340.0,M,1.09,N*00
$IIRMC,220725,A,0906.469,S,14012.534,W,06.8,224,211110,10,E,A*0A
$CCMWV,217.0,T,020.9,N,A*34
$CCVWT,142.6,L,20.9,N,10.7,M,38.6,K*60
$CCMWD,088.0,T,078.0,M,20.9,N,10.7,M*46
$CCVDR,350.0,T,340.0,M,1.09,N*00
$IIVHW,,,221,M,07.0,N,,*62
$IIVLW,03013,N,012.2,N*53
$CCMWV,217.0,T,020.9,N,A*34
$CCVWT,142.6,L,20.9,N,10.7,M,38.6,K*60
$CCMWD,088.0,T,078.0,M,20.9,N,10.7,M*46
$CCVDR,350.0,T,340.0,M,1.09,N*00
$IIVWR,126,L,16.7,N,,,,*7A
$IIDPT,000.9,+0.7,*49
$IIGLL,0906.470,S,14012.535,W,220726,A,A*55
$CCMWV,221.0,T,021.8,N,A*31
$CCVWT,139.4,L,21.8,N,11.2,M,40.5,K*66
$CCMWD,078.0,T,078.0,M,21.8,N,11.2,M*4D
$CCVDR,350.0,T,350.0,M,1.09,N*01
$IIHDG,218,,,10,E*18
$IIMTW,+26.5,C*39
$CCMWV,223.0,T,021.7,N,A*3C
$CCVWT,137.1,L,21.7,N,11.2,M,40.2,K*65
$CCMWD,080.0,T,080.0,M,21.7,N,11.2,M*42
$CCVDR,350.0,T,350.0,M,1.09,N*01
$IIMWV,237,R,16.8,N,A*1A
$CCMWV,223.0,T,021.7,N,A*3C
$CCVWT,137.1,L,21.7,N,11.2,M,40.2,K*65
$CCMWD,080.0,T,080.0,M,21.7,N,11.2,M*42
$CCVDR,350.0,T,350.0,M,1.09,N*01
$IIMWV,219,T,21.5,N,A*19
$CCMWV,221.0,T,021.0,N,A*39
$CCVWT,139.5,L,21.0,N,10.8,M,38.8,K*66
$CCMWD,088.0,T,078.0,M,21.0,N,10.8,M*41
$CCVDR,273.0,T,263.0,M,0.93,N*02
$IIRMC,220726,A,0906.470,S,14012.535,W,06.8,224,211110,10,E,A*00
$CCMWV,221.0,T,021.0,N,A*39
$CCVWT,139.5,L,21.0,N,10.8,M,38.8,K*66
$CCMWD,088.0,T,078.0,M,21.0,N,10.8,M*41
$CCVDR,273.0,T,263.0,M,0.93,N*02
$IIVHW,,,218,M,07.0,N,,*68
$IIVLW,03013,N,012.2,N*53
$CCMWV,221.0,T,020.6,N,A*3E
$CCVWT,139.0,L,20.6,N,10.6,M,38.1,K*63
$CCMWD,089.0,T,079.0,M,20.6,N,10.6,M*48
$CCVDR,273.0,T,263.0,M,0.93,N*02
$IIVWR,122,L,16.5,N,,,,*7C
$IIDPT,000.9,+0.7,*49
$IIGLL,0906.471,S,14012.537,W,220727,A,A*57
$CCMWV,224.0,T,021.5,N,A*39
$CCVWT,136.0,L,21.5,N,11.1,M,39.8,K*60
$CCMWD,079.0,T,079.0,M,21.5,N,11.1,M*43
$CCVDR,273.0,T,273.0,M,0.93,N*03
$IIHDG,216,,,10,E*16
$IIMTW,+26.5,C*39
$CCMWV,224.0,T,021.5,N,A*39
$CCVWT,136.0,L,21.5,N,11.1,M,39.8,K*60
$CCMWD,079.0,T,079.0,M,21.5,N,11.1,M*43
$CCVDR,273.0,T,273.0,M,0.93,N*03
$IIMWV,238,R,16.5,N,A*18
$CCMWV,224.0,T,021.5,N,A*39
$CCVWT,136.0,L,21.5,N,11.1,M,39.8,K*60
$CCMWD,079.0,T,079.0,M,21.5,N,11.1,M*43
$CCVDR,273.0,T,273.0,M,0.93,N*03
$IIMWV,221,T,21.3,N,A*14
$IIRMB,A,3.00,R,,RANGI   ,,,,,561.80,230,06.7,V,A*0D
$CCMWV,222.0,T,020.8,N,A*33
$CCVWT,138.1,L,20.8,N,10.7,M,38.4,K*69
$CCMWD,087.0,T,077.0,M,20.8,N,10.7,M*47
$CCVDR,273.0,T,263.0,M,0.93,N*02
$IIRMC,220728,A,0906.472,S,14012.538,W,06.7,225,211110,10,E,A*0F
$CCMWV,222.0,T,020.8,N,A*33
$CCVWT,138.1,L,20.8,N,10.7,M,38.4,K*69
$CCMWD,087.0,T,077.0,M,20.8,N,10.7,M*47
$CCVDR,273.0,T,263.0,M,0.93,N*02
$IIVHW,,,216,M,06.9,N,,*6E
$IIVLW,03013,N,012.2,N*53
$CCMWV,222.0,T,020.3,N,A*38
$CCVWT,137.6,L,20.3,N,10.4,M,37.6,K*64
$CCMWD,088.0,T,078.0,M,20.3,N,10.4,M*4F
$CCVDR,273.0,T,263.0,M,0.93,N*02
$IIVWR,121,L,16.1,N,,,,*7B
$IIDPT,000.9,+0.7,*49
$IIGLL,0906.472,S,14012.538,W,220728,A,A*54
$CCMWV,225.0,T,021.0,N,A*3D
$CCVWT,135.1,L,21.0,N,10.8,M,39.0,K*67
$CCMWD,080.0,T,080.0,M,21.0,N,10.8,M*4E
$CCVDR,273.0,T,273.0,M,0.93,N*03
$IIHDG,216,,,10,E*16
$IIMTW,+26.5,C*39
$CCMWV,225.0,T,021.0,N,A*3D
$CCVWT,135.1,L,21.0,N,10.8,M,39.0,K*67
$CCMWD,080.0,T,080.0,M,21.0,N,10.8,M*4E
$CCVDR,273.0,T,273.0,M,0.93,N*03
$IIMWV,239,R,16.1,N,A*1D
$CCMWV,225.0,T,021.0,N,A*3D
$CCVWT,135.1,L,21.0,N,10.8,M,39.0,K*67
$CCMWD,080.0,T,080.0,M,21.0,N,10.8,M*4E
$CCVDR,273.0,T,273.0,M,0.93,N*03
$IIMWV,222,T,20.5,N,A*10
$IIRMB,A,3.00,R,,RANGI   ,,,,,561.80,230,06.7,V,A*0D
$CCMWV,222.0,T,020.3,N,A*38
$CCVWT,137.6,L,20.3,N,10.4,M,37.6,K*64
$CCMWD,088.0,T,078.0,M,20.3,N,10.4,M*4F
$CCVDR,327.0,T,317.0,M,0.95,N*06
$IIRMC,220729,A,0906.474,S,14012.540,W,06.7,225,211110,10,E,A*07
$CCMWV,223.0,T,020.4,N,A*3E
$CCVWT,137.4,L,20.4,N,10.5,M,37.7,K*61
$CCMWD,087.0,T,077.0,M,20.4,N,10.5,M*49
$CCVDR,327.0,T,317.0,M,0.95,N*06
$IIVHW,,,215,M,06.8,N,,*6C
$IIVLW,03013,N,012.2,N*53
$CCMWV,223.0,T,019.7,N,A*37
$CCVWT,137.1,L,19.7,N,10.1,M,36.5,K*6A
$CCMWD,087.0,T,077.0,M,19.7,N,10.1,M*44
$CCVDR,327.0,T,317.0,M,0.95,N*06
$IIVWR,120,L,15.5,N,,,,*7D
$IIDPT,000.9,+0.7,*49
$IIGLL,0906.474,S,14012.540,W,220729,A,A*5C
$CCMWV,225.0,T,020.5,N,A*39
$CCVWT,134.5,L,20.5,N,10.5,M,37.9,K*6C
$CCMWD,080.0,T,080.0,M,20.5,N,10.5,M*47
$CCVDR,327.0,T,327.0,M,0.95,N*05
$IIHDG,215,,,10,E*15
$IIMTW,+26.5,C*39
$CCMWV,224.0,T,020.7,N,A*3A
$CCVWT,135.9,L,20.7,N,10.6,M,38.3,K*65
$CCMWD,079.0,T,079.0,M,20.7,N,10.6,M*46
$CCVDR,327.0,T,327.0,M,0.95,N*05
$IIMWV,238,R,15.6,N,A*18
$CCMWV,224.0,T,020.7,N,A*3A
$CCVWT,135.9,L,20.7,N,10.6,M,38.3,K*65
$CCMWD,079.0,T,079.0,M,20.7,N,10.6,M*46
$CCVDR,327.0,T,327.0,M,0.95,N*05
$IIMWV,223,T,19.8,N,A*16
$CCMWV,221.0,T,020.0,N,A*38
$CCVWT,138.5,L,20.0,N,10.3,M,37.0,K*6A
$CCMWD,086.0,T,076.0,M,20.0,N,10.3,M*4B
$CCVDR,327.0,T,317.0,M,0.95,N*06
$IIRMC,220730,A,0906.475,S,14012.540,W,06.7,225,211110,10,E,A*0E
$CCMWV,221.0,T,020.0,N,A*38
$CCVWT,138.5,L,20.0,N,10.3,M,37.0,K*6A
$CCMWD,086.0,T,076.0,M,20.0,N,10.3,M*4B
$CCVDR,327.0,T,317.0,M,0.95,N*06
$IIVHW,,,215,M,06.9,N,,*6D
$IIVLW,03013,N,012.2,N*53
$CCMWV,221.0,T,020.0,N,A*38
$CCVWT,138.5,L,20.0,N,10.3,M,37.0,K*6A
$CCMWD,086.0,T,076.0,M,20.0,N,10.3,M*4B
$CCVDR,327.0,T,317.0,M,0.95,N*06
$IIVWR,122,L,15.6,N,,,,*7C
$IIDPT,000.9,+0.7,*49
$IIGLL,0906.477,S,14012.542,W,220731,A,A*54
$CCMWV,224.0,T,020.7,N,A*3A
$CCVWT,135.9,L,20.7,N,10.6,M,38.3,K*65
$CCMWD,079.0,T,079.0,M,20.7,N,10.6,M*46
$CCVDR,327.0,T,327.0,M,0.95,N*05
$IIHDG,215,,,10,E*15
$IIMTW,+26.5,C*39
$CCMWV,226.0,T,021.2,N,A*3C
$CCVWT,134.0,L,21.2,N,10.9,M,39.3,K*67
$CCMWD,081.0,T,081.0,M,21.2,N,10.9,M*4D
$CCVDR,327.0,T,327.0,M,0.95,N*05
$IIMWV,240,R,16.3,N,A*11
$CCMWV,226.0,T,021.2,N,A*3C
$CCVWT,134.0,L,21.2,N,10.9,M,39.3,K*67
$CCMWD,081.0,T,081.0,M,21.2,N,10.9,M*4D
$CCVDR,327.0,T,327.0,M,0.95,N*05
$IIMWV,221,T,20.0,N,A*16
$IIRMB,A,3.00,R,,RANGI   ,,,,,561.80,230,06.7,V,A*0D
$CCMWV,223.0,T,020.5,N,A*3F
$CCVWT,136.9,L,20.5,N,10.5,M,37.9,K*62
$CCMWD,088.0,T,078.0,M,20.5,N,10.5,M*48
$CCVDR,327.0,T,317.0,M,0.95,N*06
$IIRMC,220731,A,0906.477,S,14012.542,W,06.8,224,211110,10,E,A*01
$CCMWV,223.0,T,020.5,N,A*3F
$CCVWT,136.9,L,20.5,N,10.5,M,37.9,K*62
$CCMWD,088.0,T,078.0,M,20.5,N,10.5,M*48
$CCVDR,327.0,T,317.0,M,0.95,N*06
$IIVHW,,,215,M,06.9,N,,*6D
$IIVLW,03013,N,012.2,N*53
$CCMWV,225.0,T,020.9,N,A*35
$CCVWT,134.9,L,20.9,N,10.7,M,38.7,K*6F
$CCMWD,090.0,T,080.0,M,20.9,N,10.7,M*48
$CCVDR,327.0,T,317.0,M,0.95,N*06
$IIVWR,118,L,16.9,N,,,,*79
$IIDPT,000.9,+0.7,*49
$IIGLL,0906.478,S,14012.543,W,220732,A,A*59
$CCMWV,228.0,T,021.8,N,A*38
$CCVWT,132.0,L,21.8,N,11.2,M,40.4,K*68
$CCMWD,080.0,T,080.0,M,21.8,N,11.2,M*4D
$CCVDR,327.0,T,327.0,M,0.95,N*05
$IIHDG,213,,,10,E*13
$IIMTW,+26.5,C*39
$CCMWV,228.0,T,021.8,N,A*38
$CCVWT,132.0,L,21.8,N,11.2,M,40.4,K*68
$CCMWD,080.0,T,080.0,M,21.8,N,11.2,M*4D
$CCVDR,327.0,T,327.0,M,0.95,N*05
$IIMWV,242,R,16.9,N,A*19
$CCMWV,228.0,T,021.8,N,A*38
$CCVWT,132.0,L,21.8,N,11.2,M,40.4,K*68
$CCMWD,080.0,T,080.0,M,21.8,N,11.2,M*4D
$CCVDR,327.0,T,327.0,M,0.95,N*05
$IIMWV,223,T,20.6,N,A*12
$CCMWV,226.0,T,021.1,N,A*3F
$CCVWT,134.4,L,21.1,N,10.8,M,39.0,K*62
$CCMWD,088.0,T,078.0,M,21.1,N,10.8,M*40
$CCVDR,327.0,T,317.0,M,0.95,N*06
$IIRMC,220732,A,0906.478,S,14012.543,W,06.8,224,211110,10,E,A*0C
$CCMWV,226.0,T,021.1,N,A*3F
$CCVWT,134.2,L,21.1,N,10.9,M,39.1,K*64
$CCMWD,087.0,T,077.0,M,21.1,N,10.9,M*41
$CCVDR,327.0,T,317.0,M,0.95,N*06
$IIVHW,,,212,M,07.1,N,,*63
$IIVLW,03013,N,012.2,N*53
$CCMWV,225.0,T,020.4,N,A*38
$CCVWT,134.8,L,20.4,N,10.5,M,37.7,K*6E
$CCMWD,087.0,T,077.0,M,20.4,N,10.5,M*49
$CCVDR,326.0,T,316.0,M,0.82,N*00
$IIVWR,118,L,16.1,N,,,,*71
$IIDPT,000.9,+0.7,*49
$IIGLL,0906.480,S,14012.545,W,220733,A,A*59
$CCMWV,228.0,T,021.1,N,A*31
$CCVWT,132.3,L,21.1,N,10.9,M,39.1,K*63
$CCMWD,079.0,T,079.0,M,21.1,N,10.9,M*4E
$CCVDR,326.0,T,326.0,M,0.82,N*03
$IIHDG,212,,,10,E*12
$IIMTW,+26.5,C*39
$CCMWV,228.0,T,021.1,N,A*31
$CCVWT,132.3,L,21.1,N,10.9,M,39.1,K*63
$CCMWD,079.0,T,079.0,M,21.1,N,10.9,M*4E
$CCVDR,326.0,T,326.0,M,0.82,N*03
$IIMWV,242,R,16.1,N,A*11
$CCMWV,228.0,T,021.1,N,A*31
$CCVWT,132.3,L,21.1,N,10.9,M,39.1,K*63
$CCMWD,079.0,T,079.0,M,21.1,N,10.9,M*4E
$CCVDR,326.0,T,326.0,M,0.82,N*03
$IIMWV,225,T,21.0,N,A*13
$IIRMB,A,3.00,R,,RANGI   ,,,,,561.80,230,06.7,V,A*0D
$CCMWV,224.0,T,020.3,N,A*3E
$CCVWT,135.9,L,20.3,N,10.4,M,37.5,K*6A
$CCMWD,086.0,T,076.0,M,20.3,N,10.4,M*4F
$CCVDR,326.0,T,316.0,M,0.82,N*00
$IIRMC,220735,A,0906.483,S,14012.547,W,07.0,221,211110,10,E,A*07
$CCMWV,225.0,T,020.7,N,A*3B
$CCVWT,134.7,L,20.7,N,10.6,M,38.3,K*6A
$CCMWD,082.0,T,072.0,M,20.7,N,10.6,M*49
$CCVDR,326.0,T,316.0,M,0.82,N*00
$IIVHW,,,207,M,07.0,N,,*66
$IIVLW,03013,N,012.2,N*53
$CCMWV,227.0,T,020.6,N,A*38
$CCVWT,133.1,L,20.6,N,10.6,M,38.2,K*6B
$CCMWD,083.0,T,073.0,M,20.6,N,10.6,M*48
$CCVDR,326.0,T,316.0,M,0.82,N*00
$IIVWR,116,L,16.2,N,,,,*7C
$IIDPT,000.9,+0.7,*49
$IIGLL,0906.483,S,14012.547,W,220735,A,A*5E
$CCMWV,229.0,T,021.4,N,A*35
$CCVWT,130.5,L,21.4,N,11.0,M,39.6,K*6D
$CCMWD,076.0,T,076.0,M,21.4,N,11.0,M*43
$CCVDR,326.0,T,326.0,M,0.82,N*03
$IIHDG,207,,,10,E*16
$IIMTW,+26.5,C*39
$CCMWV,229.0,T,021.4,N,A*35
$CCVWT,130.5,L,21.4,N,11.0,M,39.6,K*6D
$CCMWD,076.0,T,076.0,M,21.4,N,11.0,M*43
$CCVDR,326.0,T,326.0,M,0.82,N*03
$IIMWV,244,R,16.2,N,A*14
$CCMWV,229.0,T,021.4,N,A*35
$CCVWT,130.5,L,21.4,N,11.0,M,39.6,K*6D
$CCMWD,076.0,T,076.0,M,21.4,N,11.0,M*43
$CCVDR,326.0,T,326.0,M,0.82,N*03
$IIMWV,226,T,20.2,N,A*13
$IIRMB,A,3.00,R,,RANGI   ,,,,,561.80,230,06.9,V,A*03
$CCMWV,227.0,T,020.6,N,A*38
$CCVWT,133.1,L,20.6,N,10.6,M,38.2,K*6B
$CCMWD,083.0,T,073.0,M,20.6,N,10.6,M*48
$CCVDR,326.0,T,316.0,M,0.82,N*00
$IIRMC,220736,A,0906.483,S,14012.548,W,07.0,221,211110,10,E,A*0B
$CCMWV,227.0,T,020.8,N,A*36
$CCVWT,132.6,L,20.8,N,10.7,M,38.5,K*65
$CCMWD,082.0,T,072.0,M,20.8,N,10.7,M*47
$CCVDR,326.0,T,316.0,M,0.82,N*00
$IIVHW,,,205,M,06.9,N,,*6C
$IIVLW,03013,N,012.2,N*53
$CCMWV,229.0,T,021.7,N,A*36
$CCVWT,131.1,L,21.7,N,11.1,M,40.1,K*63
$CCMWD,083.0,T,073.0,M,21.7,N,11.1,M*4E
$CCVDR,333.0,T,323.0,M,0.75,N*0A
$IIVWR,115,L,17.2,N,,,,*7E
$IIDPT,000.9,+0.7,*49
$IIGLL,0906.483,S,14012.548,W,220736,A,A*52
$CCMWV,231.0,T,022.4,N,A*3F
$CCVWT,128.9,L,22.4,N,11.5,M,41.4,K*63
$CCMWD,077.0,T,077.0,M,22.4,N,11.5,M*45
$CCVDR,333.0,T,333.0,M,0.75,N*0B
$IIHDG,206,,,10,E*17
$IIMTW,+26.5,C*39
$CCMWV,233.0,T,023.1,N,A*39
$CCVWT,126.8,L,23.1,N,11.9,M,42.7,K*64
$CCMWD,079.0,T,079.0,M,23.1,N,11.9,M*4D
$CCVDR,333.0,T,333.0,M,0.75,N*0B
$IIMWV,247,R,18.1,N,A*1A
$CCMWV,233.0,T,023.1,N,A*39
$CCVWT,126.8,L,23.1,N,11.9,M,42.7,K*64
$CCMWD,079.0,T,079.0,M,23.1,N,11.9,M*4D
$CCVDR,333.0,T,333.0,M,0.75,N*0B
$IIMWV,228,T,21.0,N,A*1E
$IIRMB,A,3.00,R,,RANGI   ,,,,,561.70,230,06.9,V,A*0C
$CCMWV,231.0,T,022.3,N,A*38
$CCVWT,128.9,L,22.3,N,11.5,M,41.4,K*64
$CCMWD,087.0,T,077.0,M,22.3,N,11.5,M*4D
$CCVDR,333.0,T,323.0,M,0.75,N*0A
$IIRMC,220737,A,0906.485,S,14012.550,W,07.0,222,211110,10,E,A*06
$CCMWV,231.0,T,022.3,N,A*38
$CCVWT,128.9,L,22.3,N,11.5,M,41.4,K*64
$CCMWD,087.0,T,077.0,M,22.3,N,11.5,M*4D
$CCVDR,333.0,T,323.0,M,0.75,N*0A
$IIVHW,,,206,M,06.6,N,,*60
$IIVLW,03013,N,012.2,N*53
$CCMWV,231.0,T,022.3,N,A*38
$CCVWT,128.9,L,22.3,N,11.5,M,41.4,K*64
$CCMWD,087.0,T,077.0,M,22.3,N,11.5,M*4D
$CCVDR,333.0,T,323.0,M,0.75,N*0A
$IIVWR,113,L,18.1,N,,,,*74
$IIDPT,001.0,+0.7,*41
$IIGLL,0906.486,S,14012.551,W,220738,A,A*51
$CCMWV,233.0,T,023.2,N,A*3A
$CCVWT,126.6,L,23.2,N,11.9,M,42.9,K*67
$CCMWD,079.0,T,079.0,M,23.2,N,11.9,M*4E
$CCVDR,333.0,T,333.0,M,0.75,N*0B
$IIHDG,206,,,10,E*17
$IIMTW,+26.5,C*39
$CCMWV,233.0,T,023.2,N,A*3A
$CCVWT,126.6,L,23.2,N,11.9,M,42.9,K*67
$CCMWD,079.0,T,079.0,M,23.2,N,11.9,M*4E
$CCVDR,333.0,T,333.0,M,0.75,N*0B
$IIMWV,247,R,18.1,N,A*1A
$CCMWV,233.0,T,023.2,N,A*3A
$CCVWT,126.6,L,23.2,N,11.9,M,42.9,K*67
$CCMWD,079.0,T,079.0,M,23.2,N,11.9,M*4E
$CCVDR,333.0,T,333.0,M,0.75,N*0B
$IIMWV,230,T,21.5,N,A*12
$CCMWV,231.0,T,022.3,N,A*38
$CCVWT,128.9,L,22.3,N,11.5,M,41.4,K*64
$CCMWD,087.0,T,077.0,M,22.3,N,11.5,M*4D
$CCVDR,333.0,T,323.0,M,0.75,N*0A
$IIRMC,220738,A,0906.486,S,14012.551,W,07.0,222,211110,10,E,A*0B
$CCMWV,231.0,T,022.3,N,A*38
$CCVWT,128.9,L,22.3,N,11.5,M,41.4,K*64
$CCMWD,087.0,T,077.0,M,22.3,N,11.5,M*4D
$CCVDR,333.0,T,323.0,M,0.75,N*0A
$IIVHW,,,206,M,06.4,N,,*62
$IIVLW,03013,N,012.2,N*53
$CCMWV,228.0,T,021.1,N,A*31
$CCVWT,131.5,L,21.1,N,10.8,M,39.0,K*66
$CCMWD,084.0,T,074.0,M,21.1,N,10.8,M*40
$CCVDR,333.0,T,323.0,M,0.75,N*0A
$IIVWR,115,L,16.6,N,,,,*7B
$IIDPT,001.2,+0.7,*43
$IIGLL,0906.488,S,14012.551,W,220739,A,A*5E
$CCMWV,231.0,T,021.8,N,A*30
$CCVWT,129.0,L,21.8,N,11.2,M,40.4,K*62
$CCMWD,077.0,T,077.0,M,21.8,N,11.2,M*4D
$CCVDR,333.0,T,333.0,M,0.75,N*0B
$IIHDG,206,,,10,E*17
$IIMTW,+26.5,C*39
$CCMWV,231.0,T,021.8,N,A*30
$CCVWT,129.0,L,21.8,N,11.2,M,40.4,K*62
$CCMWD,077.0,T,077.0,M,21.8,N,11.2,M*4D
$CCVDR,333.0,T,333.0,M,0.75,N*0B
$IIMWV,245,R,16.6,N,A*11
$CCMWV,231.0,T,021.8,N,A*30
$CCVWT,129.0,L,21.8,N,11.2,M,40.4,K*62
$CCMWD,077.0,T,077.0,M,21.8,N,11.2,M*4D
$CCVDR,333.0,T,333.0,M,0.75,N*0B
$IIMWV,231,T,21.3,N,A*15
$IIRMB,A,3.00,R,,RANGI   ,,,,,561.70,230,06.5,V,A*00
$CCMWV,228.0,T,020.5,N,A*34
$CCVWT,131.7,L,20.5,N,10.5,M,37.9,K*6B
$CCMWD,084.0,T,074.0,M,20.5,N,10.5,M*48
$CCVDR,301.0,T,291.0,M,0.53,N*07
$IIRMC,220740,A,0906.489,S,14012.552,W,06.6,218,211110,10,E,A*06
$CCMWV,229.0,T,020.5,N,A*35
$CCVWT,131.5,L,20.5,N,10.6,M,38.0,K*6C
$CCMWD,083.0,T,073.0,M,20.5,N,10.6,M*4B
$CCVDR,301.0,T,291.0,M,0.53,N*07
$IIVHW,,,205,M,06.7,N,,*62
$IIVLW,03013,N,012.2,N*53
$CCMWV,230.0,T,019.9,N,A*3B
$CCVWT,130.3,L,19.9,N,10.2,M,36.9,K*6E
$CCMWD,084.0,T,074.0,M,19.9,N,10.2,M*49
$CCVDR,301.0,T,291.0,M,0.53,N*07
$IIVWR,113,L,16.1,N,,,,*7A
$IIDPT,001.3,+0.7,*42
$IIGLL,0906.489,S,14012.552,W,220740,A,A*52
$CCMWV,232.0,T,020.7,N,A*3D
$CCVWT,128.0,L,20.7,N,10.6,M,38.3,K*60
$CCMWD,077.0,T,077.0,M,20.7,N,10.6,M*46
$CCVDR,301.0,T,301.0,M,0.53,N*0F
$IIHDG,205,,,10,E*14
$IIMTW,+26.5,C*39
$CCMWV,232.0,T,020.7,N,A*3D
$CCVWT,128.0,L,20.7,N,10.6,M,38.3,K*60
$CCMWD,077.0,T,077.0,M,20.7,N,10.6,M*46
$CCVDR,301.0,T,301.0,M,0.53,N*0F
$IIMWV,247,R,16.1,N,A*14
$CCMWV,232.0,T,020.7,N,A*3D
$CCVWT,128.0,L,20.7,N,10.6,M,38.3,K*60
$CCMWD,077.0,T,077.0,M,20.7,N,10.6,M*46
$CCVDR,301.0,T,301.0,M,0.53,N*0F
$IIMWV,229,T,19.6,N,A*12
$IIRMB,A,3.00,R,,RANGI   ,,,,,561.70,230,06.4,V,A*01
$CCMWV,230.0,T,019.8,N,A*3A
$CCVWT,130.1,L,19.8,N,10.2,M,36.7,K*63
$CCMWD,084.0,T,074.0,M,19.8,N,10.2,M*48
$CCVDR,301.0,T,291.0,M,0.53,N*07
$IIRMC,220741,A,0906.491,S,14012.553,W,06.5,218,211110,10,E,A*0C
$CCMWV,230.0,T,019.9,N,A*3B
$CCVWT,129.9,L,19.9,N,10.2,M,36.9,K*6C
$CCMWD,084.0,T,074.0,M,19.9,N,10.2,M*49
$CCVDR,301.0,T,291.0,M,0.53,N*07
$IIVHW,,,204,M,07.0,N,,*65
$IIVLW,03013,N,012.2,N*53
$CCMWV,234.0,T,020.2,N,A*3E
$CCVWT,126.2,L,20.2,N,10.4,M,37.5,K*62
$CCMWD,087.0,T,077.0,M,20.2,N,10.4,M*4E
$CCVDR,301.0,T,291.0,M,0.53,N*07
$IIVWR,109,L,16.8,N,,,,*78
$IIDPT,001.3,+0.7,*42
$IIGLL,0906.491,S,14012.553,W,220741,A,A*5B
$CCMWV,236.0,T,021.1,N,A*3E
$CCVWT,123.8,L,21.1,N,10.9,M,39.1,K*68
$CCMWD,079.0,T,079.0,M,21.1,N,10.9,M*4E
$CCVDR,330.0,T,330.0,M,0.64,N*0B
$IIHDG,203,,,10,E*12
$IIMTW,+26.5,C*39
$CCMWV,239.0,T,021.5,N,A*35
$CCVWT,121.0,L,21.5,N,11.1,M,39.8,K*66
$CCMWD,081.0,T,081.0,M,21.5,N,11.1,M*43
$CCVDR,330.0,T,330.0,M,0.64,N*0B
$IIMWV,254,R,17.4,N,A*12
$CCMWV,239.0,T,021.5,N,A*35
$CCVWT,121.0,L,21.5,N,11.1,M,39.8,K*66
$CCMWD,081.0,T,081.0,M,21.5,N,11.1,M*43
$CCVDR,330.0,T,330.0,M,0.64,N*0B
$IIMWV,232,T,20.2,N,A*16
$CCMWV,237.0,T,020.6,N,A*39
$CCVWT,123.1,L,20.6,N,10.6,M,38.2,K*6A
$CCMWD,089.0,T,079.0,M,20.6,N,10.6,M*48
$CCVDR,330.0,T,320.0,M,0.64,N*0A
$IIRMC,220742,A,0906.492,S,14012.554,W,06.5,218,211110,10,E,A*0B
$CCMWV,237.0,T,020.6,N,A*39
$CCVWT,123.1,L,20.6,N,10.6,M,38.2,K*6A
$CCMWD,089.0,T,079.0,M,20.6,N,10.6,M*48
$CCVDR,330.0,T,320.0,M,0.64,N*0A
$IIVHW,,,203,M,07.2,N,,*60
$IIVLW,03013,N,012.2,N*53
$CCMWV,237.0,T,020.6,N,A*39
$CCVWT,123.1,L,20.6,N,10.6,M,38.2,K*6A
$CCMWD,089.0,T,079.0,M,20.6,N,10.6,M*48
$CCVDR,330.0,T,320.0,M,0.64,N*0A
$IIVWR,106,L,17.4,N,,,,*7A
$IIDPT,001.3,+0.7,*42
$IIGLL,0906.494,S,14012.556,W,220743,A,A*59
$CCMWV,239.0,T,021.3,N,A*33
$CCVWT,121.5,L,21.3,N,11.0,M,39.5,K*69
$CCMWD,083.0,T,083.0,M,21.3,N,11.0,M*44
$CCVDR,330.0,T,330.0,M,0.64,N*0B
$IIHDG,205,,,10,E*14
$IIMTW,+26.5,C*39
$CCMWV,235.0,T,020.6,N,A*3B
$CCVWT,124.5,L,20.6,N,10.6,M,38.1,K*6A
$CCMWD,080.0,T,080.0,M,20.6,N,10.6,M*47
$CCVDR,330.0,T,330.0,M,0.64,N*0B
$IIMWV,251,R,16.4,N,A*16
$CCMWV,235.0,T,020.6,N,A*3B
$CCVWT,124.5,L,20.6,N,10.6,M,38.1,K*6A
$CCMWD,080.0,T,080.0,M,20.6,N,10.6,M*47
$CCVDR,302.0,T,302.0,M,0.66,N*09
$IIMWV,234,T,20.6,N,A*14
$IIRMB,A,3.00,R,,RANGI   ,,,,,561.70,230,06.6,V,A*03
$CCMWV,232.0,T,019.6,N,A*36
$CCVWT,128.3,L,19.6,N,10.1,M,36.3,K*61
$CCMWD,086.0,T,076.0,M,19.6,N,10.1,M*45
$CCVDR,302.0,T,292.0,M,0.66,N*01
$IIRMC,220743,A,0906.494,S,14012.556,W,06.8,214,211110,10,E,A*0F
$CCMWV,232.0,T,019.6,N,A*36
$CCVWT,128.3,L,19.6,N,10.1,M,36.3,K*61
$CCMWD,086.0,T,076.0,M,19.6,N,10.1,M*45
$CCVDR,302.0,T,292.0,M,0.66,N*01
$IIVHW,,,205,M,07.4,N,,*60
$IIVLW,03013,N,012.2,N*53
$CCMWV,233.0,T,018.4,N,A*34
$CCVWT,126.9,L,18.4,N,9.5,M,34.0,K*5B
$CCMWD,088.0,T,078.0,M,18.4,N,9.5,M*7A
$CCVDR,302.0,T,292.0,M,0.66,N*01
$IIVWR,106,L,15.4,N,,,,*78
$IIDPT,001.3,+0.7,*42
$IIGLL,0906.495,S,14012.556,W,220744,A,A*5F
$CCMWV,235.0,T,019.1,N,A*36
$CCVWT,125.1,L,19.1,N,9.8,M,35.4,K*5C
$CCMWD,081.0,T,081.0,M,19.1,N,9.8,M*7C
$CCVDR,302.0,T,302.0,M,0.66,N*09
$IIHDG,207,,,10,E*16
$IIMTW,+26.5,C*39
$CCMWV,235.0,T,019.1,N,A*36
$CCVWT,125.1,L,19.1,N,9.8,M,35.4,K*5C
$CCMWD,081.0,T,081.0,M,19.1,N,9.8,M*7C
$CCVDR,302.0,T,302.0,M,0.66,N*09
$IIMWV,254,R,15.4,N,A*10
$CCMWV,235.0,T,019.1,N,A*36
$CCVWT,125.1,L,19.1,N,9.8,M,35.4,K*5C
$CCMWD,081.0,T,081.0,M,19.1,N,9.8,M*7C
$CCVDR,302.0,T,302.0,M,0.66,N*09
$IIMWV,230,T,20.1,N,A*17
$CCMWV,233.0,T,018.2,N,A*32
$CCVWT,127.4,L,18.2,N,9.4,M,33.7,K*50
$CCMWD,089.0,T,079.0,M,18.2,N,9.4,M*7D
$CCVDR,302.0,T,292.0,M,0.66,N*01
$IIRMC,220744,A,0906.495,S,14012.556,W,06.8,214,211110,10,E,A*09
$CCMWV,232.0,T,017.9,N,A*37
$CCVWT,128.0,L,17.9,N,9.2,M,33.1,K*5F
$CCMWD,092.0,T,082.0,M,17.9,N,9.2,M*71
$CCVDR,302.0,T,292.0,M,0.66,N*01
$IIVHW,,,210,M,07.2,N,,*62
$IIVLW,03013,N,012.2,N*53
$CCMWV,230.0,T,017.4,N,A*38
$CCVWT,130.4,L,17.4,N,9.0,M,32.3,K*5E
$CCMWD,089.0,T,079.0,M,17.4,N,9.0,M*70
$CCVDR,302.0,T,292.0,M,0.66,N*01
$IIVWR,108,L,14.7,N,,,,*74
$IIDPT,001.3,+0.7,*42
$IIGLL,0906.498,S,14012.558,W,220745,A,A*5D
$CCMWV,232.0,T,018.4,N,A*35
$CCVWT,128.1,L,18.4,N,9.4,M,34.0,K*5C
$CCMWD,081.0,T,081.0,M,18.4,N,9.4,M*74
$CCVDR,336.0,T,336.0,M,0.73,N*0D
$IIHDG,210,,,10,E*10
$IIMTW,+26.5,C*39
$CCMWV,232.0,T,018.4,N,A*35
$CCVWT,128.1,L,18.4,N,9.4,M,34.0,K*5C
$CCMWD,081.0,T,081.0,M,18.4,N,9.4,M*74
$CCVDR,336.0,T,336.0,M,0.73,N*0D
$IIMWV,252,R,14.7,N,A*14
$CCMWV,232.0,T,018.4,N,A*35
$CCVWT,128.1,L,18.4,N,9.4,M,34.0,K*5C
$CCMWD,081.0,T,081.0,M,18.4,N,9.4,M*74
$CCVDR,336.0,T,336.0,M,0.73,N*0D
$IIMWV,232,T,18.7,N,A*18
$IIRMB,A,3.00,R,,RANGI   ,,,,,561.70,230,06.7,V,A*02
$CCMWV,229.0,T,017.5,N,A*31
$CCVWT,131.0,L,17.5,N,9.0,M,32.5,K*5C
$CCMWD,089.0,T,079.0,M,17.5,N,9.0,M*71
$CCVDR,336.0,T,326.0,M,0.73,N*0C
$IIRMC,220745,A,0906.498,S,14012.558,W,07.0,214,211110,10,E,A*02
$CCMWV,229.0,T,017.4,N,A*30
$CCVWT,131.2,L,17.4,N,9.0,M,32.3,K*59
$CCMWD,089.0,T,079.0,M,17.4,N,9.0,M*70
$CCVDR,336.0,T,326.0,M,0.73,N*0C
$IIVHW,,,211,M,07.2,N,,*63
$IIVLW,03013,N,012.2,N*53
$CCMWV,229.0,T,018.6,N,A*3D
$CCVWT,130.6,L,18.6,N,9.6,M,34.4,K*56
$CCMWD,090.0,T,080.0,M,18.6,N,9.6,M*75
$CCVDR,336.0,T,326.0,M,0.73,N*0C
$IIVWR,109,L,15.8,N,,,,*7B
$IIDPT,001.3,+0.7,*42
$IIGLL,0906.498,S,14012.558,W,220745,A,A*5D
$CCMWV,232.0,T,019.5,N,A*35
$CCVWT,128.4,L,19.5,N,10.0,M,36.2,K*65
$CCMWD,082.0,T,082.0,M,19.5,N,10.0,M*48
$CCVDR,336.0,T,336.0,M,0.73,N*0D
$IIHDG,211,,,10,E*11
$IIMTW,+26.5,C*39
$CCMWV,232.0,T,019.5,N,A*35
$CCVWT,128.4,L,19.5,N,10.0,M,36.2,K*65
$CCMWD,082.0,T,082.0,M,19.5,N,10.0,M*48
$CCVDR,336.0,T,336.0,M,0.73,N*0D
$IIMWV,251,R,15.8,N,A*19
$CCMWV,232.0,T,019.5,N,A*35
$CCVWT,128.4,L,19.5,N,10.0,M,36.2,K*65
$CCMWD,082.0,T,082.0,M,19.5,N,10.0,M*48
$CCVDR,336.0,T,336.0,M,0.73,N*0D
$IIMWV,230,T,19.4,N,A*18
$IIRMB,A,3.00,R,,RANGI   ,,,,,561.70,230,06.7,V,A*02
$CCMWV,230.0,T,018.6,N,A*35
$CCVWT,130.2,L,18.6,N,9.6,M,34.5,K*53
$CCMWD,090.0,T,080.0,M,18.6,N,9.6,M*75
$CCVDR,336.0,T,326.0,M,0.73,N*0C
$IIRMC,220747,A,0906.502,S,14012.560,W,06.9,215,211110,10,E,A*00
$CCMWV,229.0,T,018.4,N,A*3F
$CCVWT,130.6,L,18.4,N,9.5,M,34.1,K*52
$CCMWD,092.0,T,082.0,M,18.4,N,9.5,M*74
$CCVDR,318.0,T,308.0,M,0.43,N*0F
$IIVHW,,,213,M,07.1,N,,*62
$IIVLW,03013,N,012.2,N*53
$CCMWV,228.0,T,019.3,N,A*38
$CCVWT,132.3,L,19.3,N,9.9,M,35.7,K*58
$CCMWD,090.0,T,080.0,M,19.3,N,9.9,M*7E
$CCVDR,318.0,T,308.0,M,0.43,N*0F
$IIVWR,112,L,16.4,N,,,,*7E
$IIDPT,001.3,+0.7,*42
$IIGLL,0906.502,S,14012.560,W,220747,A,A*56
$CCMWV,229.0,T,019.9,N,A*33
$CCVWT,130.8,L,19.9,N,10.3,M,36.9,K*64
$CCMWD,085.0,T,085.0,M,19.9,N,10.3,M*47
$CCVDR,318.0,T,318.0,M,0.43,N*0E
$IIHDG,216,,,10,E*16
$IIMTW,+26.5,C*39
$CCMWV,224.0,T,020.1,N,A*3C
$CCVWT,135.8,L,20.1,N,10.3,M,37.2,K*69
$CCMWD,080.0,T,080.0,M,20.1,N,10.3,M*45
$CCVDR,318.0,T,318.0,M,0.43,N*0E
$IIMWV,242,R,16.0,N,A*10
$CCMWV,224.0,T,020.1,N,A*3C
$CCVWT,135.8,L,20.1,N,10.3,M,37.2,K*69
$CCMWD,080.0,T,080.0,M,20.1,N,10.3,M*45
$CCVDR,318.0,T,318.0,M,0.43,N*0E
$IIMWV,229,T,20.0,N,A*1E
$CCMWV,222.0,T,019.2,N,A*33
$CCVWT,138.1,L,19.2,N,9.9,M,35.5,K*53
$CCMWD,087.0,T,077.0,M,19.2,N,9.9,M*71
$CCVDR,318.0,T,308.0,M,0.43,N*0F
$IIRMC,220748,A,0906.503,S,14012.561,W,06.9,215,211110,10,E,A*0F
$CCMWV,222.0,T,019.2,N,A*33
$CCVWT,138.1,L,19.2,N,9.9,M,35.5,K*53
$CCMWD,087.0,T,077.0,M,19.2,N,9.9,M*71
$CCVDR,318.0,T,308.0,M,0.43,N*0F
$IIVHW,,,216,M,07.0,N,,*66
$IIVLW,03013,N,012.2,N*53
$CCMWV,222.0,T,019.2,N,A*33
$CCVWT,138.1,L,19.2,N,9.9,M,35.5,K*53
$CCMWD,087.0,T,077.0,M,19.2,N,9.9,M*71
$CCVDR,318.0,T,308.0,M,0.43,N*0F
$IIVWR,118,L,16.0,N,,,,*70
$IIDPT,001.3,+0.7,*42
$IIGLL,0906.505,S,14012.563,W,220749,A,A*5C
$CCMWV,224.0,T,019.9,N,A*3E
$CCVWT,136.3,L,19.9,N,10.2,M,36.9,K*68
$CCMWD,081.0,T,081.0,M,19.9,N,10.2,M*46
$CCVDR,326.0,T,326.0,M,0.44,N*09
$IIHDG,218,,,10,E*18
$IIMTW,+26.5,C*39
$CCMWV,223.0,T,019.1,N,A*31
$CCVWT,137.1,L,19.1,N,9.8,M,35.3,K*58
$CCMWD,080.0,T,080.0,M,19.1,N,9.8,M*7C
$CCVDR,326.0,T,326.0,M,0.44,N*09
$IIMWV,242,R,15.1,N,A*12
$CCMWV,223.0,T,019.1,N,A*31
$CCVWT,137.1,L,19.1,N,9.8,M,35.3,K*58
$CCMWD,080.0,T,080.0,M,19.1,N,9.8,M*7C
$CCVDR,326.0,T,326.0,M,0.44,N*09
$IIMWV,224,T,20.1,N,A*12
$IIRMB,A,3.00,R,,RANGI   ,,,,,561.70,230,06.5,V,A*00
$CCMWV,220.0,T,018.0,N,A*32
$CCVWT,139.5,L,18.0,N,9.3,M,33.3,K*5F
$CCMWD,088.0,T,078.0,M,18.0,N,9.3,M*78
$CCVDR,326.0,T,316.0,M,0.44,N*0A
$IIRMC,220749,A,0906.505,S,14012.563,W,06.8,214,211110,10,E,A*0A
$CCMWV,220.0,T,018.0,N,A*32
$CCVWT,139.5,L,18.0,N,9.3,M,33.3,K*5F
$CCMWD,088.0,T,078.0,M,18.0,N,9.3,M*78
$CCVDR,326.0,T,316.0,M,0.44,N*0A
$IIVHW,,,218,M,06.9,N,,*60
$IIVLW,03013,N,012.2,N*53
$CCMWV,221.0,T,017.5,N,A*39
$CCVWT,139.2,L,17.5,N,9.0,M,32.5,K*56
$CCMWD,088.0,T,078.0,M,17.5,N,9.0,M*71
$CCVDR,326.0,T,316.0,M,0.44,N*0A
$IIVWR,117,L,14.7,N,,,,*7A
$IIDPT,000.9,+0.7,*49
$IIGLL,0906.505,S,14012.563,W,220749,A,A*5C
$CCMWV,223.0,T,018.5,N,A*34
$CCVWT,136.8,L,18.5,N,9.5,M,34.2,K*58
$CCMWD,081.0,T,081.0,M,18.5,N,9.5,M*74
$CCVDR,326.0,T,326.0,M,0.44,N*09
$IIHDG,218,,,10,E*18
$IIMTW,+26.5,C*39
$CCMWV,223.0,T,018.5,N,A*34
$CCVWT,136.8,L,18.5,N,9.5,M,34.2,K*58
$CCMWD,081.0,T,081.0,M,18.5,N,9.5,M*74
$CCVDR,313.0,T,313.0,M,0.41,N*0C
$IIMWV,243,R,14.7,N,A*14
$CCMWV,223.0,T,018.5,N,A*34
$CCVWT,136.8,L,18.5,N,9.5,M,34.2,K*58
$CCMWD,081.0,T,081.0,M,18.5,N,9.5,M*74
$CCVDR,313.0,T,313.0,M,0.41,N*0C
$IIMWV,224,T,19.1,N,A*18
$CCMWV,221.0,T,017.5,N,A*39
$CCVWT,139.2,L,17.5,N,9.0,M,32.5,K*56
$CCMWD,088.0,T,078.0,M,17.5,N,9.0,M*71
$CCVDR,313.0,T,303.0,M,0.41,N*0D
$IIRMC,220749,A,0906.505,S,14012.563,W,06.8,214,211110,10,E,A*0A
$CCMWV,220.0,T,017.3,N,A*3E
$CCVWT,139.6,L,17.3,N,8.9,M,32.1,K*58
$CCMWD,090.0,T,080.0,M,17.3,N,8.9,M*71
$CCVDR,313.0,T,303.0,M,0.41,N*0D
$IIVHW,,,220,M,06.9,N,,*6B
$IIVLW,03013,N,012.2,N*53
$CCMWV,219.0,T,017.3,N,A*34
$CCVWT,140.6,L,17.3,N,8.9,M,32.1,K*56
$CCMWD,089.0,T,079.0,M,17.3,N,8.9,M*7F
$CCVDR,313.0,T,303.0,M,0.41,N*0D
$IIVWR,118,L,14.6,N,,,,*74
$IIDPT,001.0,+0.7,*41
$IIGLL,0906.509,S,14012.565,W,220752,A,A*5C
$CCMWV,222.0,T,018.3,N,A*33
$CCVWT,138.2,L,18.3,N,9.4,M,33.8,K*56
$CCMWD,081.0,T,081.0,M,18.3,N,9.4,M*73
$CCVDR,313.0,T,313.0,M,0.41,N*0C
$IIHDG,220,,,10,E*13
$IIMTW,+26.5,C*39
$CCMWV,222.0,T,018.3,N,A*33
$CCVWT,138.2,L,18.3,N,9.4,M,33.8,K*56
$CCMWD,081.0,T,081.0,M,18.3,N,9.4,M*73
$CCVDR,313.0,T,313.0,M,0.41,N*0C
$IIMWV,242,R,14.6,N,A*14
$CCMWV,222.0,T,018.3,N,A*33
$CCVWT,138.2,L,18.3,N,9.4,M,33.8,K*56
$CCMWD,081.0,T,081.0,M,18.3,N,9.4,M*73
$CCVDR,313.0,T,313.0,M,0.41,N*0C
$IIMWV,224,T,18.7,N,A*1F
$IIRMB,A,3.00,R,,RANGI   ,,,,,561.70,230,06.7,V,A*02
$CCMWV,220.0,T,017.6,N,A*3B
$CCVWT,140.4,L,17.6,N,9.1,M,32.6,K*5F
$CCMWD,089.0,T,079.0,M,17.6,N,9.1,M*73
$CCVDR,313.0,T,303.0,M,0.41,N*0D
$IIRMC,220752,A,0906.510,S,14012.566,W,06.9,216,211110,10,E,A*02
$CCMWV,219.0,T,017.4,N,A*33
$CCVWT,140.8,L,17.4,N,8.9,M,32.2,K*5C
$CCMWD,091.0,T,081.0,M,17.4,N,8.9,M*76
$CCVDR,313.0,T,303.0,M,0.41,N*0D
$IIVHW,,,222,M,06.8,N,,*68
$IIVLW,03013,N,012.2,N*53
$CCMWV,218.0,T,017.7,N,A*31
$CCVWT,142.2,L,17.7,N,9.1,M,32.8,K*54
$CCMWD,089.0,T,079.0,M,17.7,N,9.1,M*72
$CCVDR,313.0,T,303.0,M,0.41,N*0D
$IIVWR,120,L,14.7,N,,,,*7E
$IIDPT,000.9,+0.7,*49
$IIGLL,0906.510,S,14012.566,W,220752,A,A*57
$CCMWV,220.0,T,018.6,N,A*34
$CCVWT,139.8,L,18.6,N,9.6,M,34.5,K*50
$CCMWD,082.0,T,082.0,M,18.6,N,9.6,M*74
$CCVDR,313.0,T,313.0,M,0.41,N*0C
$IIHDG,222,,,10,E*11
$IIMTW,+26.5,C*39
$CCMWV,220.0,T,018.6,N,A*34
$CCVWT,139.8,L,18.6,N,9.6,M,34.5,K*50
$CCMWD,082.0,T,082.0,M,18.6,N,9.6,M*74
$CCVDR,313.0,T,313.0,M,0.41,N*0C
$IIMWV,240,R,14.7,N,A*17
$CCMWV,220.0,T,018.6,N,A*34
$CCVWT,139.8,L,18.6,N,9.6,M,34.5,K*50
$CCMWD,082.0,T,082.0,M,18.6,N,9.6,M*74
$CCVDR,313.0,T,313.0,M,0.41,N*0C
$IIMWV,222,T,18.9,N,A*17
$IIRMB,A,3.00,R,,RANGI   ,,,,,561.70,230,06.7,V,A*02
$CCMWV,218.0,T,017.8,N,A*3E
$CCVWT,142.0,L,17.8,N,9.1,M,32.9,K*58
$CCMWD,089.0,T,079.0,M,17.8,N,9.1,M*7D
$CCVDR,313.0,T,303.0,M,0.41,N*0D
$IIRMC,220754,A,0906.511,S,14012.567,W,06.9,217,211110,10,E,A*05
$CCMWV,217.0,T,017.5,N,A*3C
$CCVWT,142.7,L,17.5,N,9.0,M,32.4,K*5E
$CCMWD,092.0,T,082.0,M,17.5,N,9.0,M*7F
$CCVDR,313.0,T,303.0,M,0.41,N*0D
$IIVHW,,,225,M,06.6,N,,*61
$IIVLW,03013,N,012.2,N*53
$CCMWV,219.0,T,017.9,N,A*3E
$CCVWT,141.2,L,17.9,N,9.2,M,33.2,K*51
$CCMWD,093.0,T,083.0,M,17.9,N,9.2,M*71
$CCVDR,313.0,T,303.0,M,0.41,N*0D
$IIVWR,119,L,15.3,N,,,,*71
$IIDPT,000.9,+0.7,*49
$IIGLL,0906.511,S,14012.567,W,220754,A,A*51
$CCMWV,221.0,T,018.9,N,A*3A
$CCVWT,138.9,L,18.9,N,9.7,M,35.0,K*5A
$CCMWD,086.0,T,086.0,M,18.9,N,9.7,M*7A
$CCVDR,313.0,T,313.0,M,0.41,N*0C
$IIHDG,225,,,10,E*16
$IIMTW,+26.5,C*39
$CCMWV,221.0,T,019.2,N,A*30
$CCVWT,139.5,L,19.2,N,9.9,M,35.5,K*56
$CCMWD,085.0,T,085.0,M,19.2,N,9.9,M*7E
$CCVDR,313.0,T,313.0,M,0.41,N*0C
$IIMWV,240,R,15.5,N,A*14
$CCMWV,221.0,T,019.2,N,A*30
$CCVWT,139.5,L,19.2,N,9.9,M,35.5,K*56
$CCMWD,085.0,T,085.0,M,19.2,N,9.9,M*7E
$CCVDR,313.0,T,313.0,M,0.41,N*0C
$IIMWV,224,T,19.2,N,A*1B
$CCMWV,218.0,T,018.2,N,A*3B
$CCVWT,141.7,L,18.2,N,9.4,M,33.8,K*5C
$CCMWD,093.0,T,083.0,M,18.2,N,9.4,M*73
$CCVDR,313.0,T,303.0,M,0.41,N*0D
$IIRMC,220754,A,0906.512,S,14012.567,W,06.9,217,211110,10,E,A*06
$CCMWV,218.0,T,018.2,N,A*3B
$CCVWT,141.7,L,18.2,N,9.4,M,33.8,K*5C
$CCMWD,093.0,T,083.0,M,18.2,N,9.4,M*73
$CCVDR,313.0,T,303.0,M,0.41,N*0D
$IIVHW,,,225,M,06.5,N,,*62
$IIVLW,03013,N,012.2,N*53
$CCMWV,218.0,T,018.2,N,A*3B
$CCVWT,141.7,L,18.2,N,9.4,M,33.8,K*5C
$CCMWD,093.0,T,083.0,M,18.2,N,9.4,M*73
$CCVDR,313.0,T,303.0,M,0.41,N*0D
$IIVWR,120,L,15.5,N,,,,*7D
$IIDPT,000.9,+0.7,*49
$IIGLL,0906.513,S,14012.568,W,220756,A,A*5E
$CCMWV,221.0,T,019.2,N,A*30
$CCVWT,139.5,L,19.2,N,9.9,M,35.5,K*56
$CCMWD,085.0,T,085.0,M,19.2,N,9.9,M*7E
$CCVDR,313.0,T,313.0,M,0.41,N*0C
$IIHDG,225,,,10,E*16
$IIMTW,+26.5,C*39
$CCMWV,214.0,T,018.9,N,A*3C
$CCVWT,146.4,L,18.9,N,9.7,M,35.0,K*5E
$CCMWD,078.0,T,078.0,M,18.9,N,9.7,M*7A
$CCVDR,313.0,T,313.0,M,0.41,N*0C
$IIMWV,232,R,14.5,N,A*10
$CCMWV,214.0,T,018.9,N,A*3C
$CCVWT,146.4,L,18.9,N,9.7,M,35.0,K*5E
$CCMWD,078.0,T,078.0,M,18.9,N,9.7,M*7A
$CCVDR,313.0,T,313.0,M,0.41,N*0C
$IIMWV,223,T,19.5,N,A*1B
$IIRMB,A,3.00,R,,RANGI   ,,,,,561.70,230,06.7,V,A*02
$CCMWV,212.0,T,018.3,N,A*30
$CCVWT,148.0,L,18.3,N,9.4,M,33.8,K*53
$CCMWD,086.0,T,076.0,M,18.3,N,9.4,M*7C
$CCVDR,308.0,T,298.0,M,0.26,N*05
$IIRMC,220756,A,0906.513,S,14012.568,W,06.8,220,211110,10,E,A*0F
$CCMWV,212.0,T,018.3,N,A*30
$CCVWT,148.0,L,18.3,N,9.4,M,33.8,K*53
$CCMWD,086.0,T,076.0,M,18.3,N,9.4,M*7C
$CCVDR,308.0,T,298.0,M,0.26,N*05
$IIVHW,,,225,M,06.5,N,,*62
$IIVLW,03013,N,012.2,N*53
$CCMWV,210.0,T,017.9,N,A*37
$CCVWT,150.2,L,17.9,N,9.2,M,33.1,K*52
$CCMWD,084.0,T,074.0,M,17.9,N,9.2,M*7F
$CCVDR,308.0,T,298.0,M,0.26,N*05
$IIVWR,130,L,13.9,N,,,,*76
$IIDPT,000.9,+0.7,*49
$IIGLL,0906.514,S,14012.569,W,220756,A,A*58
$CCMWV,212.0,T,018.5,N,A*36
$CCVWT,148.0,L,18.5,N,9.5,M,34.3,K*58
$CCMWD,079.0,T,079.0,M,18.5,N,9.5,M*74
$CCVDR,308.0,T,308.0,M,0.26,N*0D
$IIHDG,227,,,10,E*14
$IIMTW,+26.5,C*39
$CCMWV,212.0,T,018.5,N,A*36
$CCVWT,148.0,L,18.5,N,9.5,M,34.3,K*58
$CCMWD,079.0,T,079.0,M,18.5,N,9.5,M*74
$CCVDR,308.0,T,308.0,M,0.26,N*0D
$IIMWV,230,R,13.9,N,A*19
$CCMWV,212.0,T,018.5,N,A*36
$CCVWT,148.0,L,18.5,N,9.5,M,34.3,K*58
$CCMWD,079.0,T,079.0,M,18.5,N,9.5,M*74
$CCVDR,308.0,T,308.0,M,0.26,N*0D
$IIMWV,217,T,19.1,N,A*18
$CCMWV,209.0,T,017.7,N,A*31
$CCVWT,150.7,L,17.7,N,9.1,M,32.8,K*52
$CCMWD,086.0,T,076.0,M,17.7,N,9.1,M*72
$CCVDR,308.0,T,298.0,M,0.26,N*05
$IIRMC,220756,A,0906.514,S,14012.569,W,06.8,220,211110,10,E,A*09
$CCMWV,209.0,T,017.6,N,A*30
$CCVWT,151.0,L,17.6,N,9.1,M,32.6,K*5B
$CCMWD,087.0,T,077.0,M,17.6,N,9.1,M*73
$CCVDR,308.0,T,298.0,M,0.26,N*05
$IIVHW,,,228,M,06.5,N,,*6F
$IIVLW,03013,N,012.2,N*53
$CCMWV,211.0,T,018.3,N,A*33
$CCVWT,149.3,L,18.3,N,9.4,M,33.8,K*51
$CCMWD,088.0,T,078.0,M,18.3,N,9.4,M*7C
$CCVDR,308.0,T,298.0,M,0.26,N*05
$IIVWR,129,L,14.7,N,,,,*77
$IIDPT,000.9,+0.7,*49
$IIGLL,0906.515,S,14012.571,W,220758,A,A*5E
$CCMWV,213.0,T,019.1,N,A*32
$CCVWT,146.8,L,19.1,N,9.8,M,35.4,K*50
$CCMWD,081.0,T,081.0,M,19.1,N,9.8,M*7C
$CCVDR,308.0,T,308.0,M,0.26,N*0D
$IIHDG,228,,,10,E*1B
$IIMTW,+26.5,C*39
$CCMWV,213.0,T,019.1,N,A*32
$CCVWT,146.8,L,19.1,N,9.8,M,35.4,K*50
$CCMWD,081.0,T,081.0,M,19.1,N,9.8,M*7C
$CCVDR,308.0,T,308.0,M,0.26,N*0D
$IIMWV,231,R,14.7,N,A*11
$CCMWV,213.0,T,019.1,N,A*32
$CCVWT,146.8,L,19.1,N,9.8,M,35.4,K*50
$CCMWD,081.0,T,081.0,M,19.1,N,9.8,M*7C
$CCVDR,308.0,T,308.0,M,0.26,N*0D
$IIMWV,215,T,18.6,N,A*1C
$IIRMB,A,3.00,R,,RANGI   ,,,,,561.70,230,06.6,V,A*03
$CCMWV,217.0,T,019.9,N,A*3E
$CCVWT,143.0,L,19.9,N,10.3,M,36.9,K*68
$CCMWD,095.0,T,085.0,M,19.9,N,10.3,M*46
$CCVDR,308.0,T,298.0,M,0.26,N*05
$IIRMC,220758,A,0906.516,S,14012.573,W,06.7,243,211110,10,E,A*04
$CCMWV,216.0,T,019.8,N,A*3E
$CCVWT,143.8,L,19.8,N,10.2,M,36.6,K*6F
$CCMWD,097.0,T,087.0,M,19.8,N,10.2,M*46
$CCVDR,308.0,T,298.0,M,0.26,N*05
$IIVHW,,,231,M,06.7,N,,*65
$IIVLW,03013,N,012.3,N*52
$CCMWV,215.0,T,020.2,N,A*3D
$CCVWT,145.1,L,20.2,N,10.4,M,37.4,K*65
$CCMWD,095.0,T,085.0,M,20.2,N,10.4,M*40
$CCVDR,308.0,T,298.0,M,0.26,N*05
$IIVWR,131,L,15.0,N,,,,*78
$IIDPT,000.9,+0.7,*49
$IIGLL,0906.516,S,14012.573,W,220758,A,A*5F
$CCMWV,218.0,T,020.7,N,A*35
$CCVWT,142.2,L,20.7,N,10.7,M,38.4,K*68
$CCMWD,088.0,T,088.0,M,20.7,N,10.7,M*47
$CCVDR,308.0,T,308.0,M,0.26,N*0D
$IIHDG,231,,,10,E*13
$IIMTW,+26.5,C*39
$CCMWV,218.0,T,020.7,N,A*35
$CCVWT,142.2,L,20.7,N,10.7,M,38.4,K*68
$CCMWD,088.0,T,088.0,M,20.7,N,10.7,M*47
$CCVDR,308.0,T,308.0,M,0.26,N*0D
$IIMWV,229,R,15.0,N,A*1E
$CCMWV,218.0,T,020.7,N,A*35
$CCVWT,142.2,L,20.7,N,10.7,M,38.4,K*68
$CCMWD,088.0,T,088.0,M,20.7,N,10.7,M*47
$CCVDR,308.0,T,308.0,M,0.26,N*0D
$IIMWV,214,T,20.1,N,A*11
$IIRMB,A,3.00,R,,RANGI   ,,,,,561.70,230,07.2,V,A*06
$CCMWV,211.0,T,019.8,N,A*39
$CCVWT,149.0,L,19.8,N,10.2,M,36.6,K*6D
$CCMWD,092.0,T,082.0,M,19.8,N,10.2,M*46
$CCVDR,308.0,T,298.0,M,0.26,N*05
$IIRMC,220800,A,0906.518,S,14012.575,W,07.2,232,211110,10,E,A*0C
$CCMWV,211.0,T,019.8,N,A*39
$CCVWT,149.0,L,19.8,N,10.2,M,36.6,K*6D
$CCMWD,092.0,T,082.0,M,19.8,N,10.2,M*46
$CCVDR,308.0,T,298.0,M,0.26,N*05
$IIVHW,,,231,M,06.7,N,,*65
$IIVLW,03013,N,012.3,N*52
$CCMWV,208.0,T,019.7,N,A*3E
$CCVWT,152.2,L,19.7,N,10.1,M,36.5,K*6A
$CCMWD,088.0,T,078.0,M,19.7,N,10.1,M*44
$CCVDR,308.0,T,298.0,M,0.26,N*05
$IIVWR,135,L,14.6,N,,,,*7B
$IIDPT,000.9,+0.7,*49
$IIGLL,0906.518,S,14012.575,W,220800,A,A*55
$CCMWV,211.0,T,020.5,N,A*3E
$CCVWT,148.9,L,20.5,N,10.5,M,37.9,K*6B
$CCMWD,081.0,T,081.0,M,20.5,N,10.5,M*47
$CCVDR,346.0,T,346.0,M,0.39,N*03
$IIHDG,230,,,10,E*12
$IIMTW,+26.5,C*39
$CCMWV,208.0,T,020.0,N,A*33
$CCVWT,152.1,L,20.0,N,10.3,M,37.1,K*63
$CCMWD,077.0,T,077.0,M,20.0,N,10.3,M*44
$CCVDR,346.0,T,346.0,M,0.39,N*03
$IIMWV,221,R,13.9,N,A*19
$CCMWV,208.0,T,020.0,N,A*33
$CCVWT,152.1,L,20.0,N,10.3,M,37.1,K*63
$CCMWD,077.0,T,077.0,M,20.0,N,10.3,M*44
$CCVDR,346.0,T,346.0,M,0.39,N*03
$IIMWV,211,T,19.9,N,A*16
$CCMWV,205.0,T,019.4,N,A*30
$CCVWT,155.3,L,19.4,N,10.0,M,35.9,K*61
$CCMWD,084.0,T,074.0,M,19.4,N,10.0,M*46
$CCVDR,346.0,T,336.0,M,0.39,N*04
$IIRMC,220800,A,0906.519,S,14012.576,W,07.2,232,211110,10,E,A*0E
$CCMWV,205.0,T,019.4,N,A*30
$CCVWT,155.3,L,19.4,N,10.0,M,35.9,K*61
$CCMWD,084.0,T,074.0,M,19.4,N,10.0,M*46
$CCVDR,346.0,T,336.0,M,0.39,N*04
$IIVHW,,,230,M,06.8,N,,*6B
$IIVLW,03013,N,012.3,N*52
$CCMWV,205.0,T,019.4,N,A*30
$CCVWT,155.3,L,19.4,N,10.0,M,35.9,K*61
$CCMWD,084.0,T,074.0,M,19.4,N,10.0,M*46
$CCVDR,346.0,T,336.0,M,0.39,N*04
$IIVWR,139,L,13.9,N,,,,*7F
$IIDPT,000.9,+0.7,*49
$IIGLL,0906.520,S,14012.578,W,220802,A,A*51
$CCMWV,209.0,T,020.2,N,A*30
$CCVWT,151.1,L,20.2,N,10.4,M,37.4,K*60
$CCMWD,075.0,T,075.0,M,20.2,N,10.4,M*41
$CCVDR,346.0,T,346.0,M,0.39,N*03
$IIHDG,227,,,10,E*14
$IIMTW,+26.5,C*39
$CCMWV,209.0,T,020.1,N,A*33
$CCVWT,151.2,L,20.1,N,10.3,M,37.2,K*61
$CCMWD,075.0,T,075.0,M,20.1,N,10.3,M*45
$CCVDR,346.0,T,346.0,M,0.39,N*03
$IIMWV,221,R,13.8,N,A*18
$CCMWV,209.0,T,020.1,N,A*33
$CCVWT,151.2,L,20.1,N,10.3,M,37.2,K*61
$CCMWD,075.0,T,075.0,M,20.1,N,10.3,M*45
$CCVDR,346.0,T,346.0,M,0.39,N*03
$IIMWV,208,T,19.4,N,A*13
$IIRMB,A,3.00,R,,RANGI   ,,,,,561.70,230,07.4,V,A*00
$CCMWV,206.0,T,019.8,N,A*3F
$CCVWT,154.0,L,19.8,N,10.2,M,36.7,K*60
$CCMWD,082.0,T,072.0,M,19.8,N,10.2,M*48
$CCVDR,346.0,T,336.0,M,0.39,N*04
$IIRMC,220802,A,0906.520,S,14012.578,W,07.4,234,211110,10,E,A*08
$CCMWV,206.0,T,019.8,N,A*3F
$CCVWT,154.0,L,19.8,N,10.2,M,36.7,K*60
$CCMWD,082.0,T,072.0,M,19.8,N,10.2,M*48
$CCVDR,346.0,T,336.0,M,0.39,N*04
$IIVHW,,,227,M,06.8,N,,*6D
$IIVLW,03013,N,012.3,N*52
$CCMWV,210.0,T,019.9,N,A*39
$CCVWT,150.3,L,19.9,N,10.2,M,36.8,K*69
$CCMWD,086.0,T,076.0,M,19.9,N,10.2,M*49
$CCVDR,346.0,T,336.0,M,0.39,N*04
$IIVWR,134,L,14.2,N,,,,*7E
$IIDPT,000.9,+0.7,*49
$IIGLL,0906.521,S,14012.579,W,220802,A,A*51
$CCMWV,214.0,T,020.7,N,A*39
$CCVWT,145.8,L,20.7,N,10.6,M,38.3,K*63
$CCMWD,077.0,T,077.0,M,20.7,N,10.6,M*46
$CCVDR,350.0,T,350.0,M,0.35,N*0F
$IIHDG,223,,,10,E*10
$IIMTW,+26.5,C*39
$CCMWV,214.0,T,020.7,N,A*39
$CCVWT,145.8,L,20.7,N,10.6,M,38.3,K*63
$CCMWD,077.0,T,077.0,M,20.7,N,10.6,M*46
$CCVDR,350.0,T,350.0,M,0.35,N*0F
$IIMWV,226,R,14.2,N,A*12
$CCMWV,214.0,T,020.7,N,A*39
$CCVWT,145.8,L,20.7,N,10.6,M,38.3,K*63
$CCMWD,077.0,T,077.0,M,20.7,N,10.6,M*46
$CCVDR,350.0,T,350.0,M,0.35,N*0F
$IIMWV,208,T,19.4,N,A*13
$CCMWV,211.0,T,020.1,N,A*3A
$CCVWT,149.1,L,20.1,N,10.4,M,37.3,K*6D
$CCMWD,083.0,T,073.0,M,20.1,N,10.4,M*4D
$CCVDR,350.0,T,340.0,M,0.35,N*0E
$IIRMC,220802,A,0906.521,S,14012.579,W,07.4,234,211110,10,E,A*08
$CCMWV,212.0,T,020.3,N,A*3B
$CCVWT,148.4,L,20.3,N,10.4,M,37.5,K*6D
$CCMWD,082.0,T,072.0,M,20.3,N,10.4,M*4F
$CCVDR,350.0,T,340.0,M,0.35,N*0E
$IIVHW,,,221,M,06.7,N,,*64
$IIVLW,03013,N,012.3,N*52
$CCMWV,215.0,T,020.3,N,A*3C
$CCVWT,145.5,L,20.3,N,10.4,M,37.6,K*62
$CCMWD,085.0,T,075.0,M,20.3,N,10.4,M*4F
$CCVDR,350.0,T,340.0,M,0.35,N*0E
$IIVWR,130,L,14.5,N,,,,*7D
$IIDPT,000.9,+0.7,*49
$IIGLL,0906.522,S,14012.582,W,220804,A,A*50
$CCMWV,218.0,T,020.9,N,A*3B
$CCVWT,142.3,L,20.9,N,10.7,M,38.7,K*64
$CCMWD,078.0,T,078.0,M,20.9,N,10.7,M*49
$CCVDR,350.0,T,350.0,M,0.35,N*0F
$IIHDG,221,,,10,E*12
$IIMTW,+26.5,C*39
$CCMWV,218.0,T,020.9,N,A*3B
$CCVWT,142.3,L,20.9,N,10.7,M,38.7,K*64
$CCMWD,078.0,T,078.0,M,20.9,N,10.7,M*49
$CCVDR,350.0,T,350.0,M,0.35,N*0F
$IIMWV,230,R,14.5,N,A*12
$CCMWV,218.0,T,020.9,N,A*3B
$CCVWT,142.3,L,20.9,N,10.7,M,38.7,K*64
$CCMWD,078.0,T,078.0,M,20.9,N,10.7,M*49
$CCVDR,350.0,T,350.0,M,0.35,N*0F
$IIMWV,212,T,19.3,N,A*1F
$IIRMB,A,3.00,R,,RANGI   ,,,,,561.70,230,07.3,V,A*07
$CCMWV,214.0,T,020.1,N,A*3F
$CCVWT,145.6,L,20.1,N,10.4,M,37.3,K*66
$CCMWD,085.0,T,075.0,M,20.1,N,10.4,M*4D
$CCVDR,350.0,T,340.0,M,0.35,N*0E
$IIRMC,220804,A,0906.523,S,14012.583,W,07.3,233,211110,10,E,A*09
$CCMWV,215.0,T,020.2,N,A*3D
$CCVWT,145.3,L,20.2,N,10.4,M,37.4,K*67
$CCMWD,084.0,T,074.0,M,20.2,N,10.4,M*4E
$CCVDR,350.0,T,340.0,M,0.35,N*0E
$IIVHW,,,220,M,06.6,N,,*64
$IIVLW,03013,N,012.3,N*52
$CCMWV,218.0,T,019.7,N,A*3F
$CCVWT,142.0,L,19.7,N,10.1,M,36.4,K*68
$CCMWD,087.0,T,077.0,M,19.7,N,10.1,M*44
$CCVDR,350.0,T,340.0,M,0.35,N*0E
$IIVWR,125,L,14.3,N,,,,*7F
$IIDPT,000.9,+0.7,*49
$IIGLL,0906.523,S,14012.583,W,220804,A,A*50
$CCMWV,221.0,T,020.3,N,A*3B
$CCVWT,138.9,L,20.3,N,10.5,M,37.6,K*65
$CCMWD,081.0,T,081.0,M,20.3,N,10.5,M*41
$CCVDR,350.0,T,350.0,M,0.35,N*0F
$IIHDG,220,,,10,E*13
$IIMTW,+26.5,C*39
$CCMWV,221.0,T,020.3,N,A*3B
$CCVWT,138.9,L,20.3,N,10.5,M,37.6,K*65
$CCMWD,081.0,T,081.0,M,20.3,N,10.5,M*41
$CCVDR,350.0,T,350.0,M,0.35,N*0F
$IIMWV,235,R,14.3,N,A*11
$CCMWV,221.0,T,020.3,N,A*3B
$CCVWT,138.9,L,20.3,N,10.5,M,37.6,K*65
$CCMWD,081.0,T,081.0,M,20.3,N,10.5,M*41
$CCVDR,350.0,T,350.0,M,0.35,N*0F
$IIMWV,218,T,18.7,N,A*10
$IIRMB,A,3.00,R,,RANGI   ,,,,,561.70,230,07.1,V,A*05
$CCMWV,218.0,T,019.3,N,A*3B
$CCVWT,142.3,L,19.3,N,10.0,M,35.8,K*61
$CCMWD,087.0,T,077.0,M,19.3,N,10.0,M*41
$CCVDR,350.0,T,340.0,M,0.35,N*0E
$IIRMC,220806,A,0906.525,S,14012.585,W,07.1,231,211110,10,E,A*0B
$CCMWV,218.0,T,019.3,N,A*3B
$CCVWT,142.3,L,19.3,N,10.0,M,35.8,K*61
$CCMWD,087.0,T,077.0,M,19.3,N,10.0,M*41
$CCVDR,350.0,T,340.0,M,0.35,N*0E
$IIVHW,,,220,M,06.6,N,,*64
$IIVLW,03013,N,012.3,N*52
$CCMWV,220.0,T,019.0,N,A*33
$CCVWT,140.2,L,19.0,N,9.8,M,35.2,K*5B
$CCMWD,089.0,T,079.0,M,19.0,N,9.8,M*72
$CCVDR,350.0,T,340.0,M,0.35,N*0E
$IIVWR,122,L,14.2,N,,,,*79
$IIDPT,000.9,+0.7,*49
$IIGLL,0906.525,S,14012.585,W,220806,A,A*52
$CCMWV,223.0,T,019.9,N,A*39
$CCVWT,136.6,L,19.9,N,10.2,M,36.8,K*6C
$CCMWD,081.0,T,081.0,M,19.9,N,10.2,M*46
$CCVDR,335.0,T,335.0,M,0.27,N*0C
$IIHDG,218,,,10,E*18
$IIMTW,+26.5,C*39
$CCMWV,226.0,T,019.9,N,A*3C
$CCVWT,134.4,L,19.9,N,10.2,M,36.8,K*6C
$CCMWD,083.0,T,083.0,M,19.9,N,10.2,M*46
$CCVDR,335.0,T,335.0,M,0.27,N*0C
$IIMWV,241,R,14.4,N,A*15
$CCMWV,226.0,T,019.9,N,A*3C
$CCVWT,134.4,L,19.9,N,10.2,M,36.8,K*6C
$CCMWD,083.0,T,083.0,M,19.9,N,10.2,M*46
$CCVDR,335.0,T,335.0,M,0.27,N*0C
$IIMWV,220,T,18.5,N,A*19
$CCMWV,223.0,T,019.1,N,A*31
$CCVWT,137.3,L,19.1,N,9.8,M,35.4,K*5D
$CCMWD,090.0,T,080.0,M,19.1,N,9.8,M*7D
$CCVDR,335.0,T,325.0,M,0.27,N*0D
$IIRMC,220806,A,0906.526,S,14012.586,W,07.1,231,211110,10,E,A*0B
$CCMWV,223.0,T,019.1,N,A*31
$CCVWT,137.3,L,19.1,N,9.8,M,35.4,K*5D
$CCMWD,090.0,T,080.0,M,19.1,N,9.8,M*7D
$CCVDR,335.0,T,325.0,M,0.27,N*0D
$IIVHW,,,218,M,06.7,N,,*6E
$IIVLW,03013,N,012.3,N*52
$CCMWV,223.0,T,019.1,N,A*31
$CCVWT,137.3,L,19.1,N,9.8,M,35.4,K*5D
$CCMWD,090.0,T,080.0,M,19.1,N,9.8,M*7D
$CCVDR,335.0,T,325.0,M,0.27,N*0D
$IIVWR,119,L,14.4,N,,,,*77
$IIDPT,000.9,+0.7,*49
$IIGLL,0906.528,S,14012.587,W,220808,A,A*53
$CCMWV,226.0,T,019.9,N,A*3C
$CCVWT,134.1,L,19.9,N,10.3,M,36.9,K*69
$CCMWD,082.0,T,082.0,M,19.9,N,10.3,M*47
$CCVDR,335.0,T,335.0,M,0.27,N*0C
$IIHDG,217,,,10,E*17
$IIMTW,+26.5,C*39
$CCMWV,225.0,T,019.5,N,A*33
$CCVWT,135.2,L,19.5,N,10.0,M,36.1,K*6C
$CCMWD,081.0,T,081.0,M,19.5,N,10.0,M*48
$CCVDR,335.0,T,335.0,M,0.27,N*0C
$IIMWV,240,R,13.9,N,A*1E
$CCMWV,225.0,T,019.5,N,A*33
$CCVWT,135.2,L,19.5,N,10.0,M,36.1,K*6C
$CCMWD,081.0,T,081.0,M,19.5,N,10.0,M*48
$CCVDR,335.0,T,335.0,M,0.27,N*0C
$IIMWV,222,T,18.5,N,A*1B
$IIRMB,A,3.00,R,,RANGI   ,,,,,561.70,230,07.0,V,A*04
$CCMWV,221.0,T,018.5,N,A*36
$CCVWT,138.9,L,18.5,N,9.5,M,34.3,K*56
$CCMWD,088.0,T,078.0,M,18.5,N,9.5,M*7B
$CCVDR,335.0,T,325.0,M,0.27,N*0D
$IIRMC,220808,A,0906.528,S,14012.587,W,07.0,228,211110,10,E,A*03
$CCMWV,221.0,T,018.5,N,A*36
$CCVWT,138.9,L,18.5,N,9.5,M,34.3,K*56
$CCMWD,088.0,T,078.0,M,18.5,N,9.5,M*7B
$CCVDR,346.0,T,336.0,M,0.20,N*0C
$IIVHW,,,217,M,07.0,N,,*67
$IIVLW,03013,N,012.3,N*52
$CCMWV,221.0,T,017.7,N,A*3B
$CCVWT,139.1,L,17.7,N,9.1,M,32.7,K*54
$CCMWD,087.0,T,077.0,M,17.7,N,9.1,M*72
$CCVDR,346.0,T,336.0,M,0.20,N*0C
$IIVWR,119,L,13.1,N,,,,*75
$IIDPT,000.9,+0.7,*49
$IIGLL,0906.529,S,14012.588,W,220808,A,A*5D
$CCMWV,225.0,T,018.5,N,A*32
$CCVWT,135.3,L,18.5,N,9.5,M,34.3,K*51
$CCMWD,079.0,T,079.0,M,18.5,N,9.5,M*74
$CCVDR,346.0,T,346.0,M,0.20,N*0B
$IIHDG,215,,,10,E*15
$IIMTW,+26.5,C*39
$CCMWV,225.0,T,018.5,N,A*32
$CCVWT,135.3,L,18.5,N,9.5,M,34.3,K*51
$CCMWD,079.0,T,079.0,M,18.5,N,9.5,M*74
$CCVDR,346.0,T,346.0,M,0.20,N*0B
$IIMWV,241,R,13.1,N,A*17
$CCMWV,225.0,T,018.5,N,A*32
$CCVWT,135.3,L,18.5,N,9.5,M,34.3,K*51
$CCMWD,079.0,T,079.0,M,18.5,N,9.5,M*74
$CCVDR,346.0,T,346.0,M,0.20,N*0B
$IIMWV,221,T,18.4,N,A*19
$CCMWV,222.0,T,017.8,N,A*37
$CCVWT,138.5,L,17.8,N,9.2,M,33.0,K*5B
$CCMWD,086.0,T,076.0,M,17.8,N,9.2,M*7E
$CCVDR,346.0,T,336.0,M,0.20,N*0C
$IIRMC,220808,A,0906.529,S,14012.588,W,07.0,228,211110,10,E,A*0D
$CCMWV,223.0,T,018.1,N,A*30
$CCVWT,137.2,L,18.1,N,9.3,M,33.6,K*52
$CCMWD,083.0,T,073.0,M,18.1,N,9.3,M*79
$CCVDR,346.0,T,336.0,M,0.20,N*0C
$IIVHW,,,211,M,07.3,N,,*62
$IIVLW,03013,N,012.3,N*52
$CCMWV,224.0,T,017.7,N,A*3E
$CCVWT,136.1,L,17.7,N,9.1,M,32.8,K*54
$CCMWD,084.0,T,074.0,M,17.7,N,9.1,M*72
$CCVDR,346.0,T,336.0,M,0.20,N*0C
$IIVWR,117,L,12.8,N,,,,*73
$IIDPT,000.9,+0.7,*49
$IIGLL,0906.530,S,14012.590,W,220810,A,A*55
$CCMWV,227.0,T,018.4,N,A*31
$CCVWT,132.9,L,18.4,N,9.4,M,34.0,K*5F
$CCMWD,078.0,T,078.0,M,18.4,N,9.4,M*74
$CCVDR,346.0,T,346.0,M,0.20,N*0B
$IIHDG,211,,,10,E*11
$IIMTW,+26.5,C*39
$CCMWV,227.0,T,018.4,N,A*31
$CCVWT,132.9,L,18.4,N,9.4,M,34.0,K*5F
$CCMWD,078.0,T,078.0,M,18.4,N,9.4,M*74
$CCVDR,346.0,T,346.0,M,0.20,N*0B
$IIMWV,243,R,12.8,N,A*1D
$CCMWV,227.0,T,018.4,N,A*31
$CCVWT,132.9,L,18.4,N,9.4,M,34.0,K*5F
$CCMWD,078.0,T,078.0,M,18.4,N,9.4,M*74
$CCVDR,346.0,T,346.0,M,0.20,N*0B
$IIMWV,220,T,17.6,N,A*15
$IIRMB,A,3.00,R,,RANGI   ,,,,,561.70,230,07.2,V,A*06
$CCMWV,223.0,T,017.8,N,A*36
$CCVWT,136.9,L,17.8,N,9.1,M,32.9,K*52
$CCMWD,084.0,T,074.0,M,17.8,N,9.1,M*7D
$CCVDR,346.0,T,336.0,M,0.20,N*0C
$IIRMC,220810,A,0906.531,S,14012.591,W,07.2,227,211110,10,E,A*08
$CCMWV,224.0,T,017.9,N,A*30
$CCVWT,136.2,L,17.9,N,9.2,M,33.2,K*51
$CCMWD,082.0,T,072.0,M,17.9,N,9.2,M*7F
$CCVDR,346.0,T,336.0,M,0.20,N*0C
$IIVHW,,,209,M,07.2,N,,*6A
$IIVLW,03013,N,012.3,N*52
$CCMWV,225.0,T,018.2,N,A*35
$CCVWT,135.1,L,18.2,N,9.4,M,33.8,K*59
$CCMWD,083.0,T,073.0,M,18.2,N,9.4,M*7D
$CCVDR,346.0,T,336.0,M,0.20,N*0C
$IIVWR,116,L,13.2,N,,,,*79
$IIGLL,0906.531,S,14012.591,W,220810,A,A*55
$CCMWV,228.0,T,018.9,N,A*33
$CCVWT,131.9,L,18.9,N,9.7,M,35.0,K*53
$CCMWD,077.0,T,077.0,M,18.9,N,9.7,M*7A
$CCVDR,346.0,T,346.0,M,0.20,N*0B
$IIHDG,209,,,10,E*18
$IIMTW,+26.5,C*39
$CCMWV,228.0,T,018.9,N,A*33
$CCVWT,131.9,L,18.9,N,9.7,M,35.0,K*53
$CCMWD,077.0,T,077.0,M,18.9,N,9.7,M*7A
$CCVDR,326.0,T,326.0,M,0.20,N*0B
$IIMWV,244,R,13.2,N,A*11
$CCMWV,228.0,T,018.9,N,A*33
$CCVWT,131.9,L,18.9,N,9.7,M,35.0,K*53
$CCMWD,077.0,T,077.0,M,18.9,N,9.7,M*7A
$CCVDR,326.0,T,326.0,M,0.20,N*0B
$IIMWV,221,T,17.3,N,A*11
$IIRMB,A,3.00,R,,RANGI   ,,,,,561.70,230,07.3,V,A*07
$CCMWV,225.0,T,018.3,N,A*34
$CCVWT,135.3,L,18.3,N,9.4,M,33.9,K*5B
$CCMWD,083.0,T,073.0,M,18.3,N,9.4,M*7C
$CCVDR,326.0,T,316.0,M,0.20,N*08
$IIRMC,220812,A,0906.533,S,14012.593,W,07.3,227,211110,10,E,A*0B
$CCMWV,224.0,T,018.1,N,A*37
$CCVWT,136.3,L,18.1,N,9.3,M,33.5,K*51
$CCMWD,085.0,T,075.0,M,18.1,N,9.3,M*79
$CCVDR,326.0,T,316.0,M,0.20,N*08
$IIVHW,,,212,M,06.7,N,,*64
$IIVLW,03013,N,012.3,N*52
$CCMWV,226.0,T,018.9,N,A*3D
$CCVWT,133.7,L,18.9,N,9.7,M,35.1,K*5E
$CCMWD,088.0,T,078.0,M,18.9,N,9.7,M*75
$CCVDR,326.0,T,316.0,M,0.20,N*08
$IIVWR,114,L,14.3,N,,,,*7D
$IIGLL,0906.533,S,14012.593,W,220812,A,A*57
$CCMWV,229.0,T,019.7,N,A*3D
$CCVWT,130.7,L,19.7,N,10.1,M,36.5,K*6B
$CCMWD,081.0,T,081.0,M,19.7,N,10.1,M*4B
$CCVDR,326.0,T,326.0,M,0.20,N*0B
$IIHDG,212,,,10,E*12
$IIMTW,+26.5,C*39
$CCMWV,231.0,T,020.9,N,A*30
$CCVWT,129.0,L,20.9,N,10.8,M,38.7,K*65
$CCMWD,083.0,T,083.0,M,20.9,N,10.8,M*46
$CCVDR,333.0,T,333.0,M,0.27,N*0C
$IIMWV,247,R,15.6,N,A*10
$CCMWV,231.0,T,020.9,N,A*30
$CCVWT,129.0,L,20.9,N,10.8,M,38.7,K*65
$CCMWD,083.0,T,083.0,M,20.9,N,10.8,M*46
$CCVDR,333.0,T,333.0,M,0.27,N*0C
$IIMWV,226,T,18.1,N,A*1B
$CCMWV,228.0,T,020.1,N,A*30
$CCVWT,131.7,L,20.1,N,10.3,M,37.2,K*62
$CCMWD,090.0,T,080.0,M,20.1,N,10.3,M*44
$CCVDR,333.0,T,323.0,M,0.27,N*0D
$IIRMC,220812,A,0906.534,S,14012.594,W,07.3,227,211110,10,E,A*0B
$CCMWV,228.0,T,019.8,N,A*33
$CCVWT,132.5,L,19.8,N,10.2,M,36.7,K*65
$CCMWD,092.0,T,082.0,M,19.8,N,10.2,M*46
$CCVDR,333.0,T,323.0,M,0.27,N*0D
$IIVHW,,,215,M,06.3,N,,*67
$IIVLW,03013,N,012.3,N*52
$CCMWV,228.0,T,019.8,N,A*33
$CCVWT,132.5,L,19.8,N,10.2,M,36.7,K*65
$CCMWD,092.0,T,082.0,M,19.8,N,10.2,M*46
$CCVDR,333.0,T,323.0,M,0.27,N*0D
$IIVWR,113,L,15.6,N,,,,*7E
$IIGLL,0906.534,S,14012.594,W,220812,A,A*57
$CCMWV,230.0,T,020.7,N,A*3F
$CCVWT,129.8,L,20.7,N,10.6,M,38.3,K*69
$CCMWD,085.0,T,085.0,M,20.7,N,10.6,M*46
$CCVDR,333.0,T,333.0,M,0.27,N*0C
$IIHDG,215,,,10,E*15
$IIMTW,+26.5,C*39
$CCMWV,227.0,T,021.1,N,A*3E
$CCVWT,133.3,L,21.1,N,10.9,M,39.2,K*61
$CCMWD,081.0,T,081.0,M,21.1,N,10.9,M*4E
$CCVDR,333.0,T,333.0,M,0.27,N*0C
$IIMWV,242,R,15.7,N,A*14
$CCMWV,227.0,T,021.1,N,A*3E
$CCVWT,133.3,L,21.1,N,10.9,M,39.2,K*61
$CCMWD,081.0,T,081.0,M,21.1,N,10.9,M*4E
$CCVDR,333.0,T,333.0,M,0.27,N*0C
$IIMWV,229,T,18.8,N,A*1D
$IIRMB,A,3.00,R,,RANGI   ,,,,,561.70,230,06.8,V,A*0D
$CCMWV,224.0,T,019.8,N,A*3F
$CCVWT,135.6,L,19.8,N,10.2,M,36.7,K*61
$CCMWD,089.0,T,079.0,M,19.8,N,10.2,M*48
$CCVDR,333.0,T,323.0,M,0.27,N*0D
$IIRMC,220814,A,0906.536,S,14012.596,W,06.8,225,211110,10,E,A*05
$CCMWV,224.0,T,019.8,N,A*3F
$CCVWT,135.6,L,19.8,N,10.2,M,36.7,K*61
$CCMWD,089.0,T,079.0,M,19.8,N,10.2,M*48
$CCVDR,333.0,T,323.0,M,0.27,N*0D
$IIVHW,,,215,M,06.3,N,,*67
$IIVLW,03013,N,012.3,N*52
$CCMWV,224.0,T,019.8,N,A*3F
$CCVWT,135.6,L,19.8,N,10.2,M,36.7,K*61
$CCMWD,089.0,T,079.0,M,19.8,N,10.2,M*48
$CCVDR,333.0,T,323.0,M,0.27,N*0D
$IIVWR,118,L,15.7,N,,,,*74
$IIGLL,0906.537,S,14012.598,W,220814,A,A*5E
$CCMWV,225.0,T,020.1,N,A*3D
$CCVWT,134.6,L,20.1,N,10.4,M,37.3,K*60
$CCMWD,086.0,T,086.0,M,20.1,N,10.4,M*42
$CCVDR,333.0,T,333.0,M,0.27,N*0C
$IIHDG,221,,,10,E*12
$IIMTW,+26.5,C*39
$CCMWV,221.0,T,019.8,N,A*3A
$CCVWT,138.9,L,19.8,N,10.2,M,36.8,K*6C
$CCMWD,082.0,T,082.0,M,19.8,N,10.2,M*47
$CCVDR,333.0,T,333.0,M,0.27,N*0C
$IIMWV,237,R,15.0,N,A*11
$CCMWV,221.0,T,019.8,N,A*3A
$CCVWT,138.9,L,19.8,N,10.2,M,36.8,K*6C
$CCMWD,082.0,T,082.0,M,19.8,N,10.2,M*47
$CCVDR,333.0,T,333.0,M,0.27,N*0C
$IIMWV,225,T,19.3,N,A*1B
$CCMWV,218.0,T,019.1,N,A*39
$CCVWT,141.5,L,19.1,N,9.8,M,35.3,K*5D
$CCMWD,089.0,T,079.0,M,19.1,N,9.8,M*73
$CCVDR,333.0,T,323.0,M,0.27,N*0D
$IIRMC,220814,A,0906.537,S,14012.598,W,06.8,225,211110,10,E,A*0A
$CCMWV,218.0,T,019.1,N,A*39
$CCVWT,141.5,L,19.1,N,9.8,M,35.3,K*5D
$CCMWD,089.0,T,079.0,M,19.1,N,9.8,M*73
$CCVDR,333.0,T,323.0,M,0.27,N*0D
$IIVHW,,,221,M,06.1,N,,*62
$IIVLW,03013,N,012.3,N*52
$CCMWV,218.0,T,019.1,N,A*39
$CCVWT,141.5,L,19.1,N,9.8,M,35.3,K*5D
$CCMWD,089.0,T,079.0,M,19.1,N,9.8,M*73
$CCVDR,333.0,T,323.0,M,0.27,N*0D
$IIVWR,123,L,15.0,N,,,,*7B
$IIGLL,0906.539,S,14012.600,W,220816,A,A*50
$CCMWV,221.0,T,019.8,N,A*3A
$CCVWT,138.9,L,19.8,N,10.2,M,36.8,K*6C
$CCMWD,082.0,T,082.0,M,19.8,N,10.2,M*47
$CCVDR,333.0,T,333.0,M,0.27,N*0C
$IIHDG,221,,,10,E*12
$IIMTW,+26.5,C*39
$CCMWV,223.0,T,020.0,N,A*3A
$CCVWT,137.2,L,20.0,N,10.3,M,37.0,K*62
$CCMWD,083.0,T,083.0,M,20.0,N,10.3,M*44
$CCVDR,275.0,T,275.0,M,0.44,N*09
$IIMWV,239,R,15.3,N,A*1C
$CCMWV,223.0,T,020.0,N,A*3A
$CCVWT,137.2,L,20.0,N,10.3,M,37.0,K*62
$CCMWD,083.0,T,083.0,M,20.0,N,10.3,M*44
$CCVDR,275.0,T,275.0,M,0.44,N*09
$IIMWV,221,T,19.0,N,A*1C
$IIRMB,A,3.00,R,,RANGI   ,,,,,561.70,230,06.3,V,A*06
$CCMWV,221.0,T,018.7,N,A*34
$CCVWT,139.1,L,18.7,N,9.6,M,34.6,K*5B
$CCMWD,091.0,T,081.0,M,18.7,N,9.6,M*74
$CCVDR,275.0,T,265.0,M,0.44,N*08
$IIRMC,220816,A,0906.539,S,14012.600,W,06.3,223,211110,10,E,A*09
$CCMWV,221.0,T,018.7,N,A*34
$CCVWT,139.1,L,18.7,N,9.6,M,34.6,K*5B
$CCMWD,091.0,T,081.0,M,18.7,N,9.6,M*74
$CCVDR,275.0,T,265.0,M,0.44,N*08
$IIVHW,,,221,M,06.5,N,,*66
$IIVLW,03013,N,012.3,N*52
$CCMWV,221.0,T,019.1,N,A*33
$CCVWT,138.7,L,19.1,N,9.8,M,35.3,K*51
$CCMWD,092.0,T,082.0,M,19.1,N,9.8,M*7D
$CCVDR,275.0,T,265.0,M,0.44,N*08
$IIVWR,121,L,15.7,N,,,,*7E
$IIDPT,001.0,+0.7,*41
$IIGLL,0906.540,S,14012.600,W,220816,A,A*5E
$CCMWV,225.0,T,020.1,N,A*3D
$CCVWT,135.5,L,20.1,N,10.4,M,37.3,K*62
$CCMWD,081.0,T,081.0,M,20.1,N,10.4,M*42
$CCVDR,275.0,T,275.0,M,0.44,N*09
$IIHDG,217,,,10,E*17
$IIMTW,+26.5,C*39
$CCMWV,225.0,T,020.1,N,A*3D
$CCVWT,135.5,L,20.1,N,10.4,M,37.3,K*62
$CCMWD,081.0,T,081.0,M,20.1,N,10.4,M*42
$CCVDR,275.0,T,275.0,M,0.44,N*09
$IIMWV,239,R,15.7,N,A*18
$CCMWV,225.0,T,020.1,N,A*3D
$CCVWT,135.5,L,20.1,N,10.4,M,37.3,K*62
$CCMWD,081.0,T,081.0,M,20.1,N,10.4,M*42
$CCVDR,275.0,T,275.0,M,0.44,N*09
$IIMWV,222,T,19.4,N,A*1B
$CCMWV,222.0,T,019.4,N,A*35
$CCVWT,137.8,L,19.4,N,10.0,M,35.9,K*6E
