$BMXDR,H,34.1,P,0,C,41.4,C,1,P,101816,P,2*62
$BMMDA,30.066,I,1.018,B,41.4,C,,,34.1,,,,,,,,,,,*33
$BMMTA,41.4,C*0B
$BMMMB,30.0698,I,1.0182,B*78
$GPVTG,,T,,M,0.147,N,0.272,K,D*23
$GPGGA,191912.00,3731.73634,N,12215.97937,W,2,06,1.96,13.2,M,-30.0,M,,0000*5D
$GPGSA,A,3,05,18,13,51,29,15,,,,,,,4.15,1.96,3.65*09
$GPGSV,4,1,13,05,37,047,11,10,15,216,,13,21,081,23,15,34,115,21*70
$GPGSV,4,2,13,16,17,318,08,18,60,309,23,20,05,046,,23,47,213,*7D
$GPGSV,4,3,13,25,16,185,,26,33,288,08,29,67,107,18,46,46,191,*72
$GPGSV,4,4,13,51,44,156,30*4E
$GPGLL,3731.73634,N,12215.97937,W,191912.00,A,D*78
$GPRMC,191913.00,A,3731.73642,N,12215.97937,W,0.061,,050821,,,D*68
$GPVTG,,T,,M,0.061,N,0.112,K,D*23
$GPGGA,191913.00,3731.73642,N,12215.97937,W,2,06,1.96,13.2,M,-30.0,M,,0000*5D
$GPGSA,A,3,05,18,13,51,29,15,,,,,,,4.15,1.96,3.66*0A
$GPGSV,4,1,13,05,37,047,11,10,15,216,,13,21,081,24,15,34,115,20*76
$GPGSV,4,2,13,16,17,318,08,18,60,309,24,20,05,046,,23,47,213,*7A
$GPGSV,4,3,13,25,16,185,,26,33,288,,29,67,107,18,46,46,191,*7A
$GPGSV,4,4,13,51,44,156,31*4F
$GPGLL,3731.73642,N,12215.97937,W,191913.00,A,D*78
$BMXDR,H,34.1,P,0,C,41.5,C,1,P,101824,P,2*62
$BMMDA,30.069,I,1.018,B,41.5,C,,,34.1,,,,,,,,,,,*3D
$BMMTA,41.5,C*0A
$BMMMB,30.0722,I,1.0182,B*78
$GPRMC,191914.00,A,3731.73645,N,12215.97952,W,0.094,,050821,,,D*61
$GPVTG,,T,,M,0.094,N,0.173,K,D*2E
$GPGGA,191914.00,3731.73645,N,12215.97952,W,2,07,1.33,12.9,M,-30.0,M,,0000*5A
$GPGSA,A,3,05,18,13,51,29,15,16,,,,,,2.34,1.33,1.93*0F
$GPGSV,4,1,13,05,37,047,07,10,15,216,,13,21,081,24,15,34,115,19*7B
$GPGSV,4,2,13,16,17,318,08,18,60,309,25,20,05,046,,23,47,213,15*7F
$GPGSV,4,3,13,25,16,185,,26,33,288,,29,67,107,18,46,46,191,*7A
$GPGSV,4,4,13,51,44,156,31*4F
$GPGLL,3731.73645,N,12215.97952,W,191914.00,A,D*7B
$BMXDR,H,34.1,P,0,C,41.5,C,1,P,101829,P,2*6F
$BMMDA,30.070,I,1.018,B,41.5,C,,,34.1,,,,,,,,,,,*35
$BMMTA,41.5,C*0A
$BMMMB,30.0735,I,1.0183,B*7F
$GPRMC,191915.00,A,3731.73647,N,12215.97975,W,0.150,,050821,,,D*6E
$GPVTG,,T,,M,0.150,N,0.278,K,D*2F
$GPGGA,191915.00,3731.73647,N,12215.97975,W,2,06,1.74,12.5,M,-30.0,M,,0000*52
$GPGSA,A,3,18,13,51,29,15,16,,,,,,,2.69,1.74,2.06*0E
$GPGSV,4,1,13,05,37,047,06,10,15,216,,13,21,081,23,15,34,115,18*7C
$GPGSV,4,2,13,16,17,318,08,18,60,309,23,20,05,046,,23,47,213,11*7D
$GPGSV,4,3,13,25,16,185,,26,33,288,,29,67,107,17,46,46,191,*75
$GPGSV,4,4,13,51,44,156,30*4E
$GPGLL,3731.73647,N,12215.97975,W,191915.00,A,D*7D
$BMXDR,H,34.1,P,0,C,41.5,C,1,P,101827,P,2*61
$BMMDA,30.069,I,1.018,B,41.5,C,,,34.1,,,,,,,,,,,*3D
$BMMTA,41.5,C*0A
$BMMMB,30.0729,I,1.0183,B*72
$GPRMC,191916.00,A,3731.73630,N,12215.98020,W,0.456,,050821,,,D*68
$GPVTG,,T,,M,0.456,N,0.845,K,D*28
$GPGGA,191916.00,3731.73630,N,12215.98020,W,2,06,1.74,12.3,M,-30.0,M,,0000*51
$GPGSA,A,3,18,13,51,29,15,16,,,,,,,2.69,1.74,2.06*0E
$GPGSV,4,1,13,05,37,047,07,10,15,216,,13,21,081,23,15,34,115,20*76
$GPGSV,4,2,13,16,17,318,07,18,60,309,23,20,05,046,,23,47,213,08*7A
$GPGSV,4,3,13,25,16,185,,26,33,288,,29,67,107,18,46,46,191,*7A
$GPGSV,4,4,13,51,44,156,30*4E
$GPGLL,3731.73630,N,12215.98020,W,191916.00,A,D*78
$BMXDR,H,34.0,P,0,C,41.5,C,1,P,101821,P,2*66
$BMMDA,30.068,I,1.018,B,41.5,C,,,34.0,,,,,,,,,,,*3D
$BMMTA,41.5,C*0A
$BMMMB,30.0712,I,1.0182,B*7B
$GPRMC,191917.00,A,3731.73611,N,12215.98055,W,0.576,,050821,,,D*6B
$GPVTG,,T,,M,0.576,N,1.066,K,D*23
$GPGGA,191917.00,3731.73611,N,12215.98055,W,2,06,1.74,11.9,M,-30.0,M,,0000*58
$GPGSA,A,3,18,13,51,29,15,16,,,,,,,2.69,1.74,2.06*0E
$GPGSV,4,1,13,05,37,047,07,10,15,216,,13,21,081,23,15,34,115,20*76
$GPGSV,4,2,13,16,17,318,07,18,60,309,23,20,05,046,,23,47,213,08*7A
$GPGSV,4,3,13,25,16,185,,26,33,288,,29,67,107,18,46,46,191,*7A
$GPGSV,4,4,13,51,44,156,30*4E
$GPGLL,3731.73611,N,12215.98055,W,191917.00,A,D*78
$BMXDR,H,34.0,P,0,C,41.5,C,1,P,101826,P,2*61
$BMMDA,30.069,I,1.018,B,41.5,C,,,34.0,,,,,,,,,,,*3C
$BMMTA,41.5,C*0A
$BMMMB,30.0727,I,1.0183,B*7C
$GPRMC,191918.00,A,3731.73601,N,12215.98080,W,0.526,,050821,,,D*68
$GPVTG,,T,,M,0.526,N,0.974,K,D*2D
$GPGGA,191918.00,3731.73601,N,12215.98080,W,2,06,1.73,11.7,M,-30.0,M,,0000*57
$GPGSA,A,3,18,13,51,29,15,16,,,,,,,2.69,1.73,2.06*09
$GPGSV,4,1,13,05,37,047,07,10,15,216,,13,21,081,23,15,34,115,21*77
$GPGSV,4,2,13,16,17,318,07,18,60,309,23,20,05,046,,23,47,213,08*7A
$GPGSV,4,3,13,25,16,185,,26,33,288,,29,67,107,18,46,46,191,*7A
$GPGSV,4,4,13,51,44,156,30*4E
$GPGLL,3731.73601,N,12215.98080,W,191918.00,A,D*7E
$BMXDR,H,34.0,P,0,C,41.5,C,1,P,101828,P,2*6F
$BMMDA,30.070,I,1.018,B,41.5,C,,,34.0,,,,,,,,,,,*34
$BMMTA,41.5,C*0A
$BMMMB,30.0731,I,1.0183,B*7B
$GPRMC,191919.00,A,3731.73590,N,12215.98101,W,0.503,,050821,,,D*6D
$GPVTG,,T,,M,0.503,N,0.932,K,D*28
$GPGGA,191919.00,3731.73590,N,12215.98101,W,2,06,1.73,11.5,M,-30.0,M,,0000*57
$GPGSA,A,3,18,13,51,29,15,16,,,,,,,2.69,1.73,2.06*09
$GPGSV,4,1,13,05,37,047,07,10,15,216,,13,21,081,23,15,34,115,21*77
$GPGSV,4,2,13,16,17,318,07,18,60,309,23,20,05,046,,23,47,213,08*7A
$GPGSV,4,3,13,25,16,185,,26,33,288,,29,67,107,16,46,46,191,*74
$GPGSV,4,4,13,51,44,156,30*4E
$GPGLL,3731.73590,N,12215.98101,W,191919.00,A,D*7C
$BMXDR,H,34.1,P,0,C,41.5,C,1,P,101828,P,2*6E
$BMMDA,30.070,I,1.018,B,41.5,C,,,34.1,,,,,,,,,,,*35
$BMMTA,41.5,C*0A
$BMMMB,30.0733,I,1.0183,B*79
$GPRMC,191920.00,A,3731.73580,N,12215.98117,W,0.506,,050821,,,D*64
$GPVTG,,T,,M,0.506,N,0.937,K,D*28
$GPGGA,191920.00,3731.73580,N,12215.98117,W,2,06,1.73,11.2,M,-30.0,M,,0000*5C
$GPGSA,A,3,18,13,51,29,15,16,,,,,,,2.69,1.73,2.06*09
$GPGSV,4,1,13,05,36,047,09,10,15,216,,13,21,081,23,15,34,115,21*78
$GPGSV,4,2,13,16,17,318,09,18,60,309,22,20,05,046,,23,47,213,13*7F
$GPGSV,4,3,13,25,16,185,,26,33,288,,29,67,107,16,46,46,191,*74
$GPGSV,4,4,13,51,44,156,30*4E
$GPGLL,3731.73580,N,12215.98117,W,191920.00,A,D*70
$BMXDR,H,34.2,P,0,C,41.5,C,1,P,101825,P,2*60
$BMMDA,30.069,I,1.018,B,41.5,C,,,34.2,,,,,,,,,,,*3E
$BMMTA,41.5,C*0A
$BMMMB,30.0723,I,1.0182,B*79
$GPRMC,191921.00,A,3731.73565,N,12215.98152,W,0.698,,050821,,,D*6B
$GPVTG,,T,,M,0.698,N,1.293,K,D*28
$GPGGA,191921.00,3731.73565,N,12215.98152,W,2,06,1.73,10.8,M,-30.0,M,,0000*5C
$GPGSA,A,3,18,13,51,29,15,16,,,,,,,2.69,1.73,2.06*09
$GPGSV,4,1,13,05,36,047,10,10,15,216,,13,21,081,24,15,34,115,21*77
$GPGSV,4,2,13,16,17,318,09,18,60,309,23,20,05,046,,23,47,213,14*79
$GPGSV,4,3,13,25,16,185,,26,33,288,,29,67,107,17,46,46,191,*75
$GPGSV,4,4,13,51,44,156,31*4F
$GPGLL,3731.73565,N,12215.98152,W,191921.00,A,D*7B
$GPRMC,191922.00,A,3731.73554,N,12215.98153,W,0.450,,050821,,,D*6D
$GPVTG,,T,,M,0.450,N,0.834,K,D*28
$GPGGA,191922.00,3731.73554,N,12215.98153,W,2,07,1.33,10.5,M,-30.0,M,,0000*54
$GPGSA,A,3,05,18,13,51,29,15,16,,,,,,2.34,1.33,1.93*0F
$GPGSV,4,1,13,05,36,047,11,10,15,216,,13,21,081,25,15,34,115,22*74
$GPGSV,4,2,13,16,17,318,10,18,60,309,24,20,05,046,,23,47,213,14*76
$GPGSV,4,3,13,25,16,185,,26,33,288,,29,67,107,19,46,46,191,*7B
$GPGSV,4,4,13,51,44,156,32*4C
$GPGLL,3731.73554,N,12215.98153,W,191922.00,A,D*7B
$BMXDR,H,34.2,P,0,C,41.5,C,1,P,101824,P,2*61
$BMMDA,30.069,I,1.018,B,41.5,C,,,34.2,,,,,,,,,,,*3E
$BMMTA,41.5,C*0A
$BMMMB,30.0721,I,1.0182,B*7B
$GPRMC,191923.00,A,3731.73537,N,12215.98163,W,0.446,,050821,,,D*6D
$GPVTG,,T,,M,0.446,N,0.827,K,D*2D
$GPGGA,191923.00,3731.73537,N,12215.98163,W,2,07,1.33,10.0,M,-30.0,M,,0000*56
$GPGSA,A,3,05,18,13,51,29,15,16,,,,,,2.34,1.33,1.93*0F
$GPGSV,4,1,13,05,36,047,11,10,15,216,,13,21,081,25,15,34,115,22*74
$GPGSV,4,2,13,16,17,318,10,18,60,309,25,20,05,046,,23,47,213,14*77
$GPGSV,4,3,13,25,16,185,,26,33,288,,29,67,107,19,46,46,191,*7B
$GPGSV,4,4,13,51,44,156,32*4C
$GPGLL,3731.73537,N,12215.98163,W,191923.00,A,D*7C
$BMXDR,H,34.2,P,0,C,41.5,C,1,P,101824,P,2*61
$BMMDA,30.069,I,1.018,B,41.5,C,,,34.2,,,,,,,,,,,*3E
$BMMTA,41.5,C*0A
$BMMMB,30.0722,I,1.0182,B*78
$GPRMC,191924.00,A,3731.73508,N,12215.98162,W,0.450,,050821,,,D*60
$GPVTG,,T,,M,0.450,N,0.833,K,D*2F
$GPGGA,191924.00,3731.73508,N,12215.98162,W,2,07,1.33,9.3,M,-30.0,M,,0000*67
$GPGSA,A,3,05,18,13,51,29,15,16,,,,,,2.34,1.33,1.93*0F
$GPGSV,4,1,13,05,36,047,11,10,15,216,26,13,21,081,25,15,34,115,22*70
$GPGSV,4,2,13,16,17,318,10,18,60,309,25,20,05,046,,23,47,213,14*77
$GPGSV,4,3,13,25,16,185,,26,33,288,,29,67,107,18,46,46,191,*7A
$GPGSV,4,4,13,51,44,156,32*4C
$GPGLL,3731.73508,N,12215.98162,W,191924.00,A,D*76
$BMXDR,H,34.3,P,0,C,41.5,C,1,P,101825,P,2*61
$BMMDA,30.069,I,1.018,B,41.5,C,,,34.3,,,,,,,,,,,*3F
$BMMTA,41.5,C*0A
$BMMMB,30.0723,I,1.0182,B*79
$GPRMC,191925.00,A,3731.73490,N,12215.98163,W,0.439,,050821,,,D*6F
$GPVTG,,T,,M,0.439,N,0.814,K,D*25
$GPGGA,191925.00,3731.73490,N,12215.98163,W,2,07,1.33,9.1,M,-30.0,M,,0000*65
$GPGSA,A,3,05,18,13,51,29,15,16,,,,,,2.35,1.33,1.93*0E
$GPGSV,4,1,13,05,36,047,11,10,15,217,21,13,21,081,26,15,34,115,22*75
$GPGSV,4,2,13,16,17,318,10,18,60,309,25,20,05,046,,23,47,213,14*77
$GPGSV,4,3,13,25,16,185,,26,33,288,,29,67,107,19,46,46,191,*7B
$GPGSV,4,4,13,51,44,156,32*4C
$GPGLL,3731.73490,N,12215.98163,W,191925.00,A,D*76
$BMXDR,H,34.4,P,0,C,41.5,C,1,P,101826,P,2*65
$BMMDA,30.069,I,1.018,B,41.5,C,,,34.4,,,,,,,,,,,*38
$BMMTA,41.5,C*0A
$BMMMB,30.0726,I,1.0183,B*7D
$GPRMC,191926.00,A,3731.73469,N,12215.98153,W,0.554,,050821,,,D*63
$GPVTG,,T,,M,0.554,N,1.025,K,D*24
$GPGGA,191926.00,3731.73469,N,12215.98153,W,2,07,1.33,9.0,M,-30.0,M,,0000*62
$GPGSA,A,3,05,18,13,51,29,15,16,,,,,,2.35,1.33,1.94*09
$GPGSV,4,1,13,05,36,047,10,10,15,217,18,13,21,081,25,15,34,115,22*7D
$GPGSV,4,2,13,16,17,318,12,18,60,309,25,20,05,046,,23,47,213,17*76
$GPGSV,4,3,13,25,16,185,,26,33,288,,29,67,107,19,46,46,191,*7B
$GPGSV,4,4,13,51,44,156,31*4F
$GPGLL,3731.73469,N,12215.98153,W,191926.00,A,D*70
$BMXDR,H,34.5,P,0,C,41.5,C,1,P,101827,P,2*65
$BMMDA,30.070,I,1.018,B,41.5,C,,,34.5,,,,,,,,,,,*31
$BMMTA,41.5,C*0A
$BMMMB,30.0731,I,1.0183,B*7B
$GPRMC,191927.00,A,3731.73448,N,12215.98145,W,0.532,,050821,,,D*66
$GPVTG,,T,,M,0.532,N,0.986,K,D*25
$GPGGA,191927.00,3731.73448,N,12215.98145,W,2,07,1.33,9.1,M,-30.0,M,,0000*66
$GPGSA,A,3,05,18,13,51,29,15,16,,,,,,2.35,1.33,1.94*09
$GPGSV,4,1,13,05,36,047,08,10,15,217,08,13,21,081,23,15,34,115,21*70
$GPGSV,4,2,13,16,17,318,10,18,60,309,23,20,05,046,,23,47,213,15*70
$GPGSV,4,3,13,25,16,185,06,26,33,288,,29,67,107,17,46,46,191,*73
$GPGSV,4,4,13,51,44,156,30*4E
$GPGLL,3731.73448,N,12215.98145,W,191927.00,A,D*75
$BMXDR,H,34.5,P,0,C,41.5,C,1,P,101823,P,2*61
$BMMDA,30.068,I,1.018,B,41.5,C,,,34.5,,,,,,,,,,,*38
$BMMTA,41.5,C*0A
$BMMMB,30.0719,I,1.0182,B*70
$GPRMC,191928.00,A,3731.73431,N,12215.98138,W,0.463,,050821,,,D*68
$GPVTG,,T,,M,0.463,N,0.858,K,D*22
$GPGGA,191928.00,3731.73431,N,12215.98138,W,2,07,1.33,8.9,M,-30.0,M,,0000*64
$GPGSA,A,3,05,18,13,51,29,15,16,,,,,,2.35,1.33,1.94*09
$GPGSV,4,1,13,05,36,047,08,10,15,217,06,13,21,081,23,15,34,115,21*7E
$GPGSV,4,2,13,16,17,318,11,18,60,309,23,20,05,046,,23,47,213,15*71
$GPGSV,4,3,13,25,16,185,,26,33,288,,29,67,107,17,46,46,191,*75
$GPGSV,4,4,13,51,44,156,30*4E
$GPGLL,3731.73431,N,12215.98138,W,191928.00,A,D*7E
$BMXDR,H,34.5,P,0,C,41.5,C,1,P,101825,P,2*67
$BMMDA,30.069,I,1.018,B,41.5,C,,,34.5,,,,,,,,,,,*39
$BMMTA,41.5,C*0A
$BMMMB,30.0723,I,1.0182,B*79
$GPRMC,191929.00,A,3731.73408,N,12215.98144,W,0.407,,050821,,,D*6A
$GPVTG,,T,,M,0.407,N,0.753,K,D*24
$GPGGA,191929.00,3731.73408,N,12215.98144,W,2,07,1.33,8.8,M,-30.0,M,,0000*65
$GPGSA,A,3,05,18,13,51,29,15,16,,,,,,2.35,1.33,1.94*09
$GPGSV,4,1,13,05,36,047,09,10,15,217,07,13,21,081,24,15,34,115,22*7A
$GPGSV,4,2,13,16,17,318,11,18,60,309,23,20,05,046,,23,47,213,16*72
$GPGSV,4,3,13,25,16,185,,26,33,288,,29,67,107,18,46,46,191,*7A
$GPGSV,4,4,13,51,44,156,30*4E
$GPGLL,3731.73408,N,12215.98144,W,191929.00,A,D*7E
$BMXDR,H,34.4,P,0,C,41.4,C,1,P,101824,P,2*66
$BMMDA,30.069,I,1.018,B,41.4,C,,,34.4,,,,,,,,,,,*39
$BMMTA,41.4,C*0B
$BMMMB,30.0721,I,1.0182,B*7B
$GPRMC,191930.00,A,3731.73394,N,12215.98130,W,0.394,,050821,,,D*6E
$GPVTG,,T,,M,0.394,N,0.729,K,D*24
$GPGGA,191930.00,3731.73394,N,12215.98130,W,2,07,1.33,8.9,M,-30.0,M,,0000*6D
$GPGSA,A,3,05,18,13,51,29,15,16,,,,,,2.35,1.33,1.94*09
$GPGSV,4,1,13,05,36,047,08,10,15,217,06,13,21,081,24,15,34,115,23*7B
$GPGSV,4,2,13,16,17,318,10,18,60,309,22,20,05,046,,23,47,213,15*71
$GPGSV,4,3,13,25,16,185,,26,33,288,,29,67,107,17,46,46,191,*75
$GPGSV,4,4,13,51,44,156,30*4E
$GPGLL,3731.73394,N,12215.98130,W,191930.00,A,D*77
$GPRMC,191931.00,A,3731.73392,N,12215.98119,W,0.386,,050821,,,D*61
$BMXDR,H,34.4,P,0,C,41.4,C,1,P,101824,P,2*66
$GPVTG,,T,,M,0.386,N,0.716,K,D*2B
$BMMDA,30.069,I,1.018,B,41.4,C,,,34.4,,,,,,,,,,,*39
$GPGGA,191931.00,3731.73392,N,12215.98119,W,2,07,1.33,8.8,M,-30.0,M,,0000*60
$BMMTA,41.4,C*0B
$GPGSA,A,3,05,18,13,51,29,15,16,,,,,,2.35,1.33,1.94*09
$BMMMB,30.0721,I,1.0182,B*7B
$GPGSV,4,1,13,05,36,047,08,10,15,217,,13,21,081,23,15,34,115,23*7A
$GPGSV,4,2,13,16,17,318,11,18,60,309,22,20,05,046,,23,47,213,15*70
$GPGSV,4,3,13,25,16,185,,26,33,288,,29,67,107,17,46,46,191,*75
$GPGSV,4,4,13,51,44,156,30*4E
$GPGLL,3731.73392,N,12215.98119,W,191931.00,A,D*7B
$GPRMC,191932.00,A,3731.73395,N,12215.98117,W,0.176,,050821,,,D*66
$GPVTG,,T,,M,0.176,N,0.326,K,D*21
$GPGGA,191932.00,3731.73395,N,12215.98117,W,2,06,1.73,8.6,M,-30.0,M,,0000*61
$GPGSA,A,3,18,13,51,29,15,16,,,,,,,2.69,1.73,2.06*09
$GPGSV,4,1,13,05,36,047,06,10,15,217,,13,21,081,23,15,34,115,23*74
$GPGSV,4,2,13,16,17,318,07,18,60,309,22,20,05,046,,23,47,213,12*70
$GPGSV,4,3,13,25,16,185,,26,33,288,,29,67,107,18,46,46,191,*7A
$GPGSV,4,4,13,51,44,156,30*4E
$GPGLL,3731.73395,N,12215.98117,W,191932.00,A,D*71
$BMXDR,H,34.3,P,0,C,41.4,C,1,P,101821,P,2*64
$BMMDA,30.068,I,1.018,B,41.4,C,,,34.3,,,,,,,,,,,*3F
$BMMTA,41.4,C*0B
$BMMMB,30.0713,I,1.0182,B*7A
$GPRMC,191933.00,A,3731.73402,N,12215.98112,W,0.170,,050821,,,D*6D
$GPVTG,,T,,M,0.170,N,0.316,K,D*24
$GPGGA,191933.00,3731.73402,N,12215.98112,W,2,06,1.73,8.5,M,-30.0,M,,0000*6F
$GPGSA,A,3,18,13,51,29,15,16,,,,,,,2.69,1.73,2.06*09
$GPGSV,4,1,13,05,36,047,06,10,15,217,,13,21,081,23,15,34,115,23*74
$GPGSV,4,2,13,16,17,318,07,18,60,310,23,20,05,046,,23,47,213,12*79
$GPGSV,4,3,13,25,16,185,,26,33,288,,29,67,107,18,46,46,191,*7A
$GPGSV,4,4,13,51,44,156,30*4E
$GPGLL,3731.73402,N,12215.98112,W,191933.00,A,D*7C
$BMXDR,H,34.4,P,0,C,41.5,C,1,P,101822,P,2*61
$BMMDA,30.068,I,1.018,B,41.5,C,,,34.4,,,,,,,,,,,*39
$BMMTA,41.5,C*0A
$BMMMB,30.0714,I,1.0182,B*7D
$GPRMC,191934.00,A,3731.73410,N,12215.98102,W,0.244,,050821,,,D*6C
$GPVTG,,T,,M,0.244,N,0.452,K,D*27
$GPGGA,191934.00,3731.73410,N,12215.98102,W,2,05,2.25,8.4,M,-30.0,M,,0000*68
$GPGSA,A,3,18,13,51,29,15,,,,,,,,4.34,2.25,3.72*02
$GPGSV,4,1,13,05,36,047,07,10,15,217,,13,21,081,23,15,34,115,23*75
$GPGSV,4,2,13,16,17,318,08,18,60,310,24,20,05,046,,23,47,213,12*71
$GPGSV,4,3,13,25,16,185,,26,33,288,,29,67,107,19,46,46,191,*7B
$GPGSV,4,4,13,51,44,156,31*4F
$GPGLL,3731.73410,N,12215.98102,W,191934.00,A,D*79
$BMXDR,H,34.3,P,0,C,41.5,C,1,P,101830,P,2*65
$BMMDA,30.070,I,1.018,B,41.5,C,,,34.3,,,,,,,,,,,*37
$BMMTA,41.5,C*0A
$BMMMB,30.0738,I,1.0183,B*72
$GPRMC,191935.00,A,3731.73410,N,12215.98101,W,0.197,,050821,,,D*63
$GPVTG,,T,,M,0.197,N,0.364,K,D*28
$GPGGA,191935.00,3731.73410,N,12215.98101,W,2,05,2.25,8.0,M,-30.0,M,,0000*6E
$GPGSA,A,3,18,13,51,29,15,,,,,,,,4.35,2.25,3.72*03
$GPGSV,4,1,13,05,36,047,07,10,15,217,,13,21,081,23,15,34,115,24*72
$GPGSV,4,2,13,16,17,318,08,18,60,310,25,20,05,046,,23,47,213,12*70
$GPGSV,4,3,13,25,16,185,,26,33,288,,29,67,107,18,46,46,191,*7A
$GPGSV,4,4,13,51,44,156,30*4E
$GPGLL,3731.73410,N,12215.98101,W,191935.00,A,D*7B
$BMXDR,H,34.2,P,0,C,41.5,C,1,P,101826,P,2*63
$BMMDA,30.069,I,1.018,B,41.5,C,,,34.2,,,,,,,,,,,*3E
$BMMTA,41.5,C*0A
$BMMMB,30.0726,I,1.0183,B*7D
$GPRMC,191936.00,A,3731.73413,N,12215.98098,W,0.273,,050821,,,D*6B
$GPVTG,,T,,M,0.273,N,0.506,K,D*23
$GPGGA,191936.00,3731.73413,N,12215.98098,W,2,05,2.25,7.9,M,-30.0,M,,0000*69
$GPGSA,A,3,18,13,51,29,15,,,,,,,,4.35,2.25,3.72*03
$GPGSV,4,1,13,05,36,047,07,10,15,217,,13,21,081,24,15,34,115,24*75
$GPGSV,4,2,13,16,17,318,08,18,60,310,25,20,05,046,,23,47,213,12*70
$GPGSV,4,3,13,25,16,185,,26,33,288,,29,67,107,19,46,46,191,*7B
$GPGSV,4,4,13,51,44,156,31*4F
$GPGLL,3731.73413,N,12215.98098,W,191936.00,A,D*7A
$BMXDR,H,34.1,P,0,C,41.5,C,1,P,101829,P,2*6F
$BMMDA,30.070,I,1.018,B,41.5,C,,,34.1,,,,,,,,,,,*35
$BMMTA,41.5,C*0A
$BMMMB,30.0736,I,1.0183,B*7C
$GPRMC,191937.00,A,3731.73429,N,12215.98131,W,0.128,,050821,,,D*6C
$GPVTG,,T,,M,0.128,N,0.238,K,D*24
$GPGGA,191937.00,3731.73429,N,12215.98131,W,2,05,2.25,7.7,M,-30.0,M,,0000*6D
$GPGSA,A,3,18,13,51,29,15,,,,,,,,4.35,2.25,3.72*03
$GPGSV,4,1,14,05,36,047,07,10,15,217,,13,21,081,25,15,34,115,24*73
$GPGSV,4,2,14,16,17,318,08,18,60,310,25,20,05,046,,23,47,213,12*77
$GPGSV,4,3,14,25,16,185,,26,33,288,,29,67,107,19,46,46,191,*7C
$GPGSV,4,4,14,48,45,197,29,51,44,156,31*71
$GPGLL,3731.73429,N,12215.98131,W,191937.00,A,D*70
$BMXDR,H,34.1,P,0,C,41.5,C,1,P,101832,P,2*65
$BMMDA,30.071,I,1.018,B,41.5,C,,,34.1,,,,,,,,,,,*34
$BMMTA,41.5,C*0A
$BMMMB,30.0745,I,1.0183,B*78
$GPRMC,191938.00,A,3731.73438,N,12215.98141,W,0.246,,050821,,,D*6F
$GPVTG,,T,,M,0.246,N,0.455,K,D*22
$GPGGA,191938.00,3731.73438,N,12215.98141,W,2,05,2.25,7.3,M,-30.0,M,,0000*61
$GPGSA,A,3,18,13,51,29,15,,,,,,,,4.35,2.25,3.72*03
$GPGSV,4,1,13,05,36,047,08,10,15,217,18,13,21,081,23,15,34,115,22*72
$GPGSV,4,2,13,16,17,318,14,18,60,310,23,20,05,046,,23,47,213,12*7B
$GPGSV,4,3,13,25,16,185,,26,33,288,,29,67,107,17,46,46,191,*75
$GPGSV,4,4,13,51,44,156,30*4E
$GPGLL,3731.73438,N,12215.98141,W,191938.00,A,D*78
$BMXDR,H,34.1,P,0,C,41.5,C,1,P,101832,P,2*65
$BMMDA,30.071,I,1.018,B,41.5,C,,,34.1,,,,,,,,,,,*34
$BMMTA,41.5,C*0A
$BMMMB,30.0743,I,1.0183,B*7E
$GPRMC,191939.00,A,3731.73451,N,12215.98156,W,0.297,,050821,,,D*6B
$GPVTG,,T,,M,0.297,N,0.550,K,D*2A
$GPGGA,191939.00,3731.73451,N,12215.98156,W,2,05,2.25,7.1,M,-30.0,M,,0000*6B
$GPGSA,A,3,18,13,51,29,15,,,,,,,,4.35,2.25,3.72*03
$GPGSV,4,1,13,05,36,047,08,10,15,217,,13,21,081,23,15,34,115,21*78
$GPGSV,4,2,13,16,17,318,14,18,60,310,23,20,05,046,,23,47,213,12*7B
$GPGSV,4,3,13,25,16,185,,26,33,288,,29,67,107,16,46,46,191,*74
$GPGSV,4,4,13,51,44,156,30*4E
$GPGLL,3731.73451,N,12215.98156,W,191939.00,A,D*70
$GPRMC,191940.00,A,3731.73450,N,12215.98143,W,0.133,,050821,,,D*6D
$GPVTG,,T,,M,0.133,N,0.247,K,D*26
$GPGGA,191940.00,3731.73450,N,12215.98143,W,2,06,1.73,7.1,M,-30.0,M,,0000*63
$BMXDR,H,34.1,P,0,C,41.5,C,1,P,101828,P,2*6E
$GPGSA,A,3,18,13,51,29,15,16,,,,,,,2.70,1.73,2.06*01
$GPGSV,4,1,13,05,36,047,,10,15,217,,13,21,081,24,15,34,115,22*74
$BMMDA,30.070,I,1.018,B,41.5,C,,,34.1,,,,,,,,,,,*35
$GPGSV,4,2,13,16,17,318,14,18,60,310,23,20,05,046,,23,47,213,12*7B
$BMMTA,41.5,C*0A
$GPGSV,4,3,13,25,16,185,,26,33,288,,29,67,107,14,46,46,191,*76
$GPGSV,4,4,13,51,44,156,29*46
$GPGLL,3731.73450,N,12215.98143,W,191940.00,A,D*7B
$BMMMB,30.0731,I,1.0183,B*7B
$GPRMC,191941.00,A,3731.73435,N,12215.98109,W,0.087,,050821,,,D*6F
$GPVTG,,T,,M,0.087,N,0.161,K,D*2F
$GPGGA,191941.00,3731.73435,N,12215.98109,W,2,06,1.73,7.1,M,-30.0,M,,0000*6F
$GPGSA,A,3,18,13,51,29,15,16,,,,,,,2.70,1.73,2.06*01
$GPGSV,4,1,13,05,36,047,,10,15,217,,13,21,081,23,15,34,115,22*73
$GPGSV,4,2,13,16,17,318,14,18,60,310,23,20,05,046,,23,47,213,12*7B
$GPGSV,4,3,13,25,16,185,,26,33,288,,29,67,107,16,46,46,191,*74
$GPGSV,4,4,13,51,44,156,30*4E
$GPGLL,3731.73435,N,12215.98109,W,191941.00,A,D*77
$BMXDR,H,34.3,P,0,C,41.5,C,1,P,101829,P,2*6D
$BMMDA,30.070,I,1.018,B,41.5,C,,,34.3,,,,,,,,,,,*37
$BMMTA,41.5,C*0A
$BMMMB,30.0735,I,1.0183,B*7F
$GPRMC,191942.00,A,3731.73443,N,12215.98124,W,0.211,,050821,,,D*6F
$GPVTG,,T,,M,0.211,N,0.391,K,D*2F
$GPGGA,191942.00,3731.73443,N,12215.98124,W,2,06,1.73,7.3,M,-30.0,M,,0000*60
$GPGSA,A,3,18,13,51,29,15,16,,,,,,,2.70,1.73,2.06*01
$GPGSV,4,1,13,05,36,047,,10,15,217,,13,21,081,23,15,34,115,21*70
$GPGSV,4,2,13,16,17,318,14,18,60,310,23,20,05,046,,23,47,213,12*7B
$GPGSV,4,3,13,25,16,185,,26,33,288,,29,67,107,18,46,46,191,*7A
$GPGSV,4,4,13,51,44,156,30*4E
$GPGLL,3731.73443,N,12215.98124,W,191942.00,A,D*7A
$BMXDR,H,34.3,P,0,C,41.5,C,1,P,101835,P,2*60
$BMMDA,30.072,I,1.018,B,41.5,C,,,34.3,,,,,,,,,,,*35
$BMMTA,41.5,C*0A
$BMMMB,30.0753,I,1.0183,B*7F
$GPRMC,191943.00,A,3731.73434,N,12215.98110,W,0.134,,050821,,,D*6D
$GPVTG,,T,,M,0.134,N,0.247,K,D*21
$GPGGA,191943.00,3731.73434,N,12215.98110,W,2,06,1.73,7.3,M,-30.0,M,,0000*66
$GPGSA,A,3,18,13,51,29,15,16,,,,,,,2.70,1.73,2.06*01
$GPGSV,4,1,13,05,36,047,,10,15,217,,13,21,081,24,15,34,115,22*74
$GPGSV,4,2,13,16,17,318,15,18,60,310,24,20,05,046,,23,47,213,12*7D
$GPGSV,4,3,13,25,16,185,,26,33,288,,29,67,108,19,46,46,191,*74
$GPGSV,4,4,13,51,44,156,31*4F
$GPGLL,3731.73434,N,12215.98110,W,191943.00,A,D*7C
$BMXDR,H,34.1,P,0,C,41.5,C,1,P,101828,P,2*6E
$BMMDA,30.070,I,1.018,B,41.5,C,,,34.1,,,,,,,,,,,*35
$BMMTA,41.5,C*0A
$BMMMB,30.0733,I,1.0183,B*79
$GPRMC,191944.00,A,3731.73431,N,12215.98107,W,0.105,,050821,,,D*6B
$GPVTG,,T,,M,0.105,N,0.195,K,D*2F
$GPGGA,191944.00,3731.73431,N,12215.98107,W,2,06,1.73,7.3,M,-30.0,M,,0000*62
$GPGSA,A,3,18,13,51,29,15,16,,,,,,,2.70,1.73,2.07*00
$GPGSV,4,1,13,05,36,047,05,10,15,217,,13,21,081,24,15,34,115,22*71
$GPGSV,4,2,13,16,17,318,11,18,60,310,25,20,05,046,,23,47,213,16*7C
$GPGSV,4,3,13,25,16,185,,26,33,288,,29,67,108,18,46,46,191,*75
$GPGSV,4,4,13,51,44,156,30*4E
$GPGLL,3731.73431,N,12215.98107,W,191944.00,A,D*78
$BMXDR,H,34.0,P,0,C,41.4,C,1,P,101831,P,2*66
$BMMDA,30.071,I,1.018,B,41.4,C,,,34.0,,,,,,,,,,,*34
$BMMTA,41.4,C*0B
$BMMMB,30.0740,I,1.0183,B*7D
$GPRMC,191945.00,A,3731.73441,N,12215.98122,W,0.196,,050821,,,D*60
$GPVTG,,T,,M,0.196,N,0.362,K,D*2F
$GPGGA,191945.00,3731.73441,N,12215.98122,W,2,06,1.73,7.4,M,-30.0,M,,0000*64
$GPGSA,A,3,18,13,51,29,15,16,,,,,,,2.70,1.73,2.07*00
$GPGSV,4,1,13,05,36,047,07,10,15,217,,13,21,081,25,15,34,115,22*72
$GPGSV,4,2,13,16,17,318,12,18,60,310,25,20,05,046,,23,47,213,17*7E
$GPGSV,4,3,13,25,16,185,,26,33,288,,29,67,108,18,46,46,191,*75
$GPGSV,4,4,13,51,44,156,31*4F
$GPGLL,3731.73441,N,12215.98122,W,191945.00,A,D*79
$BMXDR,H,34.0,P,0,C,41.5,C,1,P,101832,P,2*64
$BMMDA,30.071,I,1.018,B,41.5,C,,,34.0,,,,,,,,,,,*35
$BMMTA,41.5,C*0A
$BMMMB,30.0746,I,1.0183,B*7B
$GPRMC,191946.00,A,3731.73442,N,12215.98130,W,0.237,,050821,,,D*6B
$GPVTG,,T,,M,0.237,N,0.439,K,D*2E
$GPGGA,191946.00,3731.73442,N,12215.98130,W,2,06,1.73,7.4,M,-30.0,M,,0000*67
$GPGSA,A,3,18,13,51,29,15,16,,,,,,,2.70,1.73,2.07*00
$GPGSV,4,1,13,05,36,047,,10,15,217,,13,21,081,25,15,34,115,22*75
$GPGSV,4,2,13,16,17,318,12,18,60,310,24,20,05,046,,23,47,213,17*7F
$GPGSV,4,3,13,25,16,185,,26,33,288,,29,67,108,18,46,46,191,*75
$GPGSV,4,4,13,51,44,156,31*4F
$GPGLL,3731.73442,N,12215.98130,W,191946.00,A,D*7A
$BMXDR,H,34.0,P,0,C,41.5,C,1,P,101829,P,2*6E
$BMMDA,30.070,I,1.018,B,41.5,C,,,34.0,,,,,,,,,,,*34
$BMMTA,41.5,C*0A
$BMMMB,30.0736,I,1.0183,B*7C
$GPRMC,191947.00,A,3731.73421,N,12215.98114,W,0.112,,050821,,,D*6D
$GPVTG,,T,,M,0.112,N,0.207,K,D*21
$GPGGA,191947.00,3731.73421,N,12215.98114,W,2,06,1.73,7.1,M,-30.0,M,,0000*60
$GPGSA,A,3,18,13,51,29,15,16,,,,,,,2.70,1.73,2.07*00
$GPGSV,4,1,13,05,36,047,,10,15,217,,13,21,081,25,15,34,115,23*74
$GPGSV,4,2,13,16,17,318,12,18,60,310,24,20,05,046,,23,47,213,17*7F
$GPGSV,4,3,13,25,16,185,,26,33,288,,29,67,108,19,46,46,191,*74
$GPGSV,4,4,13,51,44,156,31*4F
$GPGLL,3731.73421,N,12215.98114,W,191947.00,A,D*78
$BMXDR,H,34.1,P,0,C,41.5,C,1,P,101829,P,2*6F
$BMMDA,30.070,I,1.018,B,41.5,C,,,34.1,,,,,,,,,,,*35
$BMMTA,41.5,C*0A
$BMMMB,30.0734,I,1.0183,B*7E
$GPRMC,191948.00,A,3731.73419,N,12215.98103,W,0.142,,050821,,,D*6A
$GPVTG,,T,,M,0.142,N,0.263,K,D*26
$GPGGA,191948.00,3731.73419,N,12215.98103,W,2,06,1.73,7.1,M,-30.0,M,,0000*62
$GPGSA,A,3,18,13,51,29,15,16,,,,,,,2.70,1.73,2.07*00
$GPGSV,4,1,13,05,36,047,,10,15,217,,13,21,081,25,15,34,115,23*74
$GPGSV,4,2,13,16,17,318,12,18,60,310,24,20,05,046,,23,47,213,17*7F
$GPGSV,4,3,13,25,16,185,,26,33,288,,29,67,108,19,46,46,191,*74
$GPGSV,4,4,13,51,44,156,31*4F
$GPGLL,3731.73419,N,12215.98103,W,191948.00,A,D*7A
$GPRMC,191949.00,A,3731.73411,N,12215.98112,W,0.221,,050821,,,D*65
$BMXDR,H,34.1,P,0,C,41.5,C,1,P,101828,P,2*6E
$GPVTG,,T,,M,0.221,N,0.409,K,D*2A
$BMMDA,30.070,I,1.018,B,41.5,C,,,34.1,,,,,,,,,,,*35
$GPGGA,191949.00,3731.73411,N,12215.98112,W,2,06,1.73,6.7,M,-30.0,M,,0000*6C
$BMMTA,41.5,C*0A
$GPGSA,A,3,18,13,51,29,15,16,,,,,,,2.70,1.73,2.07*00
$BMMMB,30.0731,I,1.0183,B*7B
$GPGSV,4,1,13,05,36,047,11,10,15,217,,13,21,081,23,15,34,115,21*70
$GPGSV,4,2,13,16,17,318,11,18,60,310,23,20,05,046,,23,47,213,15*79
$GPGSV,4,3,13,25,16,185,,26,33,288,12,29,67,108,17,46,46,191,*79
$GPGSV,4,4,13,51,44,156,30*4E
$GPGLL,3731.73411,N,12215.98112,W,191949.00,A,D*73
$GPRMC,191950.00,A,3731.73407,N,12215.98122,W,0.319,,050821,,,D*63
$GPVTG,,T,,M,0.319,N,0.591,K,D*20
$GPGGA,191950.00,3731.73407,N,12215.98122,W,2,06,1.73,6.5,M,-30.0,M,,0000*62
$GPGSA,A,3,18,13,51,29,15,16,,,,,,,2.70,1.73,2.07*00
$GPGSV,4,1,13,05,36,047,12,10,15,217,,13,21,081,23,15,34,115,22*70
$GPGSV,4,2,13,16,17,318,09,18,60,310,23,20,05,046,,23,47,213,10*75
$GPGSV,4,3,13,25,16,185,,26,33,288,09,29,67,108,17,46,46,191,*73
$GPGSV,4,4,13,51,44,156,30*4E
$GPGLL,3731.73407,N,12215.98122,W,191950.00,A,D*7F
$BMXDR,H,34.1,P,0,C,41.4,C,1,P,101827,P,2*60
$BMMDA,30.069,I,1.018,B,41.4,C,,,34.1,,,,,,,,,,,*3C
$BMMTA,41.4,C*0B
$BMMMB,30.0729,I,1.0183,B*72
$GPRMC,191951.00,A,3731.73414,N,12215.98116,W,0.090,,050821,,,D*65
$GPVTG,,T,,M,0.090,N,0.166,K,D*2E
$GPGGA,191951.00,3731.73414,N,12215.98116,W,2,06,1.73,6.5,M,-30.0,M,,0000*66
$GPGSA,A,3,18,13,51,29,15,16,,,,,,,2.70,1.73,2.07*00
$GPGSV,4,1,13,05,36,047,10,10,15,217,,13,21,081,22,15,34,115,21*70
$GPGSV,4,2,13,16,17,318,09,18,60,310,23,20,05,046,,23,47,213,10*75
$GPGSV,4,3,13,25,16,185,,26,33,288,07,29,67,108,16,46,46,191,*7C
$GPGSV,4,4,13,51,44,156,30*4E
$GPGLL,3731.73414,N,12215.98116,W,191951.00,A,D*7B
$BMXDR,H,34.2,P,0,C,41.5,C,1,P,101828,P,2*6D
$BMMDA,30.070,I,1.018,B,41.5,C,,,34.2,,,,,,,,,,,*36
$BMMTA,41.5,C*0A
$BMMMB,30.0733,I,1.0183,B*79
$GPRMC,191952.00,A,3731.73407,N,12215.98121,W,0.146,,050821,,,D*6A
$GPVTG,,T,,M,0.146,N,0.270,K,D*20
$GPGGA,191952.00,3731.73407,N,12215.98121,W,2,06,1.73,6.4,M,-30.0,M,,0000*62
$GPGSA,A,3,18,13,51,29,15,16,,,,,,,2.70,1.73,2.07*00
$GPGSV,4,1,13,05,36,047,09,10,15,217,,13,21,081,21,15,34,115,21*7B
$GPGSV,4,2,13,16,17,318,09,18,60,310,23,20,05,046,,23,47,213,10*75
$GPGSV,4,3,13,25,16,185,,26,33,288,07,29,67,108,15,46,46,191,*7F
$GPGSV,4,4,13,51,44,156,30*4E
$GPGLL,3731.73407,N,12215.98121,W,191952.00,A,D*7E
$BMXDR,H,34.3,P,0,C,41.4,C,1,P,101824,P,2*61
$BMMDA,30.069,I,1.018,B,41.4,C,,,34.3,,,,,,,,,,,*3E
$BMMTA,41.4,C*0B
$BMMMB,30.0721,I,1.0182,B*7B
$GPRMC,191953.00,A,3731.73400,N,12215.98131,W,0.158,,050821,,,D*62
$GPVTG,,T,,M,0.158,N,0.293,K,D*22
$GPGGA,191953.00,3731.73400,N,12215.98131,W,2,06,1.73,6.2,M,-30.0,M,,0000*63
$GPGSA,A,3,18,13,51,29,15,16,,,,,,,2.70,1.73,2.07*00
$GPGSV,4,1,13,05,36,047,09,10,15,217,,13,21,081,22,15,34,115,20*79
$GPGSV,4,2,13,16,17,318,09,18,60,310,23,20,05,046,,23,47,213,10*75
$GPGSV,4,3,13,25,16,185,,26,33,288,07,29,67,108,13,46,46,191,*79
$GPGSV,4,4,13,51,44,156,30*4E
$GPGLL,3731.73400,N,12215.98131,W,191953.00,A,D*79
$BMXDR,H,34.3,P,0,C,41.5,C,1,P,101825,P,2*61
$BMMDA,30.069,I,1.018,B,41.5,C,,,34.3,,,,,,,,,,,*3F
$BMMTA,41.5,C*0A
$BMMMB,30.0723,I,1.0182,B*79
$GPRMC,191954.00,A,3731.73422,N,12215.98119,W,0.126,,050821,,,D*66
$GPVTG,,T,,M,0.126,N,0.234,K,D*26
$GPGGA,191954.00,3731.73422,N,12215.98119,W,2,07,1.33,6.4,M,-30.0,M,,0000*6D
$GPGSA,A,3,05,18,13,51,29,15,16,,,,,,2.35,1.33,1.95*08
$GPGSV,4,1,13,05,36,047,10,10,15,217,,13,21,081,23,15,34,115,22*72
$GPGSV,4,2,13,16,17,318,10,18,60,310,23,20,05,046,,23,47,213,11*7C
$GPGSV,4,3,13,25,16,185,,26,33,288,07,29,67,108,14,46,46,191,*7E
$GPGSV,4,4,13,51,44,156,31*4F
$GPGLL,3731.73422,N,12215.98119,W,191954.00,A,D*74
$BMXDR,H,34.4,P,0,C,41.5,C,1,P,101827,P,2*64
$BMMDA,30.070,I,1.018,B,41.5,C,,,34.4,,,,,,,,,,,*30
$BMMTA,41.5,C*0A
$BMMMB,30.0731,I,1.0183,B*7B
$GPRMC,191955.00,A,3731.73431,N,12215.98142,W,0.356,,050821,,,D*6E
$GPVTG,,T,,M,0.356,N,0.659,K,D*2C
$GPGGA,191955.00,3731.73431,N,12215.98142,W,2,06,1.73,6.5,M,-30.0,M,,0000*64
$GPGSA,A,3,18,13,51,29,15,16,,,,,,,2.70,1.73,2.07*00
$GPGSV,4,1,13,05,36,047,,10,15,217,,13,21,081,23,15,34,115,22*73
$GPGSV,4,2,13,16,17,318,10,18,60,310,23,20,05,046,,23,47,213,11*7C
$GPGSV,4,3,13,25,16,185,,26,33,288,07,29,67,108,15,46,46,191,*7F
$GPGSV,4,4,13,51,44,156,31*4F
$GPGLL,3731.73431,N,12215.98142,W,191955.00,A,D*79
$BMXDR,H,34.5,P,0,C,41.5,C,1,P,101828,P,2*6A
$BMMDA,30.070,I,1.018,B,41.5,C,,,34.5,,,,,,,,,,,*31
$BMMTA,41.5,C*0A
$BMMMB,30.0732,I,1.0183,B*78
$GPRMC,191956.00,A,3731.73452,N,12215.98047,W,0.528,,050821,,,D*63
$GPVTG,,T,,M,0.528,N,0.979,K,D*2E
$GPGGA,191956.00,3731.73452,N,12215.98047,W,2,07,1.55,7.2,M,-30.0,M,,0000*65
$GPGSA,A,3,18,13,51,29,15,26,16,,,,,,2.53,1.55,1.99*05
$GPGSV,4,1,13,05,36,047,,10,15,217,,13,21,081,24,15,34,115,24*72
$GPGSV,4,2,13,16,17,318,14,18,60,310,24,20,05,046,,23,47,213,13*7D
$GPGSV,4,3,13,25,16,185,,26,33,288,08,29,67,108,17,46,46,191,*72
$GPGSV,4,4,13,51,44,156,31*4F
$GPGLL,3731.73452,N,12215.98047,W,191956.00,A,D*7B
$BMXDR,H,34.4,P,0,C,41.4,C,1,P,101828,P,2*6A
$BMMDA,30.070,I,1.018,B,41.4,C,,,34.4,,,,,,,,,,,*31
$BMMTA,41.4,C*0B
$BMMMB,30.0732,I,1.0183,B*78
$GPRMC,191957.00,A,3731.73456,N,12215.97990,W,0.633,,050821,,,D*63
$GPVTG,,T,,M,0.633,N,1.172,K,D*25
$GPGGA,191957.00,3731.73456,N,12215.97990,W,2,07,1.55,7.3,M,-30.0,M,,0000*6D
$GPGSA,A,3,18,13,51,29,15,26,16,,,,,,2.53,1.55,1.99*05
$GPGSV,4,1,13,05,36,047,,10,15,217,,13,21,081,24,15,34,115,24*72
$GPGSV,4,2,13,16,17,318,14,18,60,310,24,20,05,046,,23,47,213,13*7D
$GPGSV,4,3,13,25,16,185,,26,33,288,08,29,67,108,18,46,46,191,*7D
$GPGSV,4,4,13,51,44,156,31*4F
$GPGLL,3731.73456,N,12215.97990,W,191957.00,A,D*72
$GPRMC,191958.00,A,3731.73448,N,12215.97961,W,0.416,,050821,,,D*68
$BMXDR,H,34.3,P,0,C,41.4,C,1,P,101828,P,2*6D
$GPVTG,,T,,M,0.416,N,0.771,K,D*24
$BMMDA,30.070,I,1.018,B,41.4,C,,,34.3,,,,,,,,,,,*36
$GPGGA,191958.00,3731.73448,N,12215.97961,W,2,07,1.55,7.4,M,-30.0,M,,0000*64
$BMMTA,41.4,C*0B
$GPGSA,A,3,18,13,51,29,15,26,16,,,,,,2.53,1.55,2.00*06
$BMMMB,30.0731,I,1.0183,B*7B
$GPGSV,4,1,13,05,36,047,,10,15,217,,13,21,081,22,15,34,115,24*74
$GPGSV,4,2,13,16,17,318,14,18,60,310,24,20,05,046,,23,47,213,13*7D
$GPGSV,4,3,13,25,16,185,,26,33,288,08,29,67,108,18,46,46,191,*7D
$GPGSV,4,4,13,51,44,156,31*4F
$GPGLL,3731.73448,N,12215.97961,W,191958.00,A,D*7C
$GPRMC,191959.00,A,3731.73463,N,12215.97900,W,0.640,,050821,,,D*66
$GPVTG,,T,,M,0.640,N,1.186,K,D*2A
$GPGGA,191959.00,3731.73463,N,12215.97900,W,2,07,1.55,7.7,M,-30.0,M,,0000*68
$GPGSA,A,3,18,13,51,29,15,26,16,,,,,,2.53,1.55,2.00*06
$GPGSV,4,1,13,05,36,047,,10,15,217,,13,21,081,22,15,34,115,23*73
$GPGSV,4,2,13,16,17,318,14,18,60,310,24,20,05,046,,23,47,213,13*7D
$GPGSV,4,3,13,25,16,185,,26,33,288,08,29,67,108,17,46,46,191,*72
$GPGSV,4,4,13,51,44,156,31*4F
$GPGLL,3731.73463,N,12215.97900,W,191959.00,A,D*73
$BMXDR,H,34.3,P,0,C,41.5,C,1,P,101831,P,2*64
$BMMDA,30.071,I,1.018,B,41.5,C,,,34.3,,,,,,,,,,,*36
$BMMTA,41.5,C*0A
$BMMMB,30.0740,I,1.0183,B*7D
$GPRMC,192000.00,A,3731.73478,N,12215.97827,W,0.912,,050821,,,D*66
$GPVTG,,T,,M,0.912,N,1.690,K,D*22
$GPGGA,192000.00,3731.73478,N,12215.97827,W,2,07,1.55,8.1,M,-30.0,M,,0000*69
$GPGSA,A,3,18,13,51,29,15,26,16,,,,,,2.53,1.55,2.00*06
$GPGSV,4,1,13,05,36,047,,10,15,217,,13,21,081,22,15,34,115,20*70
$GPGSV,4,2,13,16,17,318,12,18,60,310,22,20,05,046,,23,47,213,11*7F
$GPGSV,4,3,13,25,16,185,,26,33,288,07,29,67,108,16,46,46,191,*7C
$GPGSV,4,4,13,51,44,156,30*4E
$GPGLL,3731.73478,N,12215.97827,W,192000.00,A,D*7B
$BMXDR,H,34.2,P,0,C,41.5,C,1,P,101832,P,2*66
$BMMDA,30.071,I,1.018,B,41.5,C,,,34.2,,,,,,,,,,,*37
$BMMTA,41.5,C*0A
$BMMMB,30.0743,I,1.0183,B*7E
$GPRMC,192001.00,A,3731.73492,N,12215.97750,W,1.045,,050821,,,D*66
$GPVTG,,T,,M,1.045,N,1.935,K,D*28
$GPGGA,192001.00,3731.73492,N,12215.97750,W,2,07,1.55,8.8,M,-30.0,M,,0000*6A
$GPGSA,A,3,18,13,51,29,15,26,16,,,,,,2.53,1.55,2.00*06
$GPGSV,4,1,13,05,36,047,,10,15,217,,13,21,081,22,15,34,115,22*72
$GPGSV,4,2,13,16,17,318,13,18,60,310,23,20,05,046,,23,47,213,11*7F
$GPGSV,4,3,13,25,16,185,,26,33,288,07,29,67,108,16,46,46,191,*7C
$GPGSV,4,4,13,51,44,156,30*4E
$GPGLL,3731.73492,N,12215.97750,W,192001.00,A,D*71
$BMXDR,H,34.2,P,0,C,41.5,C,1,P,101832,P,2*66
$BMMDA,30.071,I,1.018,B,41.5,C,,,34.2,,,,,,,,,,,*37
$BMMTA,41.5,C*0A
$BMMMB,30.0743,I,1.0183,B*7E
$GPRMC,192002.00,A,3731.73494,N,12215.97731,W,0.945,,050821,,,D*6C
$GPVTG,,T,,M,0.945,N,1.751,K,D*2C
$GPGGA,192002.00,3731.73494,N,12215.97731,W,2,06,1.73,8.9,M,-30.0,M,,0000*6C
$GPGSA,A,3,18,13,51,29,15,16,,,,,,,2.70,1.73,2.07*00
$GPGSV,4,1,13,05,36,047,,10,15,217,,13,21,081,22,15,34,115,21*71
$GPGSV,4,2,13,16,17,318,13,18,60,310,23,20,05,046,,23,47,213,14*7A
$GPGSV,4,3,13,25,16,185,,26,33,288,06,29,67,108,17,46,46,191,*7C
$GPGSV,4,4,13,51,44,156,30*4E
$GPGLL,3731.73494,N,12215.97731,W,192002.00,A,D*73
$BMXDR,H,34.2,P,0,C,41.5,C,1,P,101833,P,2*67
$BMMDA,30.071,I,1.018,B,41.5,C,,,34.2,,,,,,,,,,,*37
$BMMTA,41.5,C*0A
$BMMMB,30.0746,I,1.0183,B*7B
$GPRMC,192003.00,A,3731.73484,N,12215.97707,W,0.980,,050821,,,D*60
$GPVTG,,T,,M,0.980,N,1.815,K,D*2A
$GPGGA,192003.00,3731.73484,N,12215.97707,W,2,06,1.73,9.2,M,-30.0,M,,0000*63
$GPGSA,A,3,18,13,51,29,15,16,,,,,,,2.70,1.73,2.07*00
$GPGSV,4,1,13,05,36,047,,10,15,217,,13,21,081,22,15,34,115,22*72
$GPGSV,4,2,13,16,17,318,13,18,60,310,23,20,05,046,,23,47,213,14*7A
$GPGSV,4,3,13,25,16,185,,26,33,288,06,29,67,108,18,46,46,191,*73
$GPGSV,4,4,13,51,44,156,29*46
$GPGLL,3731.73484,N,12215.97707,W,192003.00,A,D*76
$BMXDR,H,34.3,P,0,C,41.5,C,1,P,101833,P,2*66
$BMMDA,30.071,I,1.018,B,41.5,C,,,34.3,,,,,,,,,,,*36
$BMMTA,41.5,C*0A
$BMMMB,30.0746,I,1.0183,B*7B
$GPRMC,192004.00,A,3731.73491,N,12215.97690,W,0.926,,050821,,,D*60
$GPVTG,,T,,M,0.926,N,1.714,K,D*28
$GPGGA,192004.00,3731.73491,N,12215.97690,W,2,06,1.73,9.8,M,-30.0,M,,0000*65
$GPGSA,A,3,18,13,51,29,15,16,,,,,,,2.70,1.73,2.07*00
$GPGSV,4,1,13,05,36,047,,10,15,217,,13,21,081,22,15,34,115,21*71
$GPGSV,4,2,13,16,17,318,13,18,60,310,22,20,05,046,,23,47,213,14*7B
$GPGSV,4,3,13,25,16,185,,26,33,288,06,29,67,108,15,46,46,191,*7E
$GPGSV,4,4,13,51,44,156,30*4E
$GPGLL,3731.73491,N,12215.97690,W,192004.00,A,D*7A
$BMXDR,H,34.3,P,0,C,41.5,C,1,P,101831,P,2*64
$BMMDA,30.071,I,1.018,B,41.5,C,,,34.3,,,,,,,,,,,*36
$BMMTA,41.5,C*0A
$BMMMB,30.0740,I,1.0183,B*7D
$GPRMC,192005.00,A,3731.73453,N,12215.97719,W,0.425,,050821,,,D*61
$GPVTG,,T,,M,0.425,N,0.787,K,D*2D
$GPGGA,192005.00,3731.73453,N,12215.97719,W,2,06,1.73,10.2,M,-30.0,M,,0000*58
$GPGSA,A,3,18,13,51,29,15,16,,,,,,,2.70,1.73,2.07*00
$GPGSV,4,1,13,05,36,047,,10,15,217,,13,21,081,23,15,34,115,21*70
$GPGSV,4,2,13,16,17,318,13,18,60,310,23,20,05,046,,23,47,213,14*7A
$GPGSV,4,3,13,25,16,185,,26,33,288,07,29,67,108,17,46,46,191,*7D
$GPGSV,4,4,13,51,44,156,31*4F
$GPGLL,3731.73453,N,12215.97719,W,192005.00,A,D*75
$BMXDR,H,34.3,P,0,C,41.5,C,1,P,101828,P,2*6C
$BMMDA,30.070,I,1.018,B,41.5,C,,,34.3,,,,,,,,,,,*37
$BMMTA,41.5,C*0A
$BMMMB,30.0733,I,1.0183,B*79
$GPRMC,192006.00,A,3731.73426,N,12215.97709,W,0.524,,050821,,,D*61
$GPVTG,,T,,M,0.524,N,0.971,K,D*2A
$GPGGA,192006.00,3731.73426,N,12215.97709,W,2,06,1.73,10.4,M,-30.0,M,,0000*5E
$GPGSA,A,3,18,13,51,29,15,16,,,,,,,2.70,1.73,2.07*00
$GPGSV,4,1,13,05,36,047,,10,15,217,,13,21,081,23,15,34,115,22*73
$GPGSV,4,2,13,16,17,318,14,18,60,310,24,20,05,046,,23,47,213,15*7B
$GPGSV,4,3,13,25,16,185,,26,33,288,07,29,67,108,18,46,46,191,*72
$GPGSV,4,4,13,51,44,156,31*4F
$GPGLL,3731.73426,N,12215.97709,W,192006.00,A,D*75
$GPRMC,192007.00,A,3731.73424,N,12215.97699,W,0.615,,050821,,,D*6B
$BMXDR,H,34.2,P,0,C,41.4,C,1,P,101820,P,2*64
$GPVTG,,T,,M,0.615,N,1.138,K,D*2F
$BMMDA,30.067,I,1.018,B,41.4,C,,,34.2,,,,,,,,,,,*31
$GPGGA,192007.00,3731.73424,N,12215.97699,W,2,05,2.26,10.6,M,-30.0,M,,0000*57
$BMMTA,41.4,C*0B
$GPGSA,A,3,18,13,51,29,15,,,,,,,,4.37,2.26,3.74*04
$BMMMB,30.0708,I,1.0182,B*70
$GPGSV,4,1,13,05,36,047,,10,15,217,,13,21,081,25,15,34,115,22*75
$GPGSV,4,2,13,16,17,318,,18,60,310,25,20,05,046,,23,47,213,15*7F
$GPGSV,4,3,13,25,16,185,,26,33,288,,29,67,108,18,46,46,191,*75
$GPGSV,4,4,13,51,44,156,32*4C
$GPGLL,3731.73424,N,12215.97699,W,192007.00,A,D*7E
$GPRMC,192008.00,A,3731.73426,N,12215.97699,W,0.476,,050821,,,D*61
$GPVTG,,T,,M,0.476,N,0.882,K,D*21
$GPGGA,192008.00,3731.73426,N,12215.97699,W,2,05,2.26,10.7,M,-30.0,M,,0000*5B
$GPGSA,A,3,18,13,51,29,15,,,,,,,,4.37,2.26,3.74*04
$GPGSV,4,1,13,05,36,047,,10,15,217,23,13,21,081,25,15,34,115,22*74
$GPGSV,4,2,13,16,17,318,,18,60,310,25,20,05,046,,23,47,213,16*7C
$GPGSV,4,3,13,25,16,185,,26,33,288,,29,67,108,16,46,46,191,*7B
$GPGSV,4,4,13,51,44,156,32*4C
$GPGLL,3731.73426,N,12215.97699,W,192008.00,A,D*73
$BMXDR,H,34.3,P,0,C,41.5,C,1,P,101825,P,2*61
$BMMDA,30.069,I,1.018,B,41.5,C,,,34.3,,,,,,,,,,,*3F
$BMMTA,41.5,C*0A
$BMMMB,30.0725,I,1.0183,B*7E
$GPRMC,192009.00,A,3731.73417,N,12215.97712,W,0.243,,050821,,,D*60
$GPVTG,,T,,M,0.243,N,0.450,K,D*22
$GPGGA,192009.00,3731.73417,N,12215.97712,W,2,05,2.26,10.6,M,-30.0,M,,0000*5B
$GPGSA,A,3,18,13,51,29,15,,,,,,,,4.37,2.26,3.75*05
$GPGSV,4,1,13,05,36,047,12,10,15,217,18,13,21,081,23,15,34,115,21*7A
$GPGSV,4,2,13,16,17,318,,18,60,310,24,20,05,046,,23,47,213,15*7E
$GPGSV,4,3,13,25,16,185,,26,33,288,,29,67,108,13,46,46,191,*7E
$GPGSV,4,4,13,51,44,156,31*4F
$GPGLL,3731.73417,N,12215.97712,W,192009.00,A,D*72
$BMXDR,H,34.3,P,0,C,41.5,C,1,P,101824,P,2*60
$BMMDA,30.069,I,1.018,B,41.5,C,,,34.3,,,,,,,,,,,*3F
$BMMTA,41.5,C*0A
$BMMMB,30.0722,I,1.0182,B*78
$GPRMC,192010.00,A,3731.73424,N,12215.97703,W,0.288,,050821,,,D*6F
$GPVTG,,T,,M,0.288,N,0.534,K,D*26
$GPGGA,192010.00,3731.73424,N,12215.97703,W,2,05,2.26,10.8,M,-30.0,M,,0000*5D
$GPGSA,A,3,18,13,51,29,15,,,,,,,,4.37,2.26,3.75*05
$GPGSV,4,1,13,05,36,047,07,10,15,217,15,13,21,081,22,15,34,115,20*73
$GPGSV,4,2,13,16,17,318,,18,60,310,23,20,05,046,,23,47,213,14*78
$GPGSV,4,3,13,25,16,185,,26,33,288,,29,67,108,12,46,46,191,*7F
$GPGSV,4,4,13,51,44,156,30*4E
$GPGLL,3731.73424,N,12215.97703,W,192010.00,A,D*7A
$BMXDR,H,34.2,P,0,C,41.5,C,1,P,101827,P,2*62
$BMMDA,30.070,I,1.018,B,41.5,C,,,34.2,,,,,,,,,,,*36
$BMMTA,41.5,C*0A
$BMMMB,30.0730,I,1.0183,B*7A
$GPRMC,192011.00,A,3731.73428,N,12215.97709,W,0.278,,050821,,,D*67
$GPVTG,,T,,M,0.278,N,0.515,K,D*2A
$GPGGA,192011.00,3731.73428,N,12215.97709,W,2,05,2.26,10.9,M,-30.0,M,,0000*5B
$GPGSA,A,3,18,13,51,29,15,,,,,,,,4.37,2.26,3.75*05
$GPGSV,4,1,13,05,36,047,07,10,15,217,14,13,21,081,22,15,34,115,20*72
$GPGSV,4,2,13,16,17,318,,18,60,310,23,20,05,046,,23,47,213,14*78
$GPGSV,4,3,13,25,16,185,,26,33,288,,29,67,108,14,46,46,191,*79
$GPGSV,4,4,13,51,44,156,29*46
$GPGLL,3731.73428,N,12215.97709,W,192011.00,A,D*7D
$BMXDR,H,34.2,P,0,C,41.5,C,1,P,101828,P,2*6D
$BMMDA,30.070,I,1.018,B,41.5,C,,,34.2,,,,,,,,,,,*36
$BMMTA,41.5,C*0A
$BMMMB,30.0732,I,1.0183,B*78
$GPRMC,192012.00,A,3731.73435,N,12215.97698,W,0.369,,050821,,,D*60
$GPVTG,,T,,M,0.369,N,0.684,K,D*20
$GPGGA,192012.00,3731.73435,N,12215.97698,W,2,05,2.26,11.1,M,-30.0,M,,0000*54
$GPGSA,A,3,18,13,51,29,15,,,,,,,,4.38,2.26,3.75*0A
$GPGSV,4,1,13,05,36,047,07,10,15,217,14,13,21,081,22,15,34,115,21*73
$GPGSV,4,2,13,16,17,318,,18,60,310,24,20,05,046,,23,47,213,15*7E
$GPGSV,4,3,13,25,16,185,,26,33,288,,29,67,108,15,46,46,191,*78
$GPGSV,4,4,13,51,44,156,30*4E
$GPGLL,3731.73435,N,12215.97698,W,192012.00,A,D*7B
$BMXDR,H,34.2,P,0,C,41.5,C,1,P,101832,P,2*66
$BMMDA,30.071,I,1.018,B,41.5,C,,,34.2,,,,,,,,,,,*37
$BMMTA,41.5,C*0A
$BMMMB,30.0743,I,1.0183,B*7E
$GPRMC,192013.00,A,3731.73448,N,12215.97681,W,0.415,,050821,,,D*6F
$GPVTG,,T,,M,0.415,N,0.768,K,D*2F
$GPGGA,192013.00,3731.73448,N,12215.97681,W,2,05,2.26,11.3,M,-30.0,M,,0000*55
$GPGSA,A,3,18,13,51,29,15,,,,,,,,4.38,2.26,3.75*0A
$GPGSV,4,1,13,05,36,047,,10,15,217,,13,21,081,22,15,34,115,21*71
$GPGSV,4,2,13,16,17,318,,18,60,310,25,20,05,046,,23,47,213,15*7F
$GPGSV,4,3,13,25,16,185,,26,33,288,,29,67,108,18,46,46,191,*75
$GPGSV,4,4,13,51,44,156,30*4E
$GPGLL,3731.73448,N,12215.97681,W,192013.00,A,D*78
$BMXDR,H,34.3,P,0,C,41.4,C,1,P,101827,P,2*62
$BMMDA,30.069,I,1.018,B,41.4,C,,,34.3,,,,,,,,,,,*3E
$BMMTA,41.4,C*0B
$BMMMB,30.0728,I,1.0183,B*73
$GPRMC,192014.00,A,3731.73447,N,12215.97689,W,0.237,,050821,,,D*69
$GPVTG,,T,,M,0.237,N,0.438,K,D*2F
$GPGGA,192014.00,3731.73447,N,12215.97689,W,2,05,2.26,11.5,M,-30.0,M,,0000*53
$GPGSA,A,3,18,13,51,29,15,,,,,,,,4.38,2.26,3.75*0A
$GPGSV,4,1,13,05,36,047,,10,15,217,,13,21,081,22,15,34,114,20*71
$GPGSV,4,2,13,16,17,318,,18,60,310,25,20,05,046,,23,47,213,16*7C
$GPGSV,4,3,13,25,16,185,,26,33,288,,29,67,108,18,46,46,191,*75
$GPGSV,4,4,13,51,44,156,30*4E
$GPGLL,3731.73447,N,12215.97689,W,192014.00,A,D*78
$BMXDR,H,34.4,P,0,C,41.4,C,1,P,101829,P,2*6B
$BMMDA,30.070,I,1.018,B,41.4,C,,,34.4,,,,,,,,,,,*31
$BMMTA,41.4,C*0B
$BMMMB,30.0735,I,1.0183,B*7F
$GPRMC,192015.00,A,3731.73444,N,12215.97702,W,0.164,,050821,,,D*6C
$GPVTG,,T,,M,0.164,N,0.304,K,D*22
$GPGGA,192015.00,3731.73444,N,12215.97702,W,2,05,2.26,11.6,M,-30.0,M,,0000*50
$GPGSA,A,3,18,13,51,29,15,,,,,,,,4.38,2.26,3.75*0A
$GPGSV,4,1,13,05,36,047,,10,15,217,,13,21,081,22,15,34,114,21*70
$GPGSV,4,2,13,16,17,317,,18,60,310,24,20,05,046,,23,47,213,16*72
$GPGSV,4,3,13,25,16,185,,26,33,288,,29,67,108,18,46,46,191,*75
$GPGSV,4,4,13,51,44,156,31*4F
$GPGLL,3731.73444,N,12215.97702,W,192015.00,A,D*78
$GPRMC,192016.00,A,3731.73465,N,12215.97687,W,0.366,,050821,,,D*60
$BMXDR,H,34.4,P,0,C,41.5,C,1,P,101830,P,2*62
$GPVTG,,T,,M,0.366,N,0.678,K,D*2C
$BMMDA,30.070,I,1.018,B,41.5,C,,,34.4,,,,,,,,,,,*30
$GPGGA,192016.00,3731.73465,N,12215.97687,W,2,05,2.26,11.7,M,-30.0,M,,0000*5D
$BMMTA,41.5,C*0A
$GPGSA,A,3,18,13,51,29,15,,,,,,,,4.38,2.26,3.75*0A
$BMMMB,30.0739,I,1.0183,B*73
$GPGSV,4,1,13,05,36,047,07,10,15,217,,13,21,081,22,15,34,114,22*74
$GPGSV,4,2,13,16,17,317,,18,60,310,25,20,05,046,,23,47,213,16*73
$GPGSV,4,3,13,25,16,185,,26,33,288,,29,67,108,19,46,46,191,*74
$GPGSV,4,4,13,51,44,156,31*4F
$GPGLL,3731.73465,N,12215.97687,W,192016.00,A,D*74
$GPRMC,192017.00,A,3731.73477,N,12215.97680,W,0.377,,050821,,,D*65
$GPVTG,,T,,M,0.377,N,0.699,K,D*23
$GPGGA,192017.00,3731.73477,N,12215.97680,W,2,05,2.26,11.8,M,-30.0,M,,0000*57
$GPGSA,A,3,18,13,51,29,15,,,,,,,,4.38,2.26,3.75*0A
$GPGSV,4,1,13,05,36,047,11,10,15,217,,13,21,081,22,15,34,114,23*72
$GPGSV,4,2,13,16,17,317,,18,60,311,25,20,05,046,,23,47,213,16*72
$GPGSV,4,3,13,25,16,185,,26,33,288,,29,67,108,19,46,46,191,*74
$GPGSV,4,4,13,51,44,156,31*4F
$GPGLL,3731.73477,N,12215.97680,W,192017.00,A,D*71
$BMXDR,H,34.4,P,0,C,41.4,C,1,P,101831,P,2*62
$BMMDA,30.071,I,1.018,B,41.4,C,,,34.4,,,,,,,,,,,*30
$BMMTA,41.4,C*0B
$BMMMB,30.0741,I,1.0183,B*7C
$GPRMC,192018.00,A,3731.73485,N,12215.97661,W,0.461,,050821,,,D*68
$GPVTG,,T,,M,0.461,N,0.853,K,D*2B
$GPGGA,192018.00,3731.73485,N,12215.97661,W,2,05,2.26,11.7,M,-30.0,M,,0000*55
$GPGSA,A,3,18,13,51,29,15,,,,,,,,4.38,2.26,3.75*0A
$GPGSV,4,1,13,05,36,047,15,10,15,217,,13,21,081,23,15,34,114,23*77
$GPGSV,4,2,13,16,17,317,,18,60,311,24,20,05,046,,23,47,213,16*73
$GPGSV,4,3,13,25,16,185,,26,33,288,,29,67,108,18,46,46,191,*75
$GPGSV,4,4,13,51,44,156,31*4F
$GPGLL,3731.73485,N,12215.97661,W,192018.00,A,D*7C
$BMXDR,H,34.3,P,0,C,41.4,C,1,P,101830,P,2*64
$BMMDA,30.070,I,1.018,B,41.4,C,,,34.3,,,,,,,,,,,*36
$BMMTA,41.4,C*0B
$BMMMB,30.0739,I,1.0183,B*73
$GPRMC,192019.00,A,3731.73486,N,12215.97664,W,0.319,,050821,,,D*67
$GPVTG,,T,,M,0.319,N,0.591,K,D*20
$GPGGA,192019.00,3731.73486,N,12215.97664,W,2,05,2.26,11.8,M,-30.0,M,,0000*5D
$GPGSA,A,3,18,13,51,29,15,,,,,,,,4.38,2.26,3.75*0A
$GPGSV,4,1,13,05,36,047,14,10,15,217,,13,21,081,23,15,34,114,23*76
$GPGSV,4,2,13,16,17,317,,18,60,311,24,20,05,046,,23,47,213,16*73
$GPGSV,4,3,13,25,16,185,,26,33,288,,29,67,108,18,46,46,191,*75
$GPGSV,4,4,13,51,44,156,30*4E
$GPGLL,3731.73486,N,12215.97664,W,192019.00,A,D*7B
$BMXDR,H,34.3,P,0,C,41.5,C,1,P,101831,P,2*64
$BMMDA,30.071,I,1.018,B,41.5,C,,,34.3,,,,,,,,,,,*36
$BMMTA,41.5,C*0A
$BMMMB,30.0741,I,1.0183,B*7C
$GPRMC,192020.00,A,3731.73494,N,12215.97663,W,0.339,,050821,,,D*6B
$GPVTG,,T,,M,0.339,N,0.629,K,D*22
$GPGGA,192020.00,3731.73494,N,12215.97663,W,2,05,2.26,11.7,M,-30.0,M,,0000*5C
$GPGSA,A,3,18,13,51,29,15,,,,,,,,4.38,2.26,3.75*0A
$GPGSV,4,1,13,05,36,047,10,10,15,217,,13,21,081,22,15,34,114,22*72
$GPGSV,4,2,13,16,17,317,,18,60,311,23,20,05,046,,23,47,213,15*77
$GPGSV,4,3,13,25,16,185,,26,33,288,,29,67,108,16,46,46,191,*7B
$GPGSV,4,4,13,51,44,156,30*4E
$GPGLL,3731.73494,N,12215.97663,W,192020.00,A,D*75
$BMXDR,H,34.3,P,0,C,41.5,C,1,P,101827,P,2*63
$BMMDA,30.070,I,1.018,B,41.5,C,,,34.3,,,,,,,,,,,*37
$BMMTA,41.5,C*0A
$BMMMB,30.0730,I,1.0183,B*7A
$GPRMC,192021.00,A,3731.73499,N,12215.97657,W,0.385,,050821,,,D*67
$GPVTG,,T,,M,0.385,N,0.713,K,D*2D
$GPGGA,192021.00,3731.73499,N,12215.97657,W,2,05,2.26,11.7,M,-30.0,M,,0000*57
$GPGSA,A,3,18,13,51,29,15,,,,,,,,4.38,2.26,3.76*09
$GPGSV,4,1,13,05,36,047,08,10,15,217,,13,21,081,22,15,34,114,22*7B
$GPGSV,4,2,13,16,17,317,,18,60,311,23,20,05,046,,23,47,213,15*77
$GPGSV,4,3,13,25,16,185,,26,33,288,,29,67,108,14,46,46,191,*79
$GPGSV,4,4,13,51,44,156,30*4E
$GPGLL,3731.73499,N,12215.97657,W,192021.00,A,D*7E
$BMXDR,H,34.4,P,0,C,41.4,C,1,P,101827,P,2*65
$BMMDA,30.069,I,1.018,B,41.4,C,,,34.4,,,,,,,,,,,*39
$BMMTA,41.4,C*0B
$BMMMB,30.0728,I,1.0183,B*73
$GPRMC,192022.00,A,3731.73494,N,12215.97670,W,0.309,,050821,,,D*68
$GPVTG,,T,,M,0.309,N,0.573,K,D*2D
$GPGGA,192022.00,3731.73494,N,12215.97670,W,2,05,2.26,11.7,M,-30.0,M,,0000*5C
$GPGSA,A,3,18,13,51,29,15,,,,,,,,4.38,2.26,3.76*09
$GPGSV,4,1,13,05,36,047,08,10,15,217,,13,21,081,23,15,34,114,22*7A
$GPGSV,4,2,13,16,17,317,,18,60,311,24,20,05,046,,23,48,213,15*7F
$GPGSV,4,3,13,25,16,185,,26,33,288,,29,67,108,16,46,46,191,*7B
$GPGSV,4,4,13,51,44,156,30*4E
$GPGLL,3731.73494,N,12215.97670,W,192022.00,A,D*75
$BMXDR,H,34.2,P,0,C,41.4,C,1,P,101825,P,2*61
$BMMDA,30.069,I,1.018,B,41.4,C,,,34.2,,,,,,,,,,,*3F
$BMMTA,41.4,C*0B
$BMMMB,30.0723,I,1.0182,B*79
$GPRMC,192023.00,A,3731.73469,N,12215.97718,W,0.358,,050821,,,D*60
$GPVTG,,T,,M,0.358,N,0.664,K,D*2C
$GPGGA,192023.00,3731.73469,N,12215.97718,W,2,05,2.26,11.6,M,-30.0,M,,0000*51
$GPGSA,A,3,18,13,51,29,15,,,,,,,,4.38,2.26,3.76*09
$GPGSV,4,1,13,05,36,047,08,10,15,217,,13,21,081,23,15,34,114,22*7A
$GPGSV,4,2,13,16,17,317,,18,60,311,24,20,05,046,,23,48,213,15*7F
$GPGSV,4,3,13,25,16,185,,26,33,288,,29,67,108,16,46,46,191,*7B
$GPGSV,4,4,13,51,44,156,30*4E
$GPGLL,3731.73469,N,12215.97718,W,192023.00,A,D*79
$BMXDR,H,34.1,P,0,C,41.5,C,1,P,101827,P,2*61
$BMMDA,30.069,I,1.018,B,41.5,C,,,34.1,,,,,,,,,,,*3D
$BMMTA,41.5,C*0A
$BMMMB,30.0729,I,1.0183,B*72
$GPRMC,192024.00,A,3731.73485,N,12215.97695,W,0.255,,050821,,,D*6D
$GPVTG,,T,,M,0.255,N,0.472,K,D*25
$GPGGA,192024.00,3731.73485,N,12215.97695,W,2,05,2.26,11.5,M,-30.0,M,,0000*53
$GPGSA,A,3,18,13,51,29,15,,,,,,,,4.39,2.26,3.76*08
$GPGSV,4,1,13,05,36,047,08,10,15,217,,13,21,081,23,15,34,114,21*79
$GPGSV,4,2,13,16,17,317,,18,60,311,24,20,05,046,,23,48,213,15*7F
$GPGSV,4,3,13,25,16,185,,26,33,288,,29,67,108,16,46,46,191,*7B
$GPGSV,4,4,13,51,44,156,30*4E
$GPGLL,3731.73485,N,12215.97695,W,192024.00,A,D*78
$BMXDR,H,34.1,P,0,C,41.5,C,1,P,101831,P,2*66
$BMMDA,30.071,I,1.018,B,41.5,C,,,34.1,,,,,,,,,,,*34
$BMMTA,41.5,C*0A
$BMMMB,30.0742,I,1.0183,B*7F
$GPRMC,192025.00,A,3731.73492,N,12215.97693,W,0.275,,050821,,,D*6E
$GPVTG,,T,,M,0.275,N,0.509,K,D*2A
$GPGGA,192025.00,3731.73492,N,12215.97693,W,2,05,2.26,11.5,M,-30.0,M,,0000*52
$GPGSA,A,3,18,13,51,29,15,,,,,,,,4.39,2.26,3.76*08
$GPGSV,4,1,13,05,36,047,08,10,15,217,,13,21,081,23,15,34,114,21*79
$GPGSV,4,2,13,16,17,317,,18,60,311,24,20,05,046,,23,48,213,16*7C
$GPGSV,4,3,13,25,16,185,,26,33,287,,29,67,108,15,46,46,191,*77
$GPGSV,4,4,13,51,44,156,31*4F
$GPGLL,3731.73492,N,12215.97693,W,192025.00,A,D*79
$GPRMC,192026.00,A,3731.73502,N,12215.97702,W,0.297,,050821,,,D*60
$GPVTG,,T,,M,0.297,N,0.551,K,D*2B
$GPGGA,192026.00,3731.73502,N,12215.97702,W,2,05,2.26,11.5,M,-30.0,M,,0000*50
$GPGSA,A,3,18,13,51,29,15,,,,,,,,4.39,2.26,3.76*08
$GPGSV,4,1,13,05,36,047,08,10,15,217,,13,21,081,23,15,34,114,22*7A
$GPGSV,4,2,13,16,17,317,,18,60,311,24,20,05,046,,23,48,213,12*78
$GPGSV,4,3,13,25,16,185,,26,33,287,,29,67,108,14,46,46,191,*76
$GPGSV,4,4,13,51,44,156,30*4E
$GPGLL,3731.73502,N,12215.97702,W,192026.00,A,D*7B
$BMXDR,H,34.1,P,0,C,41.4,C,1,P,101827,P,2*60
$BMMDA,30.070,I,1.018,B,41.4,C,,,34.1,,,,,,,,,,,*34
$BMMTA,41.4,C*0B
$BMMMB,30.0730,I,1.0183,B*7A
$GPRMC,192027.00,A,3731.73518,N,12215.97678,W,0.560,,050821,,,D*69
$GPVTG,,T,,M,0.560,N,1.038,K,D*2F
$GPGGA,192027.00,3731.73518,N,12215.97678,W,2,05,2.26,11.4,M,-30.0,M,,0000*57
$GPGSA,A,3,18,13,51,29,15,,,,,,,,4.39,2.26,3.76*08
$GPGSV,4,1,13,05,36,047,08,10,15,217,,13,21,081,23,15,34,114,21*79
$GPGSV,4,2,13,16,17,317,,18,60,311,24,20,05,046,,23,48,213,12*78
$GPGSV,4,3,13,25,16,185,,26,33,287,,29,67,109,13,46,46,191,*70
$GPGSV,4,4,13,51,44,156,30*4E
$GPGLL,3731.73518,N,12215.97678,W,192027.00,A,D*7D
$BMXDR,H,34.1,P,0,C,41.4,C,1,P,101828,P,2*6F
$BMMDA,30.070,I,1.018,B,41.4,C,,,34.1,,,,,,,,,,,*34
$BMMTA,41.4,C*0B
$BMMMB,30.0733,I,1.0183,B*79
$GPRMC,192028.00,A,3731.73520,N,12215.97704,W,0.281,,050821,,,D*6F
$GPVTG,,T,,M,0.281,N,0.521,K,D*2B
$GPGGA,192028.00,3731.73520,N,12215.97704,W,2,05,2.26,11.3,M,-30.0,M,,0000*5E
$GPGSA,A,3,18,13,51,29,15,,,,,,,,4.39,2.26,3.76*08
$GPGSV,4,1,13,05,36,047,08,10,15,217,,13,21,081,24,15,34,114,22*7D
$GPGSV,4,2,13,16,17,317,,18,60,311,24,20,05,046,,23,48,213,13*79
$GPGSV,4,3,13,25,16,185,,26,33,287,,29,67,109,17,46,46,191,*74
$GPGSV,4,4,13,51,44,156,32*4C
$GPGLL,3731.73520,N,12215.97704,W,192028.00,A,D*73
$BMXDR,H,34.2,P,0,C,41.4,C,1,P,101831,P,2*64
$BMMDA,30.071,I,1.018,B,41.4,C,,,34.2,,,,,,,,,,,*36
$BMMTA,41.4,C*0B
$BMMMB,30.0743,I,1.0183,B*7E
$GPRMC,192029.00,A,3731.73501,N,12215.97746,W,0.203,,050821,,,D*61
$GPVTG,,T,,M,0.203,N,0.376,K,D*25
$GPGGA,192029.00,3731.73501,N,12215.97746,W,2,05,2.26,10.8,M,-30.0,M,,0000*50
$GPGSA,A,3,18,13,51,29,15,,,,,,,,4.39,2.26,3.76*08
$GPGSV,4,1,13,05,36,047,08,10,15,217,,13,21,081,25,15,34,114,22*7C
$GPGSV,4,2,13,16,17,317,,18,60,311,25,20,05,046,,23,48,213,13*78
$GPGSV,4,3,13,25,16,185,,26,33,287,15,29,67,109,18,46,46,191,*7F
$GPGSV,4,4,13,51,44,156,31*4F
$GPGLL,3731.73501,N,12215.97746,W,192029.00,A,D*77
$BMXDR,H,34.2,P,0,C,41.4,C,1,P,101834,P,2*61
$BMMDA,30.071,I,1.018,B,41.4,C,,,34.2,,,,,,,,,,,*36
$BMMTA,41.4,C*0B
$BMMMB,30.0749,I,1.0183,B*74
$GPRMC,192030.00,A,3731.73486,N,12215.97792,W,0.420,,050821,,,D*69
$GPVTG,,T,,M,0.420,N,0.778,K,D*28
$GPGGA,192030.00,3731.73486,N,12215.97792,W,2,05,2.26,10.4,M,-30.0,M,,0000*53
$GPGSA,A,3,18,13,51,29,15,,,,,,,,4.39,2.26,3.76*08
$GPGSV,4,1,13,05,36,047,08,10,15,217,,13,21,081,25,15,34,114,22*7C
$GPGSV,4,2,13,16,17,317,,18,60,311,25,20,05,046,,23,48,213,13*78
$GPGSV,4,3,13,25,16,185,,26,33,287,14,29,67,109,19,46,46,191,*7F
$GPGSV,4,4,13,51,44,156,31*4F
$GPGLL,3731.73486,N,12215.97792,W,192030.00,A,D*78
$BMXDR,H,34.1,P,0,C,41.4,C,1,P,101833,P,2*65
$BMMDA,30.071,I,1.018,B,41.4,C,,,34.1,,,,,,,,,,,*35
$BMMTA,41.4,C*0B
$BMMMB,30.0748,I,1.0183,B*75
$GPRMC,192031.00,A,3731.73497,N,12215.97786,W,0.066,,050821,,,D*6B
$GPVTG,,T,,M,0.066,N,0.121,K,D*24
$GPGGA,192031.00,3731.73497,N,12215.97786,W,2,05,2.26,10.3,M,-30.0,M,,0000*50
$GPGSA,A,3,18,13,51,29,15,,,,,,,,4.39,2.26,3.76*08
$GPGSV,4,1,13,05,36,047,18,10,15,217,,13,21,081,25,15,34,114,22*7D
$GPGSV,4,2,13,16,17,317,,18,60,311,26,20,05,046,,23,48,213,13*7B
$GPGSV,4,3,13,25,16,185,,26,33,287,15,29,67,109,20,46,46,191,*74
$GPGSV,4,4,13,51,44,156,31*4F
$GPGLL,3731.73497,N,12215.97786,W,192031.00,A,D*7C
$BMXDR,H,34.1,P,0,C,41.4,C,1,P,101834,P,2*62
$BMMDA,30.072,I,1.018,B,41.4,C,,,34.1,,,,,,,,,,,*36
$BMMTA,41.4,C*0B
$BMMMB,30.0750,I,1.0183,B*7C
$GPRMC,192032.00,A,3731.73487,N,12215.97806,W,0.158,,050821,,,D*62
$GPVTG,,T,,M,0.158,N,0.293,K,D*22
$GPGGA,192032.00,3731.73487,N,12215.97806,W,2,05,2.26,9.9,M,-30.0,M,,0000*67
$GPGSA,A,3,18,13,51,29,15,,,,,,,,4.39,2.26,3.76*08
$GPGSV,4,1,13,05,36,047,16,10,15,217,,13,21,081,25,15,34,114,22*73
$GPGSV,4,2,13,16,17,317,,18,60,311,25,20,05,046,,23,48,213,18*73
$GPGSV,4,3,13,25,16,185,,26,33,287,14,29,67,109,19,46,46,191,*7F
$GPGSV,4,4,13,51,44,156,31*4F
$GPGLL,3731.73487,N,12215.97806,W,192032.00,A,D*79
$BMXDR,H,34.0,P,0,C,41.4,C,1,P,101831,P,2*66
$BMMDA,30.071,I,1.018,B,41.4,C,,,34.0,,,,,,,,,,,*34
$BMMTA,41.4,C*0B
$BMMMB,30.0740,I,1.0183,B*7D
$GPRMC,192033.00,A,3731.73469,N,12215.97836,W,0.329,,050821,,,D*64
$GPVTG,,T,,M,0.329,N,0.610,K,D*29
$GPGGA,192033.00,3731.73469,N,12215.97836,W,2,05,2.26,9.6,M,-30.0,M,,0000*6A
$GPGSA,A,3,18,13,51,29,15,,,,,,,,4.39,2.26,3.76*08
$GPGSV,4,1,13,05,36,047,11,10,15,217,,13,21,081,23,15,34,114,20*70
$GPGSV,4,2,13,16,17,317,,18,60,311,24,20,05,046,,23,48,213,17*7D
$GPGSV,4,3,13,25,16,185,,26,33,287,10,29,67,109,17,46,46,191,*75
$GPGSV,4,4,13,51,44,156,29*46
$GPGLL,3731.73469,N,12215.97836,W,192033.00,A,D*7B
$BMXDR,H,34.1,P,0,C,41.4,C,1,P,101829,P,2*6E
$BMMDA,30.070,I,1.018,B,41.4,C,,,34.1,,,,,,,,,,,*34
$BMMTA,41.4,C*0B
$BMMMB,30.0735,I,1.0183,B*7F
$GPRMC,192034.00,A,3731.73471,N,12215.97828,W,0.274,,050821,,,D*6C
$GPVTG,,T,,M,0.274,N,0.508,K,D*2A
$GPGGA,192034.00,3731.73471,N,12215.97828,W,2,06,1.61,9.7,M,-30.0,M,,0000*69
$GPGSA,A,3,18,13,51,29,15,26,,,,,,,2.84,1.61,2.34*0B
$GPGSV,4,1,13,05,36,047,09,10,15,217,,13,21,081,23,15,34,114,20*79
$GPGSV,4,2,13,16,17,317,,18,60,311,24,20,05,046,,23,48,213,17*7D
$GPGSV,4,3,13,25,16,185,,26,33,287,10,29,67,109,16,46,46,191,*74
$GPGSV,4,4,13,51,44,156,30*4E
$GPGLL,3731.73471,N,12215.97828,W,192034.00,A,D*7A
$GPRMC,192035.00,A,3731.73462,N,12215.97844,W,0.187,,050821,,,D*6A
$GPVTG,,T,,M,0.187,N,0.346,K,D*29
$GPGGA,192035.00,3731.73462,N,12215.97844,W,2,05,2.26,9.4,M,-30.0,M,,0000*60
$BMXDR,H,34.2,P,0,C,41.4,C,1,P,101828,P,2*6C
$GPGSA,A,3,18,13,51,29,15,,,,,,,,4.39,2.26,3.77*09
$GPGSV,4,1,13,05,36,047,08,10,15,217,,13,21,081,23,15,34,114,19*72
$BMMDA,30.070,I,1.018,B,41.4,C,,,34.2,,,,,,,,,,,*37
$GPGSV,4,2,13,16,17,317,,18,60,311,24,20,05,046,,23,48,213,17*7D
$BMMTA,41.4,C*0B
$GPGSV,4,3,13,25,16,185,,26,33,287,09,29,67,109,16,46,46,191,*7C
$GPGSV,4,4,13,51,44,156,30*4E
$BMMMB,30.0734,I,1.0183,B*7E
$GPGLL,3731.73462,N,12215.97844,W,192035.00,A,D*73
$GPRMC,192036.00,A,3731.73462,N,12215.97843,W,0.179,,050821,,,D*6F
$GPVTG,,T,,M,0.179,N,0.332,K,D*2B
$GPGGA,192036.00,3731.73462,N,12215.97843,W,2,05,2.26,9.2,M,-30.0,M,,0000*62
$GPGSA,A,3,18,13,51,29,15,,,,,,,,4.39,2.26,3.77*09
$GPGSV,4,1,13,05,36,047,08,10,15,217,,13,21,081,23,15,34,114,20*78
$GPGSV,4,2,13,16,17,317,,18,60,311,24,20,05,046,,23,48,213,17*7D
$GPGSV,4,3,13,25,16,185,,26,33,287,08,29,67,109,16,46,46,191,*7D
$GPGSV,4,4,13,51,44,156,30*4E
$GPGLL,3731.73462,N,12215.97843,W,192036.00,A,D*77
$BMXDR,H,34.2,P,0,C,41.4,C,1,P,101821,P,2*65
$BMMDA,30.068,I,1.018,B,41.4,C,,,34.2,,,,,,,,,,,*3E
$BMMTA,41.4,C*0B
$BMMMB,30.0713,I,1.0182,B*7A
$GPRMC,192037.00,A,3731.73481,N,12215.97800,W,0.616,,050821,,,D*6A
$GPVTG,,T,,M,0.616,N,1.142,K,D*21
$GPGGA,192037.00,3731.73481,N,12215.97800,W,2,05,2.26,9.1,M,-30.0,M,,0000*6A
$GPGSA,A,3,18,13,51,29,15,,,,,,,,4.40,2.26,3.77*07
$GPGSV,4,1,13,05,36,047,08,10,15,217,,13,21,081,23,15,34,114,20*78
$GPGSV,4,2,13,16,17,317,,18,60,311,24,20,05,046,,23,48,213,17*7D
$GPGSV,4,3,13,25,16,185,,26,33,287,,29,67,109,17,46,46,191,*74
$GPGSV,4,4,13,51,44,156,30*4E
$GPGLL,3731.73481,N,12215.97800,W,192037.00,A,D*7C
$BMXDR,H,34.2,P,0,C,41.4,C,1,P,101831,P,2*64
$BMMDA,30.071,I,1.018,B,41.4,C,,,34.2,,,,,,,,,,,*36
$BMMTA,41.4,C*0B
$BMMMB,30.0741,I,1.0183,B*7C
$GPRMC,192038.00,A,3731.73489,N,12215.97782,W,0.700,,050821,,,D*6E
$GPVTG,,T,,M,0.700,N,1.296,K,D*2D
$GPGGA,192038.00,3731.73489,N,12215.97782,W,2,05,2.26,8.9,M,-30.0,M,,0000*61
$GPGSA,A,3,18,13,51,29,15,,,,,,,,4.40,2.26,3.77*07
$GPGSV,4,1,13,05,36,047,07,10,15,217,,13,21,081,23,15,34,114,21*76
$GPGSV,4,2,13,16,17,317,,18,60,311,24,20,05,046,,23,48,213,16*7C
$GPGSV,4,3,13,25,16,185,,26,33,287,,29,67,109,17,46,46,191,*74
$GPGSV,4,4,13,51,44,156,30*4E
$GPGLL,3731.73489,N,12215.97782,W,192038.00,A,D*7E
$BMXDR,H,34.2,P,0,C,41.4,C,1,P,101832,P,2*67
$BMMDA,30.071,I,1.018,B,41.4,C,,,34.2,,,,,,,,,,,*36
$BMMTA,41.4,C*0B
$BMMMB,30.0744,I,1.0183,B*79
$GPRMC,192039.00,A,3731.73476,N,12215.97798,W,0.411,,050821,,,D*67
$GPVTG,,T,,M,0.411,N,0.761,K,D*22
$GPGGA,192039.00,3731.73476,N,12215.97798,W,2,05,2.26,8.8,M,-30.0,M,,0000*6A
$GPGSA,A,3,18,13,51,29,15,,,,,,,,4.40,2.26,3.77*07
$GPGSV,4,1,13,05,36,047,07,10,15,217,,13,21,081,22,15,34,114,21*77
$GPGSV,4,2,13,16,17,317,,18,60,311,24,20,05,046,,23,48,213,16*7C
$GPGSV,4,3,13,25,16,185,,26,33,287,,29,67,109,16,46,46,191,*75
$GPGSV,4,4,13,51,44,156,30*4E
$GPGLL,3731.73476,N,12215.97798,W,192039.00,A,D*74
$BMXDR,H,34.3,P,0,C,41.5,C,1,P,101829,P,2*6D
$BMMDA,30.070,I,1.018,B,41.5,C,,,34.3,,,,,,,,,,,*37
$BMMTA,41.5,C*0A
$BMMMB,30.0735,I,1.0183,B*7F
$GPRMC,192040.00,A,3731.73465,N,12215.97828,W,0.074,,050821,,,D*68
$GPVTG,,T,,M,0.074,N,0.137,K,D*20
$GPGGA,192040.00,3731.73465,N,12215.97828,W,2,05,2.26,8.7,M,-30.0,M,,0000*6D
$GPGSA,A,3,18,13,51,29,15,,,,,,,,4.40,2.26,3.77*07
$GPGSV,4,1,13,05,36,047,08,10,15,217,,13,21,081,24,15,34,114,22*7D
$GPGSV,4,2,13,16,17,317,,18,60,311,24,20,05,046,,23,48,213,17*7D
$GPGSV,4,3,13,25,16,185,,26,33,287,,29,67,109,15,46,46,191,*76
$GPGSV,4,4,13,51,44,156,31*4F
$GPGLL,3731.73465,N,12215.97828,W,192040.00,A,D*7C
$BMXDR,H,34.3,P,0,C,41.4,C,1,P,101827,P,2*62
$BMMDA,30.070,I,1.018,B,41.4,C,,,34.3,,,,,,,,,,,*36
$BMMTA,41.4,C*0B
$BMMMB,30.0731,I,1.0183,B*7B
$GPRMC,192041.00,A,3731.73473,N,12215.97828,W,0.032,,050821,,,D*6C
$GPVTG,,T,,M,0.032,N,0.059,K,D*2B
$GPGGA,192041.00,3731.73473,N,12215.97828,W,2,05,2.26,8.8,M,-30.0,M,,0000*64
$GPGSA,A,3,18,13,51,29,15,,,,,,,,4.40,2.26,3.77*07
$GPGSV,4,1,13,05,36,047,09,10,15,217,,13,21,081,25,15,34,114,22*7D
$GPGSV,4,2,13,16,17,317,,18,60,311,24,20,05,046,,23,48,213,18*72
$GPGSV,4,3,13,25,16,185,,26,33,287,,29,67,109,14,46,46,191,*77
$GPGSV,4,4,13,51,44,156,31*4F
$GPGLL,3731.73473,N,12215.97828,W,192041.00,A,D*7A
$BMXDR,H,34.3,P,0,C,41.4,C,1,P,101830,P,2*64
$BMMDA,30.070,I,1.018,B,41.4,C,,,34.3,,,,,,,,,,,*36
$BMMTA,41.4,C*0B
$BMMMB,30.0737,I,1.0183,B*7D
$GPRMC,192042.00,A,3731.73451,N,12215.97879,W,0.400,,050821,,,D*6E
$GPVTG,,T,,M,0.400,N,0.741,K,D*20
$GPGGA,192042.00,3731.73451,N,12215.97879,W,2,05,2.26,8.6,M,-30.0,M,,0000*6D
$GPGSA,A,3,18,13,51,29,15,,,,,,,,4.40,2.26,3.77*07
$GPGSV,4,1,13,05,36,047,09,10,15,217,,13,21,081,25,15,34,114,23*7C
$GPGSV,4,2,13,16,17,317,,18,60,311,25,20,05,046,,23,48,213,18*73
$GPGSV,4,3,13,25,16,185,,26,33,287,,29,67,109,15,46,46,191,*76
$GPGSV,4,4,13,51,44,156,31*4F
$GPGLL,3731.73451,N,12215.97879,W,192042.00,A,D*7D
$BMXDR,H,34.2,P,0,C,41.4,C,1,P,101829,P,2*6D
$BMMDA,30.070,I,1.018,B,41.4,C,,,34.2,,,,,,,,,,,*37
$BMMTA,41.4,C*0B
$BMMMB,30.0737,I,1.0183,B*7D
$GPRMC,192043.00,A,3731.73452,N,12215.97893,W,0.183,,050821,,,D*66
$GPVTG,,T,,M,0.183,N,0.340,K,D*2B
$GPGGA,192043.00,3731.73452,N,12215.97893,W,2,05,2.26,8.4,M,-30.0,M,,0000*69
$GPGSA,A,3,18,13,51,29,15,,,,,,,,4.40,2.26,3.77*07
$GPGSV,4,1,13,05,36,047,,10,15,217,,13,21,081,25,15,34,114,23*75
$GPGSV,4,2,13,16,17,317,,18,60,311,25,20,05,046,,23,48,213,18*73
$GPGSV,4,3,13,25,16,185,,26,33,287,,29,67,109,16,46,46,191,*75
$GPGSV,4,4,13,51,44,156,31*4F
$GPGLL,3731.73452,N,12215.97893,W,192043.00,A,D*7B
$GPRMC,192044.00,A,3731.73452,N,12215.97909,W,0.167,,050821,,,D*69
$BMXDR,H,34.2,P,0,C,41.5,C,1,P,101828,P,2*6D
$GPVTG,,T,,M,0.167,N,0.309,K,D*2C
$BMMDA,30.070,I,1.018,B,41.5,C,,,34.2,,,,,,,,,,,*36
$GPGGA,192044.00,3731.73452,N,12215.97909,W,2,05,2.27,8.4,M,-30.0,M,,0000*6D
$BMMTA,41.5,C*0A
$GPGSA,A,3,18,13,51,29,15,,,,,,,,4.40,2.27,3.77*06
$BMMMB,30.0733,I,1.0183,B*79
$GPGSV,4,1,13,05,36,047,,10,15,217,,13,21,081,24,15,34,114,21*76
$GPGSV,4,2,13,16,17,317,,18,60,311,24,20,05,046,,23,48,213,10*7A
$GPGSV,4,3,13,25,16,185,,26,33,287,,29,67,109,14,46,46,191,*77
$GPGSV,4,4,13,51,44,156,30*4E
$GPGLL,3731.73452,N,12215.97909,W,192044.00,A,D*7E
$GPRMC,192045.00,A,3731.73451,N,12215.97929,W,0.151,,050821,,,D*6C
$GPVTG,,T,,M,0.151,N,0.280,K,D*29
$GPGGA,192045.00,3731.73451,N,12215.97929,W,2,05,2.27,8.3,M,-30.0,M,,0000*6A
$GPGSA,A,3,18,13,51,29,15,,,,,,,,4.40,2.27,3.77*06
$GPGSV,4,1,13,05,36,047,,10,15,217,,13,21,081,23,15,34,114,22*72
$GPGSV,4,2,13,16,17,317,,18,60,311,23,20,05,046,,23,48,213,10*7D
$GPGSV,4,3,13,25,16,185,,26,33,287,,29,67,109,15,46,46,191,*76
$GPGSV,4,4,13,51,44,156,30*4E
$GPGLL,3731.73451,N,12215.97929,W,192045.00,A,D*7E
$BMXDR,H,34.2,P,0,C,41.4,C,1,P,101828,P,2*6C
$BMMDA,30.070,I,1.018,B,41.4,C,,,34.2,,,,,,,,,,,*37
$BMMTA,41.4,C*0B
$BMMMB,30.0733,I,1.0183,B*79
$GPRMC,192046.00,A,3731.73450,N,12215.97943,W,0.125,,050821,,,D*61
$GPVTG,,T,,M,0.125,N,0.232,K,D*23
$GPGGA,192046.00,3731.73450,N,12215.97943,W,2,05,2.27,8.2,M,-30.0,M,,0000*65
$GPGSA,A,3,18,13,51,29,15,,,,,,,,4.40,2.27,3.78*09
