$HCHDG,205.48,,,0.55,E*22
$HCHDG,207.00,,,,*77
$TIROT,-0.45,A*27
$TIROT,-0.23,A*27
$VWVHW,,T,,M,0.00,N,0.00,K*54
$YXXDR,A,0.19,D,Pitch,A,0.34,D,Roll*3B
$YXXDR,D,0.19,M,Heave*0F
$AGRSA,1.26,A,,V*4A
$VWVLW,7525.53,N,7525.53,N*4C
!AIVDM,1,1,,B,B3If;iP0IOtWKoVjRji>swP5oP06,0*43
$HCHDG,205.48,,,0.55,E*22
$HCHDG,207.00,,,,*77
$TIROT,1.14,A*0F
$TIROT,0.16,A*0C
$PLCJE8FC8,69A6,2A00,2162,00,*75
$YXXDR,A,0.20,D,Pitch,A,0.29,D,Roll*3D
$YXXDR,D,0.19,M,Heave*0F
$AGRSA,1.22,A,,V*4E
$GPRMC,130156.000,A,4735.66035,N,00258.87018,W,0.00,,201125,,,D*68
$HCHDG,205.48,,,0.55,E*22
$HCHDG,207.00,,,,*77
$TIROT,0.11,A*0B
$TIROT,0.90,A*02
$YXXDR,A,0.21,D,Pitch,A,0.20,D,Roll*35
$YXXDR,D,0.19,M,Heave*0F
$IIMWV,142.0,R,006.1,N,A*3D
$AGRSA,1.22,A,,V*4E
$WIMTW,7.66,C*0A
$HCHDG,205.48,,,0.55,E*22
$HCHDG,207.00,,,,*77
$TIROT,-0.10,A*27
$TIROT,0.45,A*0A
$YXXDR,A,0.20,D,Pitch,A,0.22,D,Roll*36
$YXXDR,D,0.19,M,Heave*0F
$VDVBW,0.00,,A,,,A,,A,,A*4F
$AGRSA,1.26,A,,V*4A
$WIXDR,C,008.0,C,,*5A
$HCHDG,205.48,,,0.55,E*22
$HCHDG,207.00,,,,*77
$TIROT,0.33,A*0B
$TIROT,0.60,A*0D
$YXXDR,A,0.21,D,Pitch,A,0.28,D,Roll*3D
$YXXDR,D,0.19,M,Heave*0F
$AGRSA,1.26,A,,V*4A
$HCHDG,205.48,,,0.55,E*22
$HCHDG,207.01,,,,*76
$TIROT,1.15,A*0E
$TIROT,-0.83,A*2D
$PLCJ,6503,67E9,3C,9391,9193*34
$YXXDR,A,0.20,D,Pitch,A,0.26,D,Roll*32
$YXXDR,D,0.19,M,Heave*0F
$AGRSA,1.26,A,,V*4A
$HCHDG,205.48,,,0.55,E*22
$HCHDG,207.01,,,,*76
$TIROT,0.01,A*0A
$TIROT,-0.56,A*25
$YXXDR,A,0.21,D,Pitch,A,0.23,D,Roll*36
$YXXDR,D,0.19,M,Heave*0F
$PLCJE8FC8,69A6,2A00,2162,00,*75
$AGRSA,1.26,A,,V*4A
$HCHDG,205.48,,,0.55,E*22
$HCHDG,207.00,,,,*77
$TIROT,-0.38,A*2D
$TIROT,-0.22,A*26
$YXXDR,A,0.21,D,Pitch,A,0.22,D,Roll*37
$YXXDR,D,0.19,M,Heave*0F
$AGRSA,1.26,A,,V*4A
$IIMWV,140.0,R,006.7,N,A*39
$HCHDG,205.48,,,0.55,E*22
$HCHDG,207.00,,,,*77
$TIROT,0.86,A*05
$TIROT,-0.06,A*20
$YXXDR,A,0.18,D,Pitch,A,0.22,D,Roll*3D
$YXXDR,D,0.19,M,Heave*0F
$VDVBW,0.00,,A,,,A,,A,,A*4F
$AGRSA,1.22,A,,V*4E
$YXXDR,A,-10.41,D,Pitch,A,-0.23,D,Roll*01
$WIXDR,C,008.0,C,,*5A
$GPRMC,130157.200,A,4735.66059,N,00258.87361,W,0.00,,201125,0.55,E,A*32
$HCHDG,205.48,,,0.55,E*22
$HCHDG,207.00,,,,*77
$TIROT,0.95,A*07
$TIROT,-0.31,A*24
$YXXDR,A,0.20,D,Pitch,A,0.26,D,Roll*32
$YXXDR,D,0.19,M,Heave*0F
$AGRSA,1.26,A,,V*4A
$HCHDG,205.48,,,0.55,E*22
$HCHDG,207.00,,,,*77
$TIROT,-0.10,A*27
$TIROT,0.20,A*09
$VWVHW,,T,,M,0.00,N,0.00,K*54
$YXXDR,A,0.20,D,Pitch,A,0.29,D,Roll*3D
$YXXDR,D,0.19,M,Heave*0F
$PLCJ,6503,67EB,3C,83A1,9283*34
$AGRSA,1.22,A,,V*4E
$VWVLW,7525.53,N,7525.53,N*4C
$HCHDG,205.48,,,0.55,E*22
$HCHDG,207.00,,,,*77
$TIROT,0.28,A*01
$TIROT,0.58,A*06
$YXXDR,A,0.20,D,Pitch,A,0.21,D,Roll*35
$YXXDR,D,0.19,M,Heave*0F
$AGRSA,1.26,A,,V*4A
$PLCJE8FC8,69A6,2A00,2162,00,*75
$GPRMC,130157.000,A,4735.66035,N,00258.87029,W,0.00,,201125,,,D*6B
$HCHDG,205.48,,,0.55,E*22
$HCHDG,207.01,,,,*76
$TIROT,1.68,A*04
$TIROT,0.46,A*09
$YXXDR,A,0.21,D,Pitch,A,0.17,D,Roll*31
$YXXDR,D,0.19,M,Heave*0F
$AGRSA,1.26,A,,V*4A
$WIMTW,7.65,C*09
$HCHDG,205.48,,,0.55,E*22
$HCHDG,207.01,,,,*76
$TIROT,-0.02,A*24
$TIROT,0.21,A*08
$IIMWV,140.0,R,007.1,N,A*3E
$YXXDR,A,0.21,D,Pitch,A,0.26,D,Roll*33
$YXXDR,D,0.19,M,Heave*0F
$VDVBW,0.00,,A,,,A,,A,,A*4F
$AGRSA,1.26,A,,V*4A
$HCHDG,205.48,,,0.55,E*22
$HCHDG,207.00,,,,*77
$TIROT,0.70,A*0C
$TIROT,0.04,A*0F
$WIXDR,C,008.0,C,,*5A
$YXXDR,A,0.21,D,Pitch,A,0.33,D,Roll*37
$YXXDR,D,0.19,M,Heave*0F
$AGRSA,1.22,A,,V*4E
!AIVDM,1,1,,B,H3IRCdTUFC@05Pf61:lnpk1@2400,0*46
$HCHDG,205.48,,,0.55,E*22
$HCHDG,207.00,,,,*77
$TIROT,-0.63,A*23
$TIROT,0.43,A*0C
$YXXDR,A,0.21,D,Pitch,A,0.24,D,Roll*31
$YXXDR,D,0.19,M,Heave*0F
$AGRSA,1.26,A,,V*4A
$PLCJ,6503,67ED,3C,94A1,7273*35
$HCHDG,205.48,,,0.55,E*22
$HCHDG,207.01,,,,*76
$TIROT,1.60,A*0C
$TIROT,0.48,A*07
$YXXDR,A,0.20,D,Pitch,A,0.16,D,Roll*31
$YXXDR,D,0.19,M,Heave*0F
$AGRSA,1.26,A,,V*4A
$HCHDG,205.48,,,0.55,E*22
$HCHDG,207.01,,,,*76
$TIROT,0.98,A*0A
$TIROT,0.32,A*0A
$PLCJE8FC8,69A6,2A00,2162,00,*75
$YXXDR,A,0.20,D,Pitch,A,0.23,D,Roll*37
$YXXDR,D,0.19,M,Heave*0F
$AGRSA,1.26,A,,V*4A
!AIVDM,1,1,,B,13IJop0=@0wiTRrK5pk>47Mj2<0B,0*2F
$HCHDG,205.48,,,0.55,E*22
$HCHDG,207.00,,,,*77
$TIROT,1.00,A*0A
$TIROT,-0.33,A*26
$YXXDR,A,0.20,D,Pitch,A,0.30,D,Roll*35
$YXXDR,D,0.19,M,Heave*0F
$IIMWV,139.0,R,007.2,N,A*33
$VDVBW,0.00,,A,,,A,,A,,A*4F
$AGRSA,1.26,A,,V*4A
$YXXDR,A,-10.41,D,Pitch,A,-0.23,D,Roll*01
$GPRMC,130158.099,A,4735.66058,N,00258.87356,W,0.00,,201125,0.55,E,A*3A
$HCHDG,205.48,,,0.55,E*22
$HCHDG,207.00,,,,*77
$TIROT,-0.37,A*22
$TIROT,-0.04,A*22
$YXXDR,A,0.19,D,Pitch,A,0.22,D,Roll*3C
$YXXDR,D,0.19,M,Heave*0F
$AGRSA,1.26,A,,V*4A
$WIXDR,C,008.0,C,,*5A
$HCHDG,205.48,,,0.55,E*22
$HCHDG,207.01,,,,*76
$TIROT,-0.48,A*2A
$TIROT,1.45,A*0B
$VWVHW,,T,,M,0.00,N,0.00,K*54
$YXXDR,A,0.20,D,Pitch,A,0.18,D,Roll*3F
$YXXDR,D,0.19,M,Heave*0F
$AGRSA,1.22,A,,V*4E
$VWVLW,7525.53,N,7525.53,N*4C
$HCHDG,205.48,,,0.55,E*22
$HCHDG,207.00,,,,*77
$TIROT,1.12,A*09
$TIROT,-0.87,A*29
$PLCJ,6505,66EF,3C,83A1,7373*37
$YXXDR,A,0.18,D,Pitch,A,0.26,D,Roll*39
$YXXDR,D,0.19,M,Heave*0F
$AGRSA,1.22,A,,V*4E
$HCHDG,205.48,,,0.55,E*22
$HCHDG,207.00,,,,*77
$TIROT,-0.46,A*24
$TIROT,0.32,A*0A
$YXXDR,A,0.21,D,Pitch,A,0.28,D,Roll*3D
$YXXDR,D,0.19,M,Heave*0F
$PLCJE8FC8,69A6,2A00,2162,00,*75
$GPRMC,130157.000,A,4735.66035,N,00258.87029,W,0.00,,201125,,,D*6B
$AGRSA,1.26,A,,V*4A
$WIMTW,7.66,C*0A
$HCHDG,205.48,,,0.55,E*22
$HCHDG,207.00,,,,*77
$TIROT,-0.23,A*27
$TIROT,0.36,A*0E
$YXXDR,A,0.21,D,Pitch,A,0.22,D,Roll*37
$YXXDR,D,0.19,M,Heave*0F
$VDVBW,0.00,,A,,,A,,A,,A*4F
$AGRSA,1.26,A,,V*4A
$IIMWV,136.0,R,006.7,N,A*38
$HCHDG,205.47,,,0.55,E*2D
$HCHDG,207.00,,,,*77
$TIROT,0.92,A*00
$TIROT,0.98,A*0A
$YXXDR,A,0.22,D,Pitch,A,0.21,D,Roll*37
$YXXDR,D,0.19,M,Heave*0F
$AGRSA,1.26,A,,V*4A
$WIXDR,C,008.0,C,,*5A
$HCHDG,205.48,,,0.55,E*22
$HCHDG,207.00,,,,*77
$TIROT,0.16,A*0C
$TIROT,-0.19,A*2E
$YXXDR,A,0.22,D,Pitch,A,0.24,D,Roll*32
$YXXDR,D,0.19,M,Heave*0F
$AGRSA,1.26,A,,V*4A
$HCHDG,205.48,,,0.55,E*22
$HCHDG,207.00,,,,*77
$TIROT,-0.05,A*23
$TIROT,-0.32,A*27
$YXXDR,A,0.21,D,Pitch,A,0.26,D,Roll*33
$YXXDR,D,0.19,M,Heave*0F
$PLCJ,6505,65F4,3C,A390,7393*4B
$AGRSA,1.22,A,,V*4E
$HCHDG,205.48,,,0.55,E*22
$HCHDG,207.00,,,,*77
$TIROT,0.00,A*0B
$TIROT,0.14,A*0E
$YXXDR,A,0.21,D,Pitch,A,0.27,D,Roll*32
$YXXDR,D,0.19,M,Heave*0F
$AGRSA,1.26,A,,V*4A
$PLCJE8FC8,69A6,2A00,2162,00,*75
$HCHDG,205.48,,,0.55,E*22
$HCHDG,207.00,,,,*77
$TIROT,-0.20,A*24
$TIROT,0.01,A*0A
$YXXDR,A,0.22,D,Pitch,A,0.26,D,Roll*30
$YXXDR,D,0.19,M,Heave*0F
$VDVBW,0.00,,A,,,A,,A,,A*4F
$AGRSA,1.22,A,,V*4E
$YXXDR,A,-10.42,D,Pitch,A,-0.22,D,Roll*03
$GPRMC,130159.200,A,4735.66058,N,00258.87350,W,0.00,,201125,0.55,E,A*3F
$HCHDG,205.48,,,0.55,E*22
$HCHDG,207.00,,,,*77
$TIROT,0.89,A*0A
$TIROT,-1.08,A*2F
$IIMWV,135.0,R,006.1,N,A*3D
$YXXDR,A,0.21,D,Pitch,A,0.22,D,Roll*37
$YXXDR,D,0.19,M,Heave*0F
$AGRSA,1.22,A,,V*4E
$HCHDG,205.48,,,0.55,E*22
$HCHDG,207.00,,,,*77
$TIROT,0.87,A*04
$TIROT,-0.82,A*2C
$VWVHW,,T,,M,0.00,N,0.00,K*54
$WIXDR,C,008.0,C,,*5A
$YXXDR,A,0.20,D,Pitch,A,0.20,D,Roll*34
$YXXDR,D,0.19,M,Heave*0F
$AGRSA,1.22,A,,V*4E
$VWVLW,7525.53,N,7525.53,N*4C
$HCHDG,205.48,,,0.55,E*22
$HCHDG,207.00,,,,*77
$TIROT,1.79,A*04
$TIROT,-0.92,A*2D
$YXXDR,A,0.20,D,Pitch,A,0.29,D,Roll*3D
$YXXDR,D,0.19,M,Heave*0F
$AGRSA,1.22,A,,V*4E
$PLCJ,6501,63F8,3C,83A1,7493*42
$GPRMC,130159.000,A,4735.66035,N,00258.87029,W,0.00,,201125,,,D*65
$HCHDG,205.48,,,0.55,E*22
$HCHDG,207.00,,,,*77
$TIROT,0.48,A*07
$TIROT,0.39,A*01
$YXXDR,A,0.20,D,Pitch,A,0.30,D,Roll*35
$YXXDR,D,0.19,M,Heave*0F
$AGRSA,1.26,A,,V*4A
$WIMTW,7.66,C*0A
$HCHDG,205.49,,,0.55,E*23
$HCHDG,207.00,,,,*77
$TIROT,0.45,A*0A
$TIROT,0.61,A*0C
$PLCJE8FC8,69A6,2A00,2162,00,*75
$YXXDR,A,0.21,D,Pitch,A,0.20,D,Roll*35
$YXXDR,D,0.19,M,Heave*0F
$VDVBW,0.00,,A,,,A,,A,,A*4F
$AGRSA,1.26,A,,V*4A
$HCHDG,205.49,,,0.55,E*23
$HCHDG,207.00,,,,*77
$TIROT,0.65,A*08
$TIROT,0.17,A*0D
$IIMWV,136.0,R,005.3,N,A*3F
$YXXDR,A,0.21,D,Pitch,A,0.18,D,Roll*3E
$YXXDR,D,0.20,M,Heave*05
$AGRSA,1.26,A,,V*4A
$HCHDG,205.49,,,0.55,E*23
$HCHDG,207.00,,,,*77
$TIROT,-1.24,A*21
$TIROT,0.38,A*00
$YXXDR,A,0.22,D,Pitch,A,0.30,D,Roll*37
$YXXDR,D,0.20,M,Heave*05
$AGRSA,1.22,A,,V*4E
$WIXDR,C,008.0,C,,*5A
$HCHDG,205.48,,,0.55,E*22
$HCHDG,207.00,,,,*77
$TIROT,0.82,A*01
$TIROT,1.50,A*0F
$YXXDR,A,0.20,D,Pitch,A,0.31,D,Roll*34
$YXXDR,D,0.20,M,Heave*05
$AGRSA,1.26,A,,V*4A
$HCHDG,205.48,,,0.55,E*22
$HCHDG,207.00,,,,*77
$TIROT,2.09,A*00
$TIROT,0.58,A*06
$PLCJ,6404,63F5,3C,9382,9393*39
$YXXDR,A,0.21,D,Pitch,A,0.22,D,Roll*37
$YXXDR,D,0.20,M,Heave*05
$AGRSA,1.26,A,,V*4A
!AIVDM,1,1,,A,13IN18001oOiknfK6mI<4Icn0D1u,0*14
$HCHDG,205.48,,,0.55,E*22
$HCHDG,207.00,,,,*77
$TIROT,0.37,A*0F
$TIROT,0.18,A*02
!AIVDM,1,1,,A,402:nvAvVr=1sOiEsbKAKB?02D0S,0*35
$YXXDR,A,0.22,D,Pitch,A,0.21,D,Roll*37
$YXXDR,D,0.20,M,Heave*05
$PLCJE8FC8,69A6,2A00,2162,00,*75
$VDVBW,0.00,,A,,,A,,A,,A*4F
$AGRSA,1.26,A,,V*4A
$YXXDR,A,-10.42,D,Pitch,A,-0.24,D,Roll*05
$GPRMC,130200.198,A,4735.66053,N,00258.87348,W,0.00,,201125,0.55,E,A*30
$HCHDG,205.48,,,0.55,E*22
$HCHDG,207.00,,,,*77
$TIROT,0.96,A*04
$TIROT,0.51,A*0F
!AIVDM,1,1,,A,B3IHKFP00?tRItVkd3KQ3wP5oP06,0*47
$YXXDR,A,0.20,D,Pitch,A,0.25,D,Roll*31
$YXXDR,D,0.20,M,Heave*05
$AGRSA,1.22,A,,V*4E
$IIMWV,134.0,R,004.7,N,A*38
$HCHDG,205.48,,,0.55,E*22
$HCHDG,207.00,,,,*77
$TIROT,1.16,A*0D
$TIROT,0.44,A*0B
$VWVHW,,T,,M,0.00,N,0.00,K*54
$YXXDR,A,0.20,D,Pitch,A,0.28,D,Roll*3C
$YXXDR,D,0.20,M,Heave*05
$AGRSA,1.26,A,,V*4A
$VWVLW,7525.53,N,7525.53,N*4C
$WIXDR,C,008.0,C,,*5A
$HCHDG,205.49,,,0.55,E*23
$HCHDG,207.00,,,,*77
$TIROT,0.97,A*05
$TIROT,-0.95,A*2A
$YXXDR,A,0.21,D,Pitch,A,0.26,D,Roll*33
$YXXDR,D,0.20,M,Heave*05
$AGRSA,1.26,A,,V*4A
$GPRMC,130200.000,A,4735.66035,N,00258.87039,W,0.00,,201125,,,D*6B
$HCHDG,205.49,,,0.55,E*23
$HCHDG,207.00,,,,*77
$TIROT,0.80,A*03
$TIROT,-0.25,A*21
$YXXDR,A,0.21,D,Pitch,A,0.20,D,Roll*35
$PLCJ,6402,65F2,3C,8383,9293*3F
$YXXDR,D,0.20,M,Heave*05
$AGRSA,1.26,A,,V*4A
$WIMTW,7.66,C*0A
$HCHDG,205.49,,,0.55,E*23
$HCHDG,207.00,,,,*77
$TIROT,0.21,A*08
$TIROT,0.45,A*0A
$YXXDR,A,0.21,D,Pitch,A,0.19,D,Roll*3F
$YXXDR,D,0.20,M,Heave*05
$VDVBW,0.00,,A,,,A,,A,,A*4F
$AGRSA,1.22,A,,V*4E
$PLCJE8FC8,69A6,2A00,2162,00,*75
$HCHDG,205.49,,,0.55,E*23
$HCHDG,207.00,,,,*77
$TIROT,0.41,A*0E
$TIROT,-0.33,A*26
$YXXDR,A,0.22,D,Pitch,A,0.24,D,Roll*32
$YXXDR,D,0.20,M,Heave*05
$AGRSA,1.26,A,,V*4A
$IIMWV,135.0,R,004.8,N,A*36
$HCHDG,205.49,,,0.55,E*23
$HCHDG,207.00,,,,*77
$TIROT,0.98,A*0A
$TIROT,-0.97,A*28
$YXXDR,A,0.20,D,Pitch,A,0.27,D,Roll*33
$YXXDR,D,0.20,M,Heave*05
$AGRSA,1.22,A,,V*4E
$HCHDG,205.49,,,0.55,E*23
$HCHDG,207.00,,,,*77
$TIROT,0.17,A*0D
$TIROT,-0.10,A*27
$WIXDR,C,008.0,C,,*5A
$YXXDR,A,0.20,D,Pitch,A,0.26,D,Roll*32
$YXXDR,D,0.20,M,Heave*05
$AGRSA,1.26,A,,V*4A
$HCHDG,205.48,,,0.55,E*22
$HCHDG,207.01,,,,*76
$TIROT,1.13,A*08
$TIROT,-0.80,A*2E
$YXXDR,A,0.21,D,Pitch,A,0.21,D,Roll*34
$YXXDR,D,0.20,M,Heave*05
$AGRSA,1.22,A,,V*4E
$PLCJ,63EA,6707,AA,6382,A1A2*32
$HCHDG,205.49,,,0.55,E*23
$HCHDG,207.01,,,,*76
$TIROT,0.35,A*0D
$TIROT,0.55,A*0B
$YXXDR,A,0.21,D,Pitch,A,0.22,D,Roll*37
$YXXDR,D,0.20,M,Heave*05
!AIVDM,1,1,,B,B3I6oJ000?tLq7VjiN@dkwPUoP06,0*60
$VDVBW,0.00,,A,,,A,,A,,A*4F
$AGRSA,1.26,A,,V*4A
$YXXDR,A,-10.42,D,Pitch,A,-0.22,D,Roll*03
$GPRMC,130201.200,A,4735.66049,N,00258.87348,W,0.00,,201125,0.55,E,A*38
$HCHDG,205.49,,,0.55,E*23
$HCHDG,207.01,,,,*76
$TIROT,1.76,A*0B
$TIROT,-1.33,A*27
$PLCJE8FC8,69A6,2A00,2162,00,*75
$YXXDR,A,0.20,D,Pitch,A,0.27,D,Roll*33
$YXXDR,D,0.20,M,Heave*05
$AGRSA,1.26,A,,V*4A
$HCHDG,205.49,,,0.55,E*23
$HCHDG,207.00,,,,*77
$TIROT,-1.12,A*24
$TIROT,-1.13,A*25
$VWVHW,,T,,M,0.00,N,0.00,K*54
$IIMWV,138.0,R,005.3,N,A*31
$YXXDR,A,0.19,D,Pitch,A,0.28,D,Roll*36
$YXXDR,D,0.20,M,Heave*05
$AGRSA,1.26,A,,V*4A
$VWVLW,7525.53,N,7525.53,N*4C
$HCHDG,205.49,,,0.55,E*23
$HCHDG,207.00,,,,*77
$TIROT,0.60,A*0D
$TIROT,0.15,A*0F
$YXXDR,A,0.21,D,Pitch,A,0.25,D,Roll*30
$YXXDR,D,0.20,M,Heave*05
$AGRSA,1.26,A,,V*4A
$WIXDR,C,008.0,C,,*5A
!AIVDM,1,1,,A,33IJop0000wiTRrK5pk>46r221qh,0*53
$HCHDG,205.49,,,0.55,E*23
$HCHDG,207.00,,,,*77
$TIROT,0.56,A*08
$TIROT,0.42,A*0D
$YXXDR,A,0.22,D,Pitch,A,0.22,D,Roll*34
$YXXDR,D,0.20,M,Heave*05
$GPRMC,130201.000,A,4735.66035,N,00258.87029,W,0.00,,201125,,,D*6B
$AGRSA,1.26,A,,V*4A
$WIMTW,7.66,C*0A
$PLCJ,63EC,6805,AA,6273,A1A2*32
$HCHDG,205.49,,,0.55,E*23
$HCHDG,207.00,,,,*77
$TIROT,-1.73,A*23
$TIROT,0.00,A*0B
$YXXDR,A,0.21,D,Pitch,A,0.21,D,Roll*34
$YXXDR,D,0.20,M,Heave*05
$VDVBW,0.00,,A,,,A,,A,,A*4F
$AGRSA,1.26,A,,V*4A
$HCHDG,205.48,,,0.55,E*22
$HCHDG,207.00,,,,*77
$TIROT,0.36,A*0E
$TIROT,-0.82,A*2C
$YXXDR,A,0.23,D,Pitch,A,0.28,D,Roll*3F
$PLCJE8FC8,69A6,2A00,2162,00,*75
$YXXDR,D,0.20,M,Heave*05
$AGRSA,1.26,A,,V*4A
$HCHDG,205.48,,,0.55,E*22
$HCHDG,207.00,,,,*77
$TIROT,-0.28,A*2C
$TIROT,0.10,A*0A
$YXXDR,A,0.21,D,Pitch,A,0.28,D,Roll*3D
$YXXDR,D,0.20,M,Heave*05
$AGRSA,1.22,A,,V*4E
$IIMWV,139.0,R,005.5,N,A*36
$HCHDG,205.48,,,0.55,E*22
$HCHDG,207.00,,,,*77
$TIROT,-2.11,A*24
$TIROT,0.02,A*09
$YXXDR,A,0.21,D,Pitch,A,0.24,D,Roll*31
$YXXDR,D,0.20,M,Heave*05
$AGRSA,1.26,A,,V*4A
$WIXDR,C,008.0,C,,*5A
$HCHDG,205.48,,,0.55,E*22
$HCHDG,207.00,,,,*77
$TIROT,-1.07,A*20
$TIROT,1.30,A*09
$YXXDR,A,0.21,D,Pitch,A,0.24,D,Roll*31
$YXXDR,D,0.20,M,Heave*05
$AGRSA,1.26,A,,V*4A
$HCHDG,205.48,,,0.55,E*22
$HCHDG,207.00,,,,*77
$TIROT,1.34,A*0D
$TIROT,0.60,A*0D
$PLCJ,63ED,6805,AA,8363,91A2*43
$YXXDR,A,0.19,D,Pitch,A,0.27,D,Roll*39
$YXXDR,D,0.20,M,Heave*05
$VDVBW,0.00,,A,,,A,,A,,A*4F
$AGRSA,1.22,A,,V*4E
$YXXDR,A,-10.41,D,Pitch,A,-0.22,D,Roll*00
!AIVDM,1,1,,B,B3Hsqi000?tRIv6kb6P03wPWkP06,0*76
$GPRMC,130202.201,A,4735.66046,N,00258.87350,W,0.00,,201125,0.55,E,A*3C
$HCHDG,205.48,,,0.55,E*22
$HCHDG,207.00,,,,*77
$TIROT,-0.33,A*26
$TIROT,0.93,A*01
$YXXDR,A,0.21,D,Pitch,A,0.26,D,Roll*33
$YXXDR,D,0.20,M,Heave*05
$AGRSA,1.26,A,,V*4A
$PLCJE8FC8,69A6,2A00,2162,00,*75
$HCHDG,205.47,,,0.55,E*2D
$HCHDG,207.00,,,,*77
$TIROT,1.08,A*02
$TIROT,-0.04,A*22
$VWVHW,,T,,M,0.00,N,0.00,K*54
$YXXDR,A,0.19,D,Pitch,A,0.25,D,Roll*3B
$YXXDR,D,0.20,M,Heave*05
$AGRSA,1.26,A,,V*4A
$VWVLW,7525.53,N,7525.53,N*4C
$IIMWV,137.0,R,005.9,N,A*34
$HCHDG,205.47,,,0.55,E*2D
$HCHDG,207.00,,,,*77
$TIROT,0.26,A*0F
$TIROT,1.57,A*08
$YXXDR,A,0.20,D,Pitch,A,0.25,D,Roll*31
$YXXDR,D,0.20,M,Heave*05
$AGRSA,1.26,A,,V*4A
$HCHDG,205.47,,,0.55,E*2D
$HCHDG,207.00,,,,*77
$TIROT,1.07,A*0D
$TIROT,0.22,A*0B
$WIXDR,C,008.0,C,,*5A
$YXXDR,A,0.20,D,Pitch,A,0.26,D,Roll*32
$YXXDR,D,0.20,M,Heave*05
$GPRMC,130202.000,A,4735.66016,N,00258.87029,W,0.00,,201125,,,D*69
$AGRSA,1.26,A,,V*4A
$WIMTW,7.66,C*0A
$HCHDG,205.47,,,0.55,E*2D
$HCHDG,207.00,,,,*77
$TIROT,0.23,A*0A
$TIROT,0.90,A*02
$YXXDR,A,0.20,D,Pitch,A,0.26,D,Roll*32
$YXXDR,D,0.20,M,Heave*05
$VDVBW,0.00,,A,,,A,,A,,A*4F
$AGRSA,1.26,A,,V*4A
$PLCJ,62F0,6901,AA,6363,92C3*3E
$HCHDG,205.47,,,0.55,E*2D
$HCHDG,207.00,,,,*77
$TIROT,0.29,A*00
$TIROT,0.80,A*03
$YXXDR,A,0.22,D,Pitch,A,0.26,D,Roll*30
$YXXDR,D,0.20,M,Heave*05
$AGRSA,1.26,A,,V*4A
$PLCJE8FC8,69A6,2A00,2162,00,*75
$HCHDG,205.47,,,0.55,E*2D
$HCHDG,207.00,,,,*77
$TIROT,1.00,A*0A
$TIROT,-1.26,A*23
$YXXDR,A,0.20,D,Pitch,A,0.25,D,Roll*31
$YXXDR,D,0.20,M,Heave*05
$AGRSA,1.22,A,,V*4E
$HCHDG,205.47,,,0.55,E*2D
$HCHDG,207.00,,,,*77
$TIROT,0.17,A*0D
$TIROT,0.20,A*09
$IIMWV,134.0,R,006.2,N,A*3F
$YXXDR,A,0.20,D,Pitch,A,0.25,D,Roll*31
$YXXDR,D,0.20,M,Heave*05
$AGRSA,1.26,A,,V*4A
$HCHDG,205.47,,,0.55,E*2D
$HCHDG,207.00,,,,*77
$TIROT,0.12,A*08
$TIROT,-0.69,A*29
$YXXDR,A,0.19,D,Pitch,A,0.25,D,Roll*3B
$YXXDR,D,0.20,M,Heave*05
$WIXDR,C,008.0,C,,*5A
$AGRSA,1.26,A,,V*4A
$HCHDG,205.47,,,0.55,E*2D
$HCHDG,207.00,,,,*77
$TIROT,-0.02,A*24
$TIROT,0.65,A*08
$YXXDR,A,0.20,D,Pitch,A,0.26,D,Roll*32
$YXXDR,D,0.20,M,Heave*05
$YXXDR,A,-10.43,D,Pitch,A,-0.22,D,Roll*02
$VDVBW,0.00,,A,,,A,,A,,A*4F
$AGRSA,1.26,A,,V*4A
$PLCJ,62F0,6901,AA,8463,A3A3*4C
$GPRMC,130203.100,A,4735.66043,N,00258.87351,W,0.00,,201125,0.55,E,A*3B
$HCHDG,205.47,,,0.55,E*2D
$HCHDG,207.01,,,,*76
$TIROT,1.70,A*0D
$TIROT,-0.35,A*20
$YXXDR,A,0.22,D,Pitch,A,0.23,D,Roll*35
$YXXDR,D,0.20,M,Heave*05
$AGRSA,1.26,A,,V*4A
$HCHDG,205.48,,,0.55,E*22
$HCHDG,207.01,,,,*76
$TIROT,0.97,A*05
$TIROT,-1.51,A*23
$VWVHW,,T,,M,0.00,N,0.00,K*54
$PLCJE8FC8,69A6,2A00,2162,00,*75
$YXXDR,A,0.21,D,Pitch,A,0.22,D,Roll*37
$YXXDR,D,0.20,M,Heave*05
$AGRSA,1.26,A,,V*4A
$VWVLW,7525.53,N,7525.53,N*4C
$HCHDG,205.47,,,0.55,E*2D
$HCHDG,207.01,,,,*76
$TIROT,0.01,A*0A
$TIROT,-1.56,A*24
$YXXDR,A,0.21,D,Pitch,A,0.28,D,Roll*3D
$YXXDR,D,0.20,M,Heave*05
$AGRSA,1.22,A,,V*4E
$IIMWV,132.0,R,006.2,N,A*39
!AIVDM,1,1,,A,402:nwQvVr=22Om<erK:bF?00H28,0*2C
$HCHDG,205.47,,,0.55,E*2D
$HCHDG,207.00,,,,*77
$TIROT,-0.05,A*23
$TIROT,-2.21,A*27
$YXXDR,A,0.21,D,Pitch,A,0.29,D,Roll*3C
$YXXDR,D,0.20,M,Heave*05
$GPRMC,130203.000,A,4735.66016,N,00258.87029,W,0.00,,201125,,,D*68
$AGRSA,1.26,A,,V*4A
$WIMTW,7.66,C*0A
!AIVDM,1,1,,A,13IU>pP=AeOj6TbK9Hu<COv2082;,0*20
$WIXDR,C,008.0,C,,*5A
$HCHDG,205.47,,,0.55,E*2D
$HCHDG,207.00,,,,*77
$TIROT,1.32,A*0B
$TIROT,-0.06,A*20
$YXXDR,A,0.22,D,Pitch,A,0.25,D,Roll*33
$YXXDR,D,0.20,M,Heave*05
$VDVBW,0.00,,A,,,A,,A,,A*4F
$AGRSA,1.22,A,,V*4E
$HCHDG,205.47,,,0.55,E*2D
$HCHDG,207.00,,,,*77
$TIROT,0.70,A*0C
$TIROT,0.13,A*09
$PLCJ,63ED,6806,AA,7374,92C2*48
$YXXDR,A,0.22,D,Pitch,A,0.22,D,Roll*34
$YXXDR,D,0.20,M,Heave*05
$AGRSA,1.26,A,,V*4A
$HCHDG,205.47,,,0.55,E*2D
$HCHDG,207.00,,,,*77
$TIROT,0.49,A*06
$TIROT,0.59,A*07
$YXXDR,A,0.20,D,Pitch,A,0.24,D,Roll*30
$YXXDR,D,0.20,M,Heave*05
$AGRSA,1.22,A,,V*4E
$PLCJE8FC8,69A6,2A00,2162,00,*75
$HCHDG,205.47,,,0.55,E*2D
$HCHDG,207.00,,,,*77
$TIROT,0.16,A*0C
$TIROT,0.85,A*06
$YXXDR,A,0.21,D,Pitch,A,0.24,D,Roll*31
$YXXDR,D,0.20,M,Heave*05
$AGRSA,1.26,A,,V*4A
$IIMWV,131.0,R,006.6,N,A*3E
$HCHDG,205.47,,,0.55,E*2D
$HCHDG,207.00,,,,*77
$TIROT,-0.02,A*24
$TIROT,0.37,A*0F
$YXXDR,A,0.20,D,Pitch,A,0.26,D,Roll*32
$YXXDR,D,0.20,M,Heave*05
$AGRSA,1.26,A,,V*4A
$HCHDG,205.47,,,0.55,E*2D
$HCHDG,207.00,,,,*77
$TIROT,-0.10,A*27
$TIROT,0.41,A*0E
!AIVDM,1,1,,A,13I?rj0=Aewj@76K9fe9Qwv62@2O,0*1E
$WIXDR,C,008.0,C,,*5A
$YXXDR,A,0.21,D,Pitch,A,0.25,D,Roll*30
$YXXDR,D,0.20,M,Heave*05
$VDVBW,0.00,,A,,,A,,A,,A*4F
$AGRSA,1.22,A,,V*4E
$YXXDR,A,-10.42,D,Pitch,A,-0.23,D,Roll*02
$GPRMC,130204.198,A,4735.66044,N,00258.87350,W,0.00,,201125,0.55,E,A*3B
$HCHDG,205.47,,,0.55,E*2D
$HCHDG,207.00,,,,*77
$TIROT,0.98,A*0A
$TIROT,0.01,A*0A
$YXXDR,A,0.20,D,Pitch,A,0.25,D,Roll*31
$YXXDR,D,0.20,M,Heave*05
$AGRSA,1.22,A,,V*4E
$PLCJ,61F2,6901,AA,7383,93C3*31
$HCHDG,205.47,,,0.55,E*2D
$HCHDG,207.00,,,,*77
$TIROT,0.11,A*0B
$TIROT,0.75,A*09
$VWVHW,,T,,M,0.00,N,0.00,K*54
$YXXDR,A,0.19,D,Pitch,A,0.24,D,Roll*3A
$YXXDR,D,0.20,M,Heave*05
$AGRSA,1.22,A,,V*4E
$VWVLW,7525.53,N,7525.53,N*4C
$PLCJE8FC8,69A6,2A00,2162,00,*75
$HCHDG,205.47,,,0.55,E*2D
$HCHDG,207.01,,,,*76
$TIROT,0.22,A*0B
$TIROT,0.50,A*0E
$YXXDR,A,0.21,D,Pitch,A,0.25,D,Roll*30
$YXXDR,D,0.20,M,Heave*05
$AGRSA,1.26,A,,V*4A
$HCHDG,205.47,,,0.55,E*2D
$HCHDG,207.00,,,,*77
$TIROT,0.02,A*09
$TIROT,1.56,A*09
$IIMWV,129.0,R,006.9,N,A*38
$YXXDR,A,0.20,D,Pitch,A,0.25,D,Roll*31
$YXXDR,D,0.20,M,Heave*05
$AGRSA,1.26,A,,V*4A
$WIMTW,7.67,C*0B
$GPRMC,130204.000,A,4735.65996,N,00258.87018,W,0.00,,201125,,,D*6F
$HCHDG,205.47,,,0.55,E*2D
$HCHDG,207.01,,,,*76
$TIROT,0.54,A*0A
$TIROT,0.55,A*0B
$YXXDR,A,0.23,D,Pitch,A,0.24,D,Roll*33
$YXXDR,D,0.20,M,Heave*05
$WIXDR,C,008.0,C,,*5A
$VDVBW,0.00,,A,,,A,,A,,A*4F
$AGRSA,1.22,A,,V*4E
$HCHDG,205.47,,,0.55,E*2D
$HCHDG,207.01,,,,*76
$TIROT,-0.14,A*23
$TIROT,0.83,A*00
$YXXDR,A,0.21,D,Pitch,A,0.24,D,Roll*31
$YXXDR,D,0.20,M,Heave*05
$AGRSA,1.26,A,,V*4A
$PLCJ,5FF9,6AFF,AA,7282,A3A3*4D
$HCHDG,205.47,,,0.55,E*2D
$HCHDG,207.01,,,,*76
$TIROT,0.52,A*0C
$TIROT,0.70,A*0C
$YXXDR,A,0.22,D,Pitch,A,0.26,D,Roll*30
$YXXDR,D,0.20,M,Heave*05
$AGRSA,1.26,A,,V*4A
$HCHDG,205.47,,,0.55,E*2D
$HCHDG,207.01,,,,*76
$TIROT,0.02,A*09
$TIROT,0.37,A*0F
!AIVDM,1,1,,B,33IJop0=@0wiTRrK5pk>46r820s@,0*0C
$PLCJE8FC8,69A6,2A00,2162,00,*75
$YXXDR,A,0.22,D,Pitch,A,0.27,D,Roll*31
$YXXDR,D,0.20,M,Heave*05
$AGRSA,1.26,A,,V*4A
$HCHDG,205.47,,,0.55,E*2D
$HCHDG,207.01,,,,*76
$TIROT,0.56,A*08
$TIROT,0.11,A*0B
$YXXDR,A,0.20,D,Pitch,A,0.25,D,Roll*31
$YXXDR,D,0.20,M,Heave*05
$AGRSA,1.22,A,,V*4E
$IIMWV,123.0,R,006.6,N,A*3D
$HCHDG,205.47,,,0.55,E*2D
$HCHDG,207.01,,,,*76
$TIROT,0.26,A*0F
$TIROT,0.42,A*0D
$YXXDR,A,0.21,D,Pitch,A,0.24,D,Roll*31
$YXXDR,D,0.20,M,Heave*05
$VDVBW,0.00,,A,,,A,,A,,A*4F
$AGRSA,1.22,A,,V*4E
$YXXDR,A,-10.43,D,Pitch,A,-0.23,D,Roll*03
$WIXDR,C,008.0,C,,*5A
$GPRMC,130205.200,A,4735.66046,N,00258.87353,W,0.00,,201125,0.55,E,A*39
$HCHDG,205.47,,,0.55,E*2D
$HCHDG,207.01,,,,*76
$TIROT,0.03,A*08
$TIROT,-0.03,A*25
$YXXDR,A,0.20,D,Pitch,A,0.24,D,Roll*30
$YXXDR,D,0.20,M,Heave*05
$AGRSA,1.26,A,,V*4A
$HCHDG,205.47,,,0.55,E*2D
$HCHDG,207.00,,,,*77
$TIROT,0.63,A*0E
$TIROT,-0.23,A*27
$VWVHW,,T,,M,0.00,N,0.00,K*54
$PLCJ,6210,67EA,3C,9382,7191*47
$YXXDR,A,0.19,D,Pitch,A,0.26,D,Roll*38
$YXXDR,D,0.20,M,Heave*05
$AGRSA,1.22,A,,V*4E
$VWVLW,7525.53,N,7525.53,N*4C
$HCHDG,205.47,,,0.55,E*2D
$HCHDG,207.00,,,,*77
$TIROT,0.76,A*0A
$TIROT,0.76,A*0A
$YXXDR,A,0.22,D,Pitch,A,0.25,D,Roll*33
$YXXDR,D,0.20,M,Heave*05
$AGRSA,1.22,A,,V*4E
$PLCJE8FC8,69A6,2A00,2162,00,*75
$HCHDG,205.47,,,0.55,E*2D
$HCHDG,207.01,,,,*76
$TIROT,0.35,A*0D
$TIROT,-0.28,A*2C
!AIVDM,1,1,,A,B3MCooP0?7tSDu6kCO883wRQh5`8,0*34
$YXXDR,A,0.20,D,Pitch,A,0.24,D,Roll*30
$YXXDR,D,0.20,M,Heave*05
$AGRSA,1.26,A,,V*4A
$WIMTW,7.67,C*0B
$IIMWV,118.0,R,006.2,N,A*31
$GPRMC,130205.000,A,4735.65996,N,00258.87018,W,0.00,,201125,,,D*6E
$HCHDG,205.47,,,0.55,E*2D
$HCHDG,207.01,,,,*76
$TIROT,0.67,A*0A
$TIROT,-0.05,A*23
$YXXDR,A,0.20,D,Pitch,A,0.25,D,Roll*31
$YXXDR,D,0.20,M,Heave*05
$VDVBW,0.00,,A,,,A,,A,,A*4F
$AGRSA,1.26,A,,V*4A
$HCHDG,205.47,,,0.55,E*2D
$HCHDG,207.00,,,,*77
$TIROT,1.60,A*0C
$TIROT,-1.14,A*22
$WIXDR,C,008.0,C,,*5A
$YXXDR,A,0.20,D,Pitch,A,0.28,D,Roll*3C
$YXXDR,D,0.20,M,Heave*05
$AGRSA,1.26,A,,V*4A
$HCHDG,205.47,,,0.55,E*2D
$HCHDG,207.00,,,,*77
$TIROT,1.00,A*0A
$TIROT,0.84,A*07
$YXXDR,A,0.20,D,Pitch,A,0.26,D,Roll*32
$YXXDR,D,0.20,M,Heave*05
$AGRSA,1.22,A,,V*4E
$PLCJ,630E,67E8,3C,9393,8190*45
$HCHDG,205.47,,,0.55,E*2D
$HCHDG,207.00,,,,*77
$TIROT,0.98,A*0A
$TIROT,1.52,A*0D
$YXXDR,A,0.22,D,Pitch,A,0.25,D,Roll*33
$YXXDR,D,0.20,M,Heave*05
$AGRSA,1.26,A,,V*4A
$PLCJE8FC8,69A6,2A00,2162,00,*75
$HCHDG,205.47,,,0.55,E*2D
$HCHDG,207.01,,,,*76
$TIROT,-0.08,A*2E
$TIROT,0.52,A*0C
$YXXDR,A,0.21,D,Pitch,A,0.23,D,Roll*36
$YXXDR,D,0.20,M,Heave*05
$AGRSA,1.22,A,,V*4E
$HCHDG,205.47,,,0.55,E*2D
$HCHDG,207.01,,,,*76
$TIROT,0.37,A*0F
$TIROT,-0.52,A*21
$IIMWV,115.0,R,006.2,N,A*3C
$YXXDR,A,0.21,D,Pitch,A,0.25,D,Roll*30
$YXXDR,D,0.20,M,Heave*05
$VDVBW,0.00,,A,,,A,,A,,A*4F
$AGRSA,1.26,A,,V*4A
$YXXDR,A,-10.42,D,Pitch,A,-0.22,D,Roll*03
$GPRMC,130206.201,A,4735.66047,N,00258.87353,W,0.00,,201125,0.55,E,A*3A
$HCHDG,205.47,,,0.55,E*2D
$HCHDG,207.00,,,,*77
$TIROT,-0.76,A*27
$TIROT,1.32,A*0B
$YXXDR,A,0.18,D,Pitch,A,0.28,D,Roll*37
$YXXDR,D,0.20,M,Heave*05
$WIXDR,C,008.0,C,,*5A
$AGRSA,1.22,A,,V*4E
$HCHDG,205.47,,,0.55,E*2D
$HCHDG,207.01,,,,*76
$TIROT,0.80,A*03
$TIROT,1.05,A*0F
$VWVHW,,T,,M,0.00,N,0.00,K*54
$YXXDR,A,0.18,D,Pitch,A,0.25,D,Roll*3A
$YXXDR,D,0.20,M,Heave*05
$AGRSA,1.26,A,,V*4A
$VWVLW,7525.53,N,7525.53,N*4C
$PLCJ,630B,67EA,3C,92C3,9281*42
$HCHDG,205.47,,,0.55,E*2D
$HCHDG,207.01,,,,*76
$TIROT,1.12,A*09
$TIROT,-0.70,A*21
$YXXDR,A,0.20,D,Pitch,A,0.22,D,Roll*36
$YXXDR,D,0.20,M,Heave*05
$AGRSA,1.22,A,,V*4E
$HCHDG,205.47,,,0.55,E*2D
$HCHDG,207.01,,,,*76
$TIROT,0.35,A*0D
$TIROT,-0.19,A*2E
$PLCJE8FC8,69A6,2A00,2162,00,*75
$YXXDR,A,0.19,D,Pitch,A,0.22,D,Roll*3C
$YXXDR,D,0.20,M,Heave*05
$AGRSA,1.26,A,,V*4A
$WIMTW,7.67,C*0B
$GPRMC,130206.000,A,4735.65996,N,00258.87009,W,0.00,,201125,,,D*6D
$HCHDG,205.47,,,0.55,E*2D
$HCHDG,207.00,,,,*77
$TIROT,0.69,A*04
$TIROT,-2.06,A*22
$YXXDR,A,0.21,D,Pitch,A,0.26,D,Roll*33
$YXXDR,D,0.20,M,Heave*05
$VDVBW,0.00,,A,,,A,,A,,A*4F
$AGRSA,1.26,A,,V*4A
$IIMWV,116.0,R,006.3,N,A*3E
$HCHDG,205.47,,,0.55,E*2D
$HCHDG,207.00,,,,*77
$TIROT,0.75,A*09
$TIROT,0.69,A*04
$YXXDR,A,0.20,D,Pitch,A,0.27,D,Roll*33
$YXXDR,D,0.20,M,Heave*05
$AGRSA,1.26,A,,V*4A
$WIXDR,C,008.0,C,,*5A
$HCHDG,205.47,,,0.55,E*2D
$HCHDG,207.00,,,,*77
$TIROT,0.41,A*0E
$TIROT,-0.02,A*24
$YXXDR,A,0.20,D,Pitch,A,0.25,D,Roll*31
$YXXDR,D,0.20,M,Heave*05
$AGRSA,1.26,A,,V*4A
$HCHDG,205.47,,,0.55,E*2D
$HCHDG,207.00,,,,*77
$TIROT,1.28,A*00
$TIROT,0.05,A*0E
$PLCJ,6505,67EA,3C,83C1,9292*33
$YXXDR,A,0.20,D,Pitch,A,0.24,D,Roll*30
$YXXDR,D,0.20,M,Heave*05
$AGRSA,1.26,A,,V*4A
$HCHDG,205.47,,,0.55,E*2D
$HCHDG,207.00,,,,*77
$TIROT,0.96,A*04
$TIROT,-0.29,A*2D
$YXXDR,A,0.21,D,Pitch,A,0.26,D,Roll*33
$YXXDR,D,0.20,M,Heave*05
$AGRSA,1.22,A,,V*4E
$PLCJE8FC8,69A6,2A00,2162,00,*75
$HCHDG,205.47,,,0.55,E*2D
$HCHDG,207.00,,,,*77
$TIROT,0.97,A*05
$TIROT,-0.97,A*28
$YXXDR,A,0.21,D,Pitch,A,0.24,D,Roll*31
$YXXDR,D,0.20,M,Heave*05
$VDVBW,0.00,,A,,,A,,A,,A*4F
$AGRSA,1.22,A,,V*4E
$YXXDR,A,-10.43,D,Pitch,A,-0.23,D,Roll*03
$IIMWV,120.0,R,006.5,N,A*3D
$GPRMC,130207.200,A,4735.66049,N,00258.87354,W,0.00,,201125,0.55,E,A*33
$HCHDG,205.47,,,0.55,E*2D
$HCHDG,207.00,,,,*77
$TIROT,0.60,A*0D
$TIROT,-0.95,A*2A
$YXXDR,A,0.21,D,Pitch,A,0.24,D,Roll*31
$YXXDR,D,0.20,M,Heave*05
$AGRSA,1.22,A,,V*4E
$HCHDG,205.47,,,0.55,E*2D
$HCHDG,207.00,,,,*77
$TIROT,0.64,A*09
$TIROT,-1.09,A*2E
$VWVHW,,T,,M,0.00,N,0.00,K*54
$WIXDR,C,008.0,C,,*5A
$YXXDR,A,0.20,D,Pitch,A,0.25,D,Roll*31
$YXXDR,D,0.20,M,Heave*05
$AGRSA,1.26,A,,V*4A
$VWVLW,7525.53,N,7525.53,N*4C
$HCHDG,205.47,,,0.55,E*2D
$HCHDG,207.00,,,,*77
$TIROT,0.99,A*0B
$TIROT,0.78,A*04
$YXXDR,A,0.20,D,Pitch,A,0.25,D,Roll*31
$YXXDR,D,0.20,M,Heave*05
$AGRSA,1.22,A,,V*4E
$PLCJ,640A,67E8,3C,82A3,A191*46
$HCHDG,205.47,,,0.55,E*2D
$HCHDG,207.00,,,,*77
$TIROT,0.91,A*03
$TIROT,0.56,A*08
$YXXDR,A,0.20,D,Pitch,A,0.25,D,Roll*31
$YXXDR,D,0.20,M,Heave*05
$AGRSA,1.26,A,,V*4A
$WIMTW,7.67,C*0B
$PLCJE8FC8,69A6,2A00,2162,00,*75
$GPRMC,130207.000,A,4735.65996,N,00258.86999,W,0.00,,201125,,,D*6D
$HCHDG,205.47,,,0.55,E*2D
$HCHDG,207.00,,,,*77
$TIROT,0.59,A*07
$TIROT,-0.20,A*24
$YXXDR,A,0.21,D,Pitch,A,0.25,D,Roll*30
$YXXDR,D,0.20,M,Heave*05
$VDVBW,0.00,,A,,,A,,A,,A*4F
$AGRSA,1.26,A,,V*4A
$HCHDG,205.47,,,0.55,E*2D
$HCHDG,207.00,,,,*77
$TIROT,0.39,A*01
$TIROT,-0.46,A*24
$IIMWV,122.0,R,006.8,N,A*32
$YXXDR,A,0.21,D,Pitch,A,0.24,D,Roll*31
$YXXDR,D,0.20,M,Heave*05
$AGRSA,1.22,A,,V*4E
$HCHDG,205.47,,,0.55,E*2D
$HCHDG,207.00,,,,*77
$TIROT,0.58,A*06
$TIROT,1.00,A*0A
$YXXDR,A,0.21,D,Pitch,A,0.24,D,Roll*31
$YXXDR,D,0.20,M,Heave*05
$WIXDR,C,008.0,C,,*5A
$AGRSA,1.26,A,,V*4A
$HCHDG,205.47,,,0.55,E*2D
$HCHDG,207.01,,,,*76
$TIROT,-1.49,A*2A
$TIROT,1.07,A*0D
$YXXDR,A,0.21,D,Pitch,A,0.25,D,Roll*30
$YXXDR,D,0.20,M,Heave*05
$AGRSA,1.26,A,,V*4A
$PLCJ,630D,68E7,3C,82A4,90A0*43
$HCHDG,205.47,,,0.55,E*2D
$HCHDG,207.01,,,,*76
$TIROT,-0.04,A*22
$TIROT,0.56,A*08
$YXXDR,A,0.20,D,Pitch,A,0.28,D,Roll*3C
$YXXDR,D,0.20,M,Heave*05
$AGRSA,1.26,A,,V*4A
$HCHDG,205.47,,,0.55,E*2D
$HCHDG,207.01,,,,*76
$TIROT,0.86,A*05
$TIROT,0.24,A*0D
$PLCJE8FC8,69A6,2A00,2162,00,*75
$YXXDR,A,0.22,D,Pitch,A,0.27,D,Roll*31
$YXXDR,D,0.20,M,Heave*05
$VDVBW,0.00,,A,,,A,,A,,A*4F
$AGRSA,1.26,A,,V*4A
$YXXDR,A,-10.43,D,Pitch,A,-0.23,D,Roll*03
$GPRMC,130208.198,A,4735.66052,N,00258.87356,W,0.00,,201125,0.55,E,A*36
$HCHDG,205.47,,,0.55,E*2D
$HCHDG,207.01,,,,*76
$TIROT,0.59,A*07
$TIROT,-0.35,A*20
$YXXDR,A,0.21,D,Pitch,A,0.24,D,Roll*31
$YXXDR,D,0.20,M,Heave*05
$AGRSA,1.22,A,,V*4E
$IIMWV,123.0,R,007.1,N,A*3B
$HCHDG,205.47,,,0.55,E*2D
$HCHDG,207.00,,,,*77
$TIROT,0.51,A*0F
$TIROT,1.21,A*09
$VWVHW,,T,,M,0.00,N,0.00,K*54
$YXXDR,A,0.21,D,Pitch,A,0.24,D,Roll*31
$YXXDR,D,0.20,M,Heave*05
$AGRSA,1.26,A,,V*4A
$VWVLW,7525.53,N,7525.53,N*4C
$WIXDR,C,008.0,C,,*5A
$HCHDG,205.47,,,0.55,E*2D
$HCHDG,207.00,,,,*77
$TIROT,0.15,A*0F
$TIROT,1.15,A*0E
$YXXDR,A,0.20,D,Pitch,A,0.26,D,Roll*32
$YXXDR,D,0.20,M,Heave*05
$AGRSA,1.26,A,,V*4A
$HCHDG,205.47,,,0.55,E*2D
$HCHDG,207.00,,,,*77
$TIROT,-0.80,A*2E
$TIROT,0.09,A*02
$PLCJ,630A,68E4,3C,9193,92A1*3B
$YXXDR,A,0.18,D,Pitch,A,0.27,D,Roll*38
$YXXDR,D,0.20,M,Heave*05
!AIVDM,1,1,,A,33IQ4L1409wia4rK5diWTpJH0Dbb,0*05
$AGRSA,1.26,A,,V*4A
$WIMTW,7.67,C*0B
$HCHDG,205.46,,,0.55,E*2C
$HCHDG,207.00,,,,*77
$TIROT,0.59,A*07
$TIROT,0.32,A*0A
$YXXDR,A,0.19,D,Pitch,A,0.26,D,Roll*38
$YXXDR,D,0.20,M,Heave*05
$GPRMC,130208.000,A,4735.65977,N,00258.86988,W,0.00,,201125,,,D*6D
$VDVBW,0.00,,A,,,A,,A,,A*4F
$AGRSA,1.26,A,,V*4A
$PLCJE8FC8,69A6,2A00,2162,00,*75
$HCHDG,205.46,,,0.55,E*2C
$HCHDG,207.00,,,,*77
$TIROT,0.22,A*0B
$TIROT,-0.65,A*25
$YXXDR,A,0.20,D,Pitch,A,0.24,D,Roll*30
$YXXDR,D,0.20,M,Heave*05
$AGRSA,1.26,A,,V*4A
$IIMWV,123.0,R,007.4,N,A*3E
$HCHDG,205.47,,,0.55,E*2D
$HCHDG,207.00,,,,*77
$TIROT,-0.42,A*20
$TIROT,0.55,A*0B
$YXXDR,A,0.20,D,Pitch,A,0.23,D,Roll*37
$YXXDR,D,0.20,M,Heave*05
$AGRSA,1.26,A,,V*4A
$HCHDG,205.47,,,0.55,E*2D
$HCHDG,207.00,,,,*77
$TIROT,1.51,A*0E
$TIROT,0.41,A*0E
$WIXDR,C,008.0,C,,*5A
$YXXDR,A,0.21,D,Pitch,A,0.22,D,Roll*37
$YXXDR,D,0.20,M,Heave*05
$AGRSA,1.22,A,,V*4E
$HCHDG,205.47,,,0.55,E*2D
$HCHDG,207.00,,,,*77
$TIROT,0.40,A*0F
$TIROT,0.23,A*0A
$YXXDR,A,0.20,D,Pitch,A,0.24,D,Roll*30
$YXXDR,D,0.20,M,Heave*05
$AGRSA,1.26,A,,V*4A
$PLCJ,6406,68E6,3C,A282,72A1*3C
$HCHDG,205.46,,,0.55,E*2C
$HCHDG,207.00,,,,*77
$TIROT,0.93,A*01
$TIROT,-1.03,A*24
$YXXDR,A,0.19,D,Pitch,A,0.26,D,Roll*38
$YXXDR,D,0.20,M,Heave*05
$VDVBW,0.00,,A,,,A,,A,,A*4F
$AGRSA,1.26,A,,V*4A
$YXXDR,A,-10.42,D,Pitch,A,-0.22,D,Roll*03
$PLCJE8FC8,69A6,2A00,2162,00,*75
$GPRMC,130209.200,A,4735.66053,N,00258.87357,W,0.00,,201125,0.55,E,A*35
$HCHDG,205.47,,,0.55,E*2D
$HCHDG,207.00,,,,*77
$TIROT,1.46,A*08
$TIROT,-0.67,A*27
$YXXDR,A,0.21,D,Pitch,A,0.26,D,Roll*33
$YXXDR,D,0.20,M,Heave*05
$AGRSA,1.22,A,,V*4E
$HCHDG,205.47,,,0.55,E*2D
$HCHDG,207.00,,,,*77
$TIROT,0.95,A*07
$TIROT,-0.31,A*24
$VWVHW,,T,,M,0.00,N,0.00,K*54
$IIMWV,127.0,R,007.8,N,A*36
$YXXDR,A,0.19,D,Pitch,A,0.24,D,Roll*3A
$YXXDR,D,0.20,M,Heave*05
$AGRSA,1.26,A,,V*4A
$VWVLW,7525.53,N,7525.53,N*4C
$HCHDG,205.47,,,0.55,E*2D
$HCHDG,207.00,,,,*77
$TIROT,1.54,A*0B
$TIROT,-0.28,A*2C
$YXXDR,A,0.21,D,Pitch,A,0.26,D,Roll*33
$YXXDR,D,0.20,M,Heave*05
$WIXDR,C,008.0,C,,*5A
$AGRSA,1.26,A,,V*4A
$HCHDG,205.47,,,0.55,E*2D
$HCHDG,207.00,,,,*77
$TIROT,-0.43,A*21
$TIROT,-0.42,A*20
$YXXDR,A,0.20,D,Pitch,A,0.27,D,Roll*33
$YXXDR,D,0.20,M,Heave*05
$AGRSA,1.22,A,,V*4E
$WIMTW,7.67,C*0B
$PLCJ,64E8,6804,AA,5281,C1A3*42
$HCHDG,205.47,,,0.55,E*2D
$HCHDG,207.00,,,,*77
$TIROT,0.70,A*0C
$TIROT,-0.48,A*2A
$YXXDR,A,0.21,D,Pitch,A,0.24,D,Roll*31
$YXXDR,D,0.20,M,Heave*05
$GPRMC,130209.000,A,4735.65977,N,00258.86988,W,0.00,,201125,,,D*6C
$VDVBW,0.00,,A,,,A,,A,,A*4F
$AGRSA,1.26,A,,V*4A
$HCHDG,205.47,,,0.55,E*2D
$HCHDG,207.00,,,,*77
$TIROT,0.15,A*0F
$TIROT,-0.02,A*24
$PLCJE8FC8,69A6,2A00,2162,00,*75
$YXXDR,A,0.21,D,Pitch,A,0.23,D,Roll*36
$YXXDR,D,0.20,M,Heave*05
$AGRSA,1.26,A,,V*4A
$HCHDG,205.47,,,0.55,E*2D
$HCHDG,207.00,,,,*77
$TIROT,0.61,A*0C
$TIROT,-0.81,A*2F
$YXXDR,A,0.20,D,Pitch,A,0.25,D,Roll*31
$YXXDR,D,0.20,M,Heave*05
$AGRSA,1.22,A,,V*4E
$IIMWV,127.0,R,008.4,N,A*35
$HCHDG,205.47,,,0.55,E*2D
$HCHDG,207.00,,,,*77
$TIROT,0.70,A*0C
$TIROT,-0.46,A*24
$YXXDR,A,0.20,D,Pitch,A,0.26,D,Roll*32
$YXXDR,D,0.20,M,Heave*05
$AGRSA,1.26,A,,V*4A
$WIXDR,C,008.0,C,,*5A
$HCHDG,205.47,,,0.55,E*2D
$HCHDG,207.00,,,,*77
$TIROT,0.09,A*02
$TIROT,0.19,A*03
$YXXDR,A,0.21,D,Pitch,A,0.24,D,Roll*31
$YXXDR,D,0.20,M,Heave*05
$AGRSA,1.22,A,,V*4E
$HCHDG,205.47,,,0.55,E*2D
$HCHDG,207.00,,,,*77
$TIROT,0.13,A*09
$TIROT,-0.77,A*26
!AIVDM,1,1,,B,402:nvAvVr=29OiEsbKAKB?00D0S,0*7D
$PLCJ,62EC,6902,AA,7282,A2A3*38
$YXXDR,A,0.21,D,Pitch,A,0.21,D,Roll*34
$YXXDR,D,0.20,M,Heave*05
$VDVBW,0.00,,A,,,A,,A,,A*4F
$AGRSA,1.22,A,,V*4E
$YXXDR,A,-10.42,D,Pitch,A,-0.22,D,Roll*03
$GPRMC,130210.201,A,4735.66052,N,00258.87357,W,0.00,,201125,0.55,E,A*3D
$HCHDG,205.47,,,0.55,E*2D
$HCHDG,207.00,,,,*77
$TIROT,0.38,A*00
$TIROT,-0.56,A*25
$YXXDR,A,0.20,D,Pitch,A,0.24,D,Roll*30
$YXXDR,D,0.20,M,Heave*05
$AGRSA,1.26,A,,V*4A
$PLCJE8FC8,69A6,2A00,2162,00,*75
$HCHDG,205.47,,,0.55,E*2D
$HCHDG,207.00,,,,*77
$TIROT,2.09,A*00
$TIROT,0.04,A*0F
$VWVHW,,T,,M,0.00,N,0.00,K*54
$YXXDR,A,0.21,D,Pitch,A,0.28,D,Roll*3D
$YXXDR,D,0.20,M,Heave*05
$AGRSA,1.22,A,,V*4E
$VWVLW,7525.53,N,7525.53,N*4C
$IIMWV,127.0,R,008.5,N,A*34
$HCHDG,205.47,,,0.55,E*2D
$HCHDG,207.00,,,,*77
$TIROT,0.59,A*07
$TIROT,-0.58,A*2B
$YXXDR,A,0.21,D,Pitch,A,0.25,D,Roll*30
$YXXDR,D,0.20,M,Heave*05
$AGRSA,1.26,A,,V*4A
$HCHDG,205.47,,,0.55,E*2D
$HCHDG,207.00,,,,*77
$TIROT,0.29,A*00
$TIROT,0.00,A*0B
$WIXDR,C,008.0,C,,*5A
$YXXDR,A,0.20,D,Pitch,A,0.24,D,Roll*30
$YXXDR,D,0.20,M,Heave*05
$AGRSA,1.26,A,,V*4A
$WIMTW,7.67,C*0B
$HCHDG,205.47,,,0.55,E*2D
$HCHDG,207.00,,,,*77
$TIROT,0.22,A*0B
$TIROT,-0.07,A*21
$YXXDR,A,0.20,D,Pitch,A,0.25,D,Roll*31
$YXXDR,D,0.20,M,Heave*05
$GPRMC,130210.000,A,4735.65977,N,00258.86988,W,0.00,,201125,,,D*64
$VDVBW,0.00,,A,,,A,,A,,A*4F
$AGRSA,1.26,A,,V*4A
$PLCJ,62EE,6803,AA,8373,A2A4*39
$HCHDG,205.47,,,0.55,E*2D
$HCHDG,207.00,,,,*77
$TIROT,0.88,A*0B
$TIROT,0.55,A*0B
$YXXDR,A,0.20,D,Pitch,A,0.24,D,Roll*30
$YXXDR,D,0.20,M,Heave*05
$AGRSA,1.26,A,,V*4A
$PLCJE8FC8,69A6,2A00,2162,00,*75
$HCHDG,205.47,,,0.55,E*2D
$HCHDG,207.00,,,,*77
$TIROT,1.92,A*01
$TIROT,-0.59,A*2A
$YXXDR,A,0.21,D,Pitch,A,0.25,D,Roll*30
$YXXDR,D,0.20,M,Heave*05
$AGRSA,1.26,A,,V*4A
$HCHDG,205.47,,,0.55,E*2D
$HCHDG,207.00,,,,*77
$TIROT,0.71,A*0D
$TIROT,-0.17,A*20
$IIMWV,127.0,R,008.3,N,A*32
$YXXDR,A,0.22,D,Pitch,A,0.28,D,Roll*3E
$YXXDR,D,0.20,M,Heave*05
$AGRSA,1.26,A,,V*4A
!AIVDM,1,1,,B,13IN18001eOika@K6n?cwIbD0D1u,0*76
$HCHDG,205.47,,,0.55,E*2D
$HCHDG,207.00,,,,*77
$TIROT,-0.86,A*28
$TIROT,0.15,A*0F
$YXXDR,A,0.21,D,Pitch,A,0.24,D,Roll*31
$YXXDR,D,0.20,M,Heave*05
$WIXDR,C,008.0,C,,*5A
$AGRSA,1.26,A,,V*4A
!AIVDM,1,1,,A,H3IUT;0l58TLuB085T000000000,2*0B
$HCHDG,205.47,,,0.55,E*2D
$HCHDG,207.00,,,,*77
$TIROT,1.09,A*03
$TIROT,-1.40,A*23
$YXXDR,A,0.21,D,Pitch,A,0.21,D,Roll*34
$YXXDR,D,0.20,M,Heave*05
$VDVBW,0.00,,A,,,A,,A,,A*4F
$AGRSA,1.22,A,,V*4E
$YXXDR,A,-10.43,D,Pitch,A,-0.24,D,Roll*04
$PLCJ,61F3,6901,AA,7373,C2A4*41
$GPRMC,130211.200,A,4735.66050,N,00258.87359,W,0.00,,201125,0.55,E,A*31
$HCHDG,205.47,,,0.55,E*2D
$HCHDG,207.00,,,,*77
$TIROT,0.07,A*0C
$TIROT,0.06,A*0D
!AIVDM,1,1,,B,33IJop0000wiTRpK5pk>47NF2200,0*01
$YXXDR,A,0.20,D,Pitch,A,0.25,D,Roll*31
$YXXDR,D,0.20,M,Heave*05
$AGRSA,1.26,A,,V*4A
$HCHDG,205.47,,,0.55,E*2D
$HCHDG,207.00,,,,*77
$TIROT,0.63,A*0E
$TIROT,-0.25,A*21
$VWVHW,,T,,M,0.00,N,0.00,K*54
$PLCJE8FC8,69A6,2A00,2162,00,*75
$YXXDR,A,0.20,D,Pitch,A,0.30,D,Roll*35
$YXXDR,D,0.20,M,Heave*05
$AGRSA,1.26,A,,V*4A
$VWVLW,7525.53,N,7525.53,N*4C
$HCHDG,205.47,,,0.55,E*2D
$HCHDG,207.00,,,,*77
$TIROT,-0.91,A*2E
$TIROT,-0.78,A*29
$YXXDR,A,0.22,D,Pitch,A,0.24,D,Roll*32
$YXXDR,D,0.20,M,Heave*05
$IIMWV,124.0,R,008.1,N,A*33
$AGRSA,1.26,A,,V*4A
$HCHDG,205.47,,,0.55,E*2D
$HCHDG,207.00,,,,*77
$TIROT,-0.91,A*2E
$TIROT,0.87,A*04
$YXXDR,A,0.20,D,Pitch,A,0.20,D,Roll*34
$YXXDR,D,0.20,M,Heave*05
$AGRSA,1.26,A,,V*4A
$WIMTW,7.68,C*04
$WIXDR,C,008.0,C,,*5A
$HCHDG,205.47,,,0.55,E*2D
$HCHDG,207.00,,,,*77
$TIROT,1.02,A*08
$TIROT,-0.30,A*25
$YXXDR,A,0.21,D,Pitch,A,0.26,D,Roll*33
$YXXDR,D,0.20,M,Heave*05
$VDVBW,0.00,,A,,,A,,A,,A*4F
$AGRSA,1.22,A,,V*4E
$GPRMC,130211.000,A,4735.65996,N,00258.86979,W,0.00,,201125,,,D*64
$HCHDG,205.47,,,0.55,E*2D
$HCHDG,207.00,,,,*77
$TIROT,1.24,A*0C
$TIROT,-0.50,A*23
$PLCJ,61F0,6901,AA,8373,A3A3*49
$YXXDR,A,0.20,D,Pitch,A,0.31,D,Roll*34
$YXXDR,D,0.20,M,Heave*05
$AGRSA,1.22,A,,V*4E
$HCHDG,205.47,,,0.55,E*2D
$HCHDG,207.00,,,,*77
$TIROT,3.09,A*01
$TIROT,-0.57,A*24
$YXXDR,A,0.21,D,Pitch,A,0.26,D,Roll*33
$YXXDR,D,0.20,M,Heave*05
$AGRSA,1.22,A,,V*4E
$PLCJE8FC8,69A6,2A00,2162,00,*75
$HCHDG,205.47,,,0.55,E*2D
$HCHDG,207.00,,,,*77
$TIROT,1.26,A*0E
$TIROT,-0.31,A*24
$YXXDR,A,0.21,D,Pitch,A,0.23,D,Roll*36
$YXXDR,D,0.20,M,Heave*05
$AGRSA,1.22,A,,V*4E
$IIMWV,125.0,R,007.8,N,A*34
$HCHDG,205.47,,,0.55,E*2D
$HCHDG,207.00,,,,*77
$TIROT,0.57,A*09
$TIROT,-0.37,A*22
$YXXDR,A,0.20,D,Pitch,A,0.24,D,Roll*30
$YXXDR,D,0.20,M,Heave*05
$AGRSA,1.26,A,,V*4A
$HCHDG,205.47,,,0.55,E*2D
$HCHDG,207.00,,,,*77
$TIROT,-0.59,A*2A
$TIROT,-0.42,A*20
$WIXDR,C,008.0,C,,*5A
$YXXDR,A,0.21,D,Pitch,A,0.25,D,Roll*30
$YXXDR,D,0.20,M,Heave*05
$VDVBW,0.00,,A,,,A,,A,,A*4F
$AGRSA,1.26,A,,V*4A
$YXXDR,A,-10.42,D,Pitch,A,-0.22,D,Roll*03
$GPRMC,130212.198,A,4735.66048,N,00258.87360,W,0.00,,201125,0.55,E,A*33
$HCHDG,205.47,,,0.55,E*2D
$HCHDG,207.00,,,,*77
$TIROT,-0.63,A*23
$TIROT,0.35,A*0D
$YXXDR,A,0.21,D,Pitch,A,0.26,D,Roll*33
$YXXDR,D,0.20,M,Heave*05
$AGRSA,1.26,A,,V*4A
$PLCJ,61F2,6900,AA,9363,93A4*35
$HCHDG,205.47,,,0.55,E*2D
$HCHDG,207.00,,,,*77
$TIROT,1.01,A*0B
$TIROT,0.90,A*02
$VWVHW,,T,,M,0.00,N,0.00,K*54
$YXXDR,A,0.21,D,Pitch,A,0.27,D,Roll*32
$YXXDR,D,0.20,M,Heave*05
$AGRSA,1.26,A,,V*4A
$VWVLW,7525.53,N,7525.53,N*4C
$PLCJE8FC8,69A6,2A00,2162,00,*75
$HCHDG,205.47,,,0.55,E*2D
$HCHDG,207.00,,,,*77
$TIROT,0.60,A*0D
$TIROT,0.44,A*0B
$YXXDR,A,0.21,D,Pitch,A,0.24,D,Roll*31
$YXXDR,D,0.20,M,Heave*05
$AGRSA,1.26,A,,V*4A
$HCHDG,205.47,,,0.55,E*2D
$HCHDG,207.00,,,,*77
$TIROT,-0.99,A*26
$TIROT,-1.02,A*25
$IIMWV,123.0,R,007.6,N,A*3C
$YXXDR,A,0.20,D,Pitch,A,0.21,D,Roll*35
$YXXDR,D,0.20,M,Heave*05
$AGRSA,1.26,A,,V*4A
$WIMTW,7.68,C*04
$HCHDG,205.47,,,0.55,E*2D
$HCHDG,207.00,,,,*77
$TIROT,0.74,A*08
$TIROT,1.47,A*09
$WIXDR,C,008.0,C,,*5A
$YXXDR,A,0.20,D,Pitch,A,0.24,D,Roll*30
$YXXDR,D,0.20,M,Heave*05
$VDVBW,0.00,,A,,,A,,A,,A*4F
$AGRSA,1.22,A,,V*4E
$GPRMC,130212.000,A,4735.65996,N,00258.86979,W,0.00,,201125,,,D*67
$HCHDG,205.47,,,0.55,E*2D
$HCHDG,207.00,,,,*77
$TIROT,0.04,A*0F
$TIROT,0.67,A*0A
$YXXDR,A,0.20,D,Pitch,A,0.28,D,Roll*3C
$YXXDR,D,0.20,M,Heave*05
$AGRSA,1.26,A,,V*4A
$PLCJ,61F0,6803,AA,7383,C3A3*48
$HCHDG,205.47,,,0.55,E*2D
$HCHDG,207.00,,,,*77
$TIROT,-0.94,A*2B
$TIROT,0.32,A*0A
$YXXDR,A,0.19,D,Pitch,A,0.26,D,Roll*38
$YXXDR,D,0.20,M,Heave*05
$AGRSA,1.26,A,,V*4A
$HCHDG,205.47,,,0.55,E*2D
$HCHDG,207.00,,,,*77
$TIROT,0.58,A*06
$TIROT,-0.27,A*23
$PLCJE8FC8,69A6,2A00,2162,00,*75
$YXXDR,A,0.21,D,Pitch,A,0.21,D,Roll*34
$YXXDR,D,0.20,M,Heave*05
$AGRSA,1.26,A,,V*4A
$HCHDG,205.47,,,0.55,E*2D
$HCHDG,207.00,,,,*77
$TIROT,1.26,A*0E
$TIROT,0.00,A*0B
$YXXDR,A,0.20,D,Pitch,A,0.24,D,Roll*30
$YXXDR,D,0.20,M,Heave*05
$IIMWV,124.0,R,007.4,N,A*39
$AGRSA,1.26,A,,V*4A
$HCHDG,205.47,,,0.55,E*2D
$HCHDG,207.00,,,,*77
$TIROT,-0.45,A*27
$TIROT,0.42,A*0D
$YXXDR,A,0.20,D,Pitch,A,0.29,D,Roll*3D
$YXXDR,D,0.20,M,Heave*05
$VDVBW,0.00,,A,,,A,,A,,A*4F
$AGRSA,1.26,A,,V*4A
$YXXDR,A,-10.42,D,Pitch,A,-0.23,D,Roll*02
$WIXDR,C,008.0,C,,*5A
$GPRMC,130213.200,A,4735.66044,N,00258.87359,W,0.00,,201125,0.55,E,A*36
$HCHDG,205.47,,,0.55,E*2D
$HCHDG,207.00,,,,*77
$TIROT,0.45,A*0A
$TIROT,-0.59,A*2A
$YXXDR,A,0.18,D,Pitch,A,0.27,D,Roll*38
$YXXDR,D,0.20,M,Heave*05
$AGRSA,1.26,A,,V*4A
$HCHDG,205.47,,,0.55,E*2D
$HCHDG,207.00,,,,*77
$TIROT,0.22,A*0B
$TIROT,-0.21,A*25
$VWVHW,,T,,M,0.00,N,0.00,K*54
$PLCJ,60F4,6901,AA,6383,A3A3*4D
$YXXDR,A,0.20,D,Pitch,A,0.21,D,Roll*35
$YXXDR,D,0.20,M,Heave*05
$AGRSA,1.22,A,,V*4E
$VWVLW,7525.53,N,7525.53,N*4C
!AIVDM,1,1,,B,33I?rj0=Aewj?rDK9f8aLwvJ22Hk,0*1F
$HCHDG,205.47,,,0.55,E*2D
$HCHDG,207.00,,,,*77
$TIROT,0.45,A*0A
$TIROT,0.27,A*0E
$YXXDR,A,0.21,D,Pitch,A,0.22,D,Roll*37
$YXXDR,D,0.20,M,Heave*05
$AGRSA,1.26,A,,V*4A
$PLCJE8FC8,69A6,2A00,2162,00,*75
!AIVDM,1,1,,B,402:nwQvVr=2<Om<epK:bF?00H7w,0*69
$HCHDG,205.47,,,0.55,E*2D
$HCHDG,207.00,,,,*77
$TIROT,0.28,A*01
$TIROT,-1.21,A*24
$YXXDR,A,0.20,D,Pitch,A,0.26,D,Roll*32
$YXXDR,D,0.20,M,Heave*05
$AGRSA,1.26,A,,V*4A
$WIMTW,7.67,C*0B
$IIMWV,124.0,R,006.9,N,A*35
$HCHDG,205.47,,,0.55,E*2D
$HCHDG,207.00,,,,*77
$TIROT,-0.50,A*23
$TIROT,-0.32,A*27
$YXXDR,A,0.21,D,Pitch,A,0.27,D,Roll*32
$YXXDR,D,0.20,M,Heave*05
$VDVBW,0.00,,A,,,A,,A,,A*4F
$AGRSA,1.26,A,,V*4A
$WIXDR,C,008.0,C,,*5A
$GPRMC,130213.000,A,4735.65996,N,00258.86988,W,0.00,,201125,,,D*68
$HCHDG,205.47,,,0.55,E*2D
$HCHDG,207.00,,,,*77
$TIROT,-0.95,A*2A
$TIROT,0.43,A*0C
$YXXDR,A,0.20,D,Pitch,A,0.25,D,Roll*31
$YXXDR,D,0.20,M,Heave*05
$AGRSA,1.26,A,,V*4A
$HCHDG,205.47,,,0.55,E*2D
$HCHDG,207.00,,,,*77
$TIROT,1.04,A*0E
$TIROT,-0.58,A*2B
$YXXDR,A,0.21,D,Pitch,A,0.24,D,Roll*31
$YXXDR,D,0.20,M,Heave*05
$PLCJ,6405,63F5,3C,9392,9394*3E
$AGRSA,1.26,A,,V*4A
$HCHDG,205.47,,,0.55,E*2D
$HCHDG,207.00,,,,*77
$TIROT,1.13,A*08
$TIROT,0.09,A*02
$YXXDR,A,0.20,D,Pitch,A,0.24,D,Roll*30
$YXXDR,D,0.20,M,Heave*05
$AGRSA,1.22,A,,V*4E
$PLCJE8FC8,69A6,2A00,2162,00,*75
$HCHDG,205.47,,,0.55,E*2D
$HCHDG,207.00,,,,*77
$TIROT,1.01,A*0B
$TIROT,-0.13,A*24
$YXXDR,A,0.21,D,Pitch,A,0.25,D,Roll*30
$YXXDR,D,0.20,M,Heave*05
$AGRSA,1.26,A,,V*4A
!AIVDM,1,1,,B,13IU>pP=AeOj6IbK9Iq<COvH088D,0*34
$HCHDG,205.47,,,0.55,E*2D
$HCHDG,207.00,,,,*77
$TIROT,-0.31,A*24
$TIROT,0.54,A*0A
$IIMWV,125.0,R,006.1,N,A*3C
$YXXDR,A,0.20,D,Pitch,A,0.28,D,Roll*3C
$YXXDR,D,0.20,M,Heave*05
$VDVBW,0.00,,A,,,A,,A,,A*4F
$AGRSA,1.22,A,,V*4E
$YXXDR,A,-10.43,D,Pitch,A,-0.23,D,Roll*03
$GPRMC,130214.201,A,4735.66040,N,00258.87358,W,0.00,,201125,0.55,E,A*35
$HCHDG,205.47,,,0.55,E*2D
$HCHDG,207.00,,,,*77
$TIROT,-0.27,A*23
$TIROT,1.46,A*08
$WIXDR,C,008.0,C,,*5A
$YXXDR,A,0.21,D,Pitch,A,0.26,D,Roll*33
$YXXDR,D,0.20,M,Heave*05
$AGRSA,1.26,A,,V*4A
$HCHDG,205.47,,,0.55,E*2D
$HCHDG,207.00,,,,*77
$TIROT,0.09,A*02
$TIROT,0.13,A*09
$VWVHW,,T,,M,0.00,N,0.00,K*54
$YXXDR,A,0.21,D,Pitch,A,0.22,D,Roll*37
$YXXDR,D,0.20,M,Heave*05
$AGRSA,1.22,A,,V*4E
$VWVLW,7525.53,N,7525.53,N*4C
$PLCJ,6500,62FA,3C,83A3,A383*49
$HCHDG,205.47,,,0.55,E*2D
$HCHDG,207.00,,,,*77
$TIROT,-0.36,A*23
$TIROT,0.40,A*0F
$YXXDR,A,0.21,D,Pitch,A,0.22,D,Roll*37
$YXXDR,D,0.20,M,Heave*05
$AGRSA,1.26,A,,V*4A
!AIVDM,1,1,,A,33IJop0=@0wiTRpK5pk>46rL212h,0*11
$HCHDG,205.47,,,0.55,E*2D
$HCHDG,207.00,,,,*77
$TIROT,1.66,A*0A
$TIROT,0.34,A*0C
$PLCJE8FC8,69A6,2A00,2162,00,*75
$YXXDR,A,0.20,D,Pitch,A,0.27,D,Roll*33
$YXXDR,D,0.20,M,Heave*05
$AGRSA,1.26,A,,V*4A
$WIMTW,7.68,C*04
$HCHDG,205.47,,,0.55,E*2D
$HCHDG,207.00,,,,*77
$TIROT,0.17,A*0D
$TIROT,0.10,A*0A
$YXXDR,A,0.20,D,Pitch,A,0.26,D,Roll*32
$YXXDR,D,0.20,M,Heave*05
$IIMWV,128.0,R,005.1,N,A*32
$VDVBW,0.00,,A,,,A,,A,,A*4F
$AGRSA,1.22,A,,V*4E
$GPRMC,130214.000,A,4735.65996,N,00258.86988,W,0.00,,201125,,,D*6F
$HCHDG,205.47,,,0.55,E*2D
$HCHDG,207.00,,,,*77
$TIROT,2.73,A*0D
$TIROT,-1.44,A*27
$YXXDR,A,0.22,D,Pitch,A,0.22,D,Roll*34
$YXXDR,D,0.20,M,Heave*05
$AGRSA,1.26,A,,V*4A
$WIXDR,C,008.0,C,,*5A
$HCHDG,205.47,,,0.55,E*2D
$HCHDG,207.00,,,,*77
$TIROT,-0.04,A*22
$TIROT,1.04,A*0E
$YXXDR,A,0.20,D,Pitch,A,0.21,D,Roll*35
$YXXDR,D,0.20,M,Heave*05
$AGRSA,1.26,A,,V*4A
$HCHDG,205.47,,,0.55,E*2D
$HCHDG,207.00,,,,*77
$TIROT,1.09,A*03
$TIROT,-0.59,A*2A
$PLCJ,6502,63F7,3C,9393,9282*3D
$YXXDR,A,0.20,D,Pitch,A,0.27,D,Roll*33
$YXXDR,D,0.20,M,Heave*05
$AGRSA,1.26,A,,V*4A
$HCHDG,205.47,,,0.55,E*2D
$HCHDG,207.00,,,,*77
$TIROT,-0.36,A*23
$TIROT,0.16,A*0C
$YXXDR,A,0.19,D,Pitch,A,0.28,D,Roll*36
$YXXDR,D,0.20,M,Heave*05
$PLCJE8FC8,69A6,2A00,2162,00,*75
$AGRSA,1.26,A,,V*4A
$HCHDG,205.47,,,0.55,E*2D
$HCHDG,207.00,,,,*77
$TIROT,0.62,A*0F
$TIROT,-0.20,A*24
$YXXDR,A,0.20,D,Pitch,A,0.24,D,Roll*30
$YXXDR,D,0.20,M,Heave*05
$VDVBW,0.00,,A,,,A,,A,,A*4F
$AGRSA,1.26,A,,V*4A
$YXXDR,A,-10.41,D,Pitch,A,-0.22,D,Roll*00
$IIMWV,132.0,R,004.9,N,A*30
$GPRMC,130215.200,A,4735.66035,N,00258.87354,W,0.00,,201125,0.55,E,A*3B
$HCHDG,205.47,,,0.55,E*2D
$HCHDG,207.00,,,,*77
$TIROT,0.17,A*0D
$TIROT,-0.30,A*25
$YXXDR,A,0.20,D,Pitch,A,0.25,D,Roll*31
$YXXDR,D,0.20,M,Heave*05
$AGRSA,1.22,A,,V*4E
$WIXDR,C,008.0,C,,*5A
$HCHDG,205.47,,,0.55,E*2D
$HCHDG,207.00,,,,*77
$TIROT,0.35,A*0D
$TIROT,-0.65,A*25
$VWVHW,,T,,M,0.00,N,0.00,K*54
$YXXDR,A,0.20,D,Pitch,A,0.26,D,Roll*32
$YXXDR,D,0.20,M,Heave*05
$AGRSA,1.26,A,,V*4A
$VWVLW,7525.53,N,7525.53,N*4C
$HCHDG,205.47,,,0.55,E*2D
$HCHDG,207.00,,,,*77
$TIROT,0.00,A*0B
$TIROT,-0.59,A*2A
$YXXDR,A,0.19,D,Pitch,A,0.25,D,Roll*3B
$YXXDR,D,0.20,M,Heave*05
$PLCJ,6502,63F7,3C,C393,8192*44
$AGRSA,1.26,A,,V*4A
$HCHDG,205.47,,,0.55,E*2D
$HCHDG,207.00,,,,*77
$TIROT,0.83,A*00
$TIROT,-0.75,A*24
$YXXDR,A,0.19,D,Pitch,A,0.26,D,Roll*38
$YXXDR,D,0.20,M,Heave*05
$AGRSA,1.26,A,,V*4A
$WIMTW,7.68,C*04
$PLCJE8FC8,69A6,2A00,2162,00,*75
$HCHDG,205.47,,,0.55,E*2D
$HCHDG,207.00,,,,*77
$TIROT,0.33,A*0B
$TIROT,-1.17,A*21
$YXXDR,A,0.19,D,Pitch,A,0.26,D,Roll*38
$YXXDR,D,0.20,M,Heave*05
$VDVBW,0.00,,A,,,A,,A,,A*4F
$AGRSA,1.22,A,,V*4E
$HCHDG,205.47,,,0.55,E*2D
$HCHDG,207.00,,,,*77
$TIROT,0.15,A*0F
$TIROT,-0.52,A*21
$IIMWV,136.0,R,004.7,N,A*3A
$YXXDR,A,0.20,D,Pitch,A,0.26,D,Roll*32
$YXXDR,D,0.20,M,Heave*05
$GPRMC,130215.000,A,4735.65996,N,00258.86988,W,0.00,,201125,,,D*6E
$AGRSA,1.26,A,,V*4A
!AIVDM,1,1,,B,13I1TnP=AIwiU:rK6om6:wvP05`8,0*7C
$HCHDG,205.47,,,0.55,E*2D
$HCHDG,207.00,,,,*77
$TIROT,-0.08,A*2E
$TIROT,0.45,A*0A
$WIXDR,C,008.0,C,,*5A
$YXXDR,A,0.20,D,Pitch,A,0.27,D,Roll*33
$YXXDR,D,0.20,M,Heave*05
$AGRSA,1.26,A,,V*4A
$HCHDG,205.47,,,0.55,E*2D
$HCHDG,207.00,,,,*77
$TIROT,0.73,A*0F
$TIROT,-0.77,A*26
$YXXDR,A,0.20,D,Pitch,A,0.28,D,Roll*3C
$YXXDR,D,0.20,M,Heave*05
$AGRSA,1.26,A,,V*4A
$PLCJ,6502,65EE,3C,F3A3,92A3*35
$HCHDG,205.47,,,0.55,E*2D
$HCHDG,207.00,,,,*77
$TIROT,-0.11,A*26
$TIROT,-0.86,A*28
$YXXDR,A,0.20,D,Pitch,A,0.28,D,Roll*3C
$YXXDR,D,0.20,M,Heave*05
$AGRSA,1.22,A,,V*4E
$HCHDG,205.47,,,0.55,E*2D
$HCHDG,207.00,,,,*77
$TIROT,0.58,A*06
$TIROT,-0.21,A*25
$PLCJE8FC8,69A6,2A00,2162,00,*75
$YXXDR,A,0.20,D,Pitch,A,0.26,D,Roll*32
$YXXDR,D,0.20,M,Heave*05
$VDVBW,0.00,,A,,,A,,A,,A*4F
$AGRSA,1.26,A,,V*4A
!AIVDM,1,1,,A,B3HeGuP007tUaF6kgDh03w`5CP06,0*0B
$YXXDR,A,-10.42,D,Pitch,A,-0.22,D,Roll*03
$GPRMC,130216.198,A,4735.66030,N,00258.87353,W,0.00,,201125,0.55,E,A*38
$HCHDG,205.47,,,0.55,E*2D
$HCHDG,207.00,,,,*77
$TIROT,-0.73,A*22
$TIROT,-0.10,A*27
$YXXDR,A,0.20,D,Pitch,A,0.23,D,Roll*37
$YXXDR,D,0.20,M,Heave*05
$IIMWV,137.0,R,005.2,N,A*3F
$AGRSA,1.26,A,,V*4A
$HCHDG,205.47,,,0.55,E*2D
$HCHDG,207.00,,,,*77
$TIROT,-0.24,A*20
$TIROT,1.41,A*0F
$VWVHW,,T,,M,0.00,N,0.00,K*54
$YXXDR,A,0.19,D,Pitch,A,0.26,D,Roll*38
$YXXDR,D,0.20,M,Heave*05
$AGRSA,1.26,A,,V*4A
$VWVLW,7525.53,N,7525.53,N*4C
$WIXDR,C,008.0,C,,*5A
$HCHDG,205.47,,,0.55,E*2D
$HCHDG,207.00,,,,*77
$TIROT,0.40,A*0F
$TIROT,0.42,A*0D
$YXXDR,A,0.19,D,Pitch,A,0.29,D,Roll*37
$YXXDR,D,0.20,M,Heave*05
$AGRSA,1.26,A,,V*4A
$HCHDG,205.47,,,0.55,E*2D
$HCHDG,207.00,,,,*77
$TIROT,0.23,A*0A
$TIROT,0.83,A*00
$PLCJ,6309,67E8,3C,F393,82C2*3D
$YXXDR,A,0.19,D,Pitch,A,0.25,D,Roll*3B
$YXXDR,D,0.20,M,Heave*05
$AGRSA,1.26,A,,V*4A
$WIMTW,7.67,C*0B
$HCHDG,205.47,,,0.55,E*2D
$HCHDG,207.00,,,,*77
$TIROT,0.10,A*0A
$TIROT,-0.15,A*22
$YXXDR,A,0.20,D,Pitch,A,0.24,D,Roll*30
$YXXDR,D,0.20,M,Heave*05
$PLCJE8FC8,69A6,2A00,2162,00,*75
$VDVBW,0.00,,A,,,A,,A,,A*4F
$AGRSA,1.26,A,,V*4A
$HCHDG,205.47,,,0.55,E*2D
$HCHDG,207.00,,,,*77
$TIROT,-0.29,A*2D
$TIROT,1.35,A*0C
$YXXDR,A,0.21,D,Pitch,A,0.25,D,Roll*30
$YXXDR,D,0.20,M,Heave*05
$GPRMC,130216.000,A,4735.65996,N,00258.86999,W,0.00,,201125,,,D*6D
$AGRSA,1.26,A,,V*4A
$IIMWV,135.0,R,006.0,N,A*3C
$HCHDG,205.46,,,0.55,E*2C
$HCHDG,207.00,,,,*77
$TIROT,-0.62,A*22
$TIROT,0.24,A*0D
$YXXDR,A,0.20,D,Pitch,A,0.25,D,Roll*31
$YXXDR,D,0.20,M,Heave*05
$AGRSA,1.22,A,,V*4E
$WIXDR,C,008.0,C,,*5A
$HCHDG,205.46,,,0.55,E*2C
$HCHDG,207.00,,,,*77
$TIROT,1.40,A*0E
$TIROT,-1.05,A*22
$YXXDR,A,0.20,D,Pitch,A,0.24,D,Roll*30
$YXXDR,D,0.20,M,Heave*05
$AGRSA,1.26,A,,V*4A
$HCHDG,205.46,,,0.55,E*2C
$HCHDG,207.00,,,,*77
$TIROT,0.96,A*04
$TIROT,0.36,A*0E
$YXXDR,A,0.20,D,Pitch,A,0.24,D,Roll*30
$YXXDR,D,0.20,M,Heave*05
$PLCJ,630A,66EA,3C,A293,72A1*35
$AGRSA,1.22,A,,V*4E
$HCHDG,205.46,,,0.55,E*2C
$HCHDG,207.00,,,,*77
$TIROT,0.62,A*0F
$TIROT,0.63,A*0E
$YXXDR,A,0.19,D,Pitch,A,0.24,D,Roll*3A
$YXXDR,D,0.20,M,Heave*05
$VDVBW,0.00,,A,,,A,,A,,A*4F
$AGRSA,1.26,A,,V*4A
$YXXDR,A,-10.41,D,Pitch,A,-0.23,D,Roll*01
$PLCJE8FC8,69A6,2A00,2162,00,*75
$GPRMC,130217.200,A,4735.66027,N,00258.87353,W,0.00,,201125,0.55,E,A*3D
$HCHDG,205.46,,,0.55,E*2C
$HCHDG,207.00,,,,*77
$TIROT,0.64,A*09
$TIROT,0.44,A*0B
$YXXDR,A,0.19,D,Pitch,A,0.24,D,Roll*3A
$YXXDR,D,0.20,M,Heave*05
$AGRSA,1.26,A,,V*4A
$HCHDG,205.46,,,0.55,E*2C
$HCHDG,207.00,,,,*77
$TIROT,-0.29,A*2D
$TIROT,-0.36,A*23
$VWVHW,,T,,M,0.00,N,0.00,K*54
$IIMWV,131.0,R,005.9,N,A*32
$YXXDR,A,0.20,D,Pitch,A,0.25,D,Roll*31
$YXXDR,D,0.20,M,Heave*05
$AGRSA,1.22,A,,V*4E
$VWVLW,7525.53,N,7525.53,N*4C
$HCHDG,205.46,,,0.55,E*2C
$HCHDG,207.00,,,,*77
$TIROT,-1.48,A*2B
$TIROT,0.67,A*0A
$WIXDR,C,008.0,C,,*5A
$YXXDR,A,0.19,D,Pitch,A,0.27,D,Roll*39
$YXXDR,D,0.20,M,Heave*05
$AGRSA,1.26,A,,V*4A
$HCHDG,205.46,,,0.55,E*2C
$HCHDG,207.00,,,,*77
$TIROT,1.72,A*0F
$TIROT,0.60,A*0D
$YXXDR,A,0.20,D,Pitch,A,0.26,D,Roll*32
$YXXDR,D,0.20,M,Heave*05
$AGRSA,1.26,A,,V*4A
$WIMTW,7.68,C*04
$PLCJ,6308,66EC,3C,9092,8382*41
$HCHDG,205.46,,,0.55,E*2C
$HCHDG,207.00,,,,*77
$TIROT,0.55,A*0B
$TIROT,-1.06,A*21
!AIVDM,1,1,,B,B3HkAP00?Ote?mVkbAjSKw`Ql5`8,0*7E
$YXXDR,A,0.20,D,Pitch,A,0.24,D,Roll*30
$YXXDR,D,0.20,M,Heave*05
$VDVBW,0.00,,A,,,A,,A,,A*4F
$AGRSA,1.26,A,,V*4A
$HCHDG,205.46,,,0.55,E*2C
$HCHDG,207.00,,,,*77
$TIROT,0.48,A*07
$TIROT,-0.77,A*26
$PLCJE8FC8,69A6,2A00,2162,00,*75
$YXXDR,A,0.20,D,Pitch,A,0.25,D,Roll*31
$YXXDR,D,0.20,M,Heave*05
$GPRMC,130217.000,A,4735.65996,N,00258.87009,W,0.00,,201125,,,D*6D
$AGRSA,1.26,A,,V*4A
$HCHDG,205.46,,,0.55,E*2C
$HCHDG,207.00,,,,*77
$TIROT,0.72,A*0E
$TIROT,-0.51,A*22
$YXXDR,A,0.20,D,Pitch,A,0.28,D,Roll*3C
$YXXDR,D,0.20,M,Heave*05
$IIMWV,127.0,R,005.7,N,A*3B
$AGRSA,1.26,A,,V*4A
$HCHDG,205.47,,,0.55,E*2D
$HCHDG,207.00,,,,*77
$TIROT,0.87,A*04
$TIROT,0.27,A*0E
$YXXDR,A,0.21,D,Pitch,A,0.26,D,Roll*33
$YXXDR,D,0.20,M,Heave*05
$AGRSA,1.26,A,,V*4A
$WIXDR,C,008.0,C,,*5A
$HCHDG,205.47,,,0.55,E*2D
$HCHDG,207.00,,,,*77
$TIROT,-0.08,A*2E
$TIROT,-1.20,A*25
$YXXDR,A,0.20,D,Pitch,A,0.23,D,Roll*37
$YXXDR,D,0.20,M,Heave*05
$AGRSA,1.22,A,,V*4E
$HCHDG,205.47,,,0.55,E*2D
$HCHDG,207.00,,,,*77
$TIROT,1.85,A*07
$TIROT,0.01,A*0A
$PLCJ,62EC,6806,AA,6283,C1A3*3C
$YXXDR,A,0.20,D,Pitch,A,0.24,D,Roll*30
$YXXDR,D,0.20,M,Heave*05
$VDVBW,0.00,,A,,,A,,A,,A*4F
$AGRSA,1.26,A,,V*4A
$YXXDR,A,-10.42,D,Pitch,A,-0.22,D,Roll*03
$GPRMC,130218.201,A,4735.66025,N,00258.87348,W,0.00,,201125,0.55,E,A*3B
$HCHDG,205.47,,,0.55,E*2D
$HCHDG,207.00,,,,*77
$TIROT,0.84,A*07
$TIROT,0.14,A*0E
$YXXDR,A,0.21,D,Pitch,A,0.28,D,Roll*3D
$YXXDR,D,0.20,M,Heave*05
!AIVDM,1,1,,B,13IJop0=@0wiTRpK5pk>47LT2<0B,0*12
$PLCJE8FC8,69A6,2A00,2162,00,*75
$AGRSA,1.26,A,,V*4A
$HCHDG,205.47,,,0.55,E*2D
$HCHDG,207.00,,,,*77
$TIROT,1.11,A*0A
$TIROT,-0.29,A*2D
$VWVHW,,T,,M,0.00,N,0.00,K*54
$YXXDR,A,0.20,D,Pitch,A,0.26,D,Roll*32
$YXXDR,D,0.20,M,Heave*05
$AGRSA,1.26,A,,V*4A
$VWVLW,7525.53,N,7525.53,N*4C
$IIMWV,130.0,R,006.0,N,A*39
$HCHDG,205.47,,,0.55,E*2D
$HCHDG,207.00,,,,*77
$TIROT,0.75,A*09
$TIROT,-0.33,A*26
$YXXDR,A,0.20,D,Pitch,A,0.24,D,Roll*30
$YXXDR,D,0.20,M,Heave*05
$AGRSA,1.26,A,,V*4A
$WIXDR,C,008.0,C,,*5A
$HCHDG,205.47,,,0.55,E*2D
$HCHDG,207.00,,,,*77
$TIROT,-0.27,A*23
$TIROT,1.12,A*09
$YXXDR,A,0.21,D,Pitch,A,0.24,D,Roll*31
$YXXDR,D,0.20,M,Heave*05
$AGRSA,1.26,A,,V*4A
$WIMTW,7.68,C*04
$HCHDG,205.47,,,0.55,E*2D
$HCHDG,207.00,,,,*77
$TIROT,0.14,A*0E
$TIROT,0.77,A*0B
$YXXDR,A,0.20,D,Pitch,A,0.25,D,Roll*31
$YXXDR,D,0.20,M,Heave*05
$PLCJ,61F2,6802,AA,7383,C1C3*4B
$VDVBW,0.00,,A,,,A,,A,,A*4F
$AGRSA,1.26,A,,V*4A
$HCHDG,205.47,,,0.55,E*2D
$HCHDG,207.00,,,,*77
$TIROT,0.33,A*0B
$TIROT,0.14,A*0E
$YXXDR,A,0.21,D,Pitch,A,0.24,D,Roll*31
$YXXDR,D,0.20,M,Heave*05
$GPRMC,130218.000,A,4735.65996,N,00258.87009,W,0.00,,201125,,,D*62
$AGRSA,1.26,A,,V*4A
$PLCJE8FC8,69A6,2A00,2162,00,*75
$HCHDG,205.47,,,0.55,E*2D
$HCHDG,207.00,,,,*77
$TIROT,-0.51,A*22
$TIROT,0.06,A*0D
$YXXDR,A,0.21,D,Pitch,A,0.24,D,Roll*31
$YXXDR,D,0.20,M,Heave*05
$AGRSA,1.26,A,,V*4A
$HCHDG,205.47,,,0.55,E*2D
$HCHDG,207.00,,,,*77
$TIROT,-0.57,A*24
$TIROT,0.68,A*05
$IIMWV,129.0,R,006.1,N,A*30
$YXXDR,A,0.20,D,Pitch,A,0.24,D,Roll*30
$YXXDR,D,0.20,M,Heave*05
$AGRSA,1.26,A,,V*4A
$HCHDG,205.47,,,0.55,E*2D
$HCHDG,207.00,,,,*77
$TIROT,0.46,A*09
$TIROT,0.45,A*0A
$WIXDR,C,008.0,C,,*5A
$YXXDR,A,0.20,D,Pitch,A,0.24,D,Roll*30
$YXXDR,D,0.20,M,Heave*05
$AGRSA,1.26,A,,V*4A
$HCHDG,205.47,,,0.55,E*2D
$HCHDG,207.00,,,,*77
$TIROT,0.92,A*00
$TIROT,0.59,A*07
$YXXDR,A,0.18,D,Pitch,A,0.25,D,Roll*3A
$YXXDR,D,0.19,M,Heave*0F
$VDVBW,0.00,,A,,,A,,A,,A*4F
$AGRSA,1.22,A,,V*4E
$YXXDR,A,-10.43,D,Pitch,A,-0.24,D,Roll*04
$PLCJ,61F3,6901,AA,6383,C2A4*4F
$GPRMC,130219.200,A,4735.66022,N,00258.87350,W,0.00,,201125,0.55,E,A*35
$HCHDG,205.47,,,0.55,E*2D
$HCHDG,207.00,,,,*77
$TIROT,0.84,A*07
$TIROT,0.56,A*08
$YXXDR,A,0.18,D,Pitch,A,0.27,D,Roll*38
$YXXDR,D,0.19,M,Heave*0F
$AGRSA,1.22,A,,V*4E
$HCHDG,205.47,,,0.55,E*2D
$HCHDG,207.00,,,,*77
$TIROT,1.21,A*09
$TIROT,-0.10,A*27
$VWVHW,,T,,M,0.00,N,0.00,K*54
$PLCJE8FC8,69A6,2A00,2162,00,*75
$YXXDR,A,0.19,D,Pitch,A,0.26,D,Roll*38
$YXXDR,D,0.19,M,Heave*0F
$AGRSA,1.26,A,,V*4A
$VWVLW,7525.53,N,7525.53,N*4C
$HCHDG,205.47,,,0.55,E*2D
$HCHDG,207.00,,,,*77
$TIROT,0.55,A*0B
$TIROT,0.46,A*09
$YXXDR,A,0.20,D,Pitch,A,0.24,D,Roll*30
$YXXDR,D,0.19,M,Heave*0F
$IIMWV,128.0,R,006.1,N,A*31
$AGRSA,1.26,A,,V*4A
$HCHDG,205.47,,,0.55,E*2D
$HCHDG,207.00,,,,*77
$TIROT,1.28,A*00
$TIROT,-0.32,A*27
$YXXDR,A,0.19,D,Pitch,A,0.25,D,Roll*3B
$YXXDR,D,0.19,M,Heave*0F
$AGRSA,1.22,A,,V*4E
$WIMTW,7.68,C*04
$WIXDR,C,008.0,C,,*5A
$HCHDG,205.47,,,0.55,E*2D
$HCHDG,207.00,,,,*77
$TIROT,0.20,A*09
$TIROT,-0.66,A*26
$YXXDR,A,0.19,D,Pitch,A,0.28,D,Roll*36
$YXXDR,D,0.19,M,Heave*0F
$VDVBW,0.00,,A,,,A,,A,,A*4F
$AGRSA,1.26,A,,V*4A
$HCHDG,205.47,,,0.55,E*2D
$HCHDG,207.00,,,,*77
$TIROT,0.20,A*09
$TIROT,0.00,A*0B
$PLCJ,60F6,6900,AA,7172,C2C3*42
$YXXDR,A,0.20,D,Pitch,A,0.27,D,Roll*33
$YXXDR,D,0.19,M,Heave*0F
$AGRSA,1.22,A,,V*4E
$GPRMC,130219.000,A,4735.65996,N,00258.87018,W,0.00,,201125,,,D*63
$HCHDG,205.47,,,0.55,E*2D
$HCHDG,207.00,,,,*77
$TIROT,-0.12,A*25
$TIROT,0.22,A*0B
$YXXDR,A,0.20,D,Pitch,A,0.24,D,Roll*30
$YXXDR,D,0.19,M,Heave*0F
$PLCJE8FC8,69A6,2A00,2162,00,*75
$AGRSA,1.26,A,,V*4A
$HCHDG,205.47,,,0.55,E*2D
$HCHDG,207.00,,,,*77
$TIROT,0.12,A*08
$TIROT,-0.96,A*29
$YXXDR,A,0.21,D,Pitch,A,0.24,D,Roll*31
$YXXDR,D,0.19,M,Heave*0F
$AGRSA,1.22,A,,V*4E
$IIMWV,125.0,R,005.9,N,A*37
$HCHDG,205.47,,,0.55,E*2D
$HCHDG,207.00,,,,*77
$TIROT,0.78,A*04
$TIROT,0.01,A*0A
!AIVDM,1,1,,A,13IN18001eOikNHK6nv;wIbV0H;l,0*4E
$YXXDR,A,0.21,D,Pitch,A,0.26,D,Roll*33
$YXXDR,D,0.19,M,Heave*0F
$AGRSA,1.22,A,,V*4E
$WIXDR,C,008.0,C,,*5A
$HCHDG,205.47,,,0.55,E*2D
$HCHDG,207.00,,,,*77
$TIROT,0.37,A*0F
$TIROT,0.79,A*05
!AIVDM,1,1,,A,402:nvAvVr=2COiEsbKAKB?02D0S,0*06
$YXXDR,A,0.20,D,Pitch,A,0.26,D,Roll*32
$YXXDR,D,0.19,M,Heave*0F
$VDVBW,0.00,,A,,,A,,A,,A*4F
$AGRSA,1.26,A,,V*4A
$YXXDR,A,-10.42,D,Pitch,A,-0.22,D,Roll*03
$GPRMC,130220.198,A,4735.66019,N,00258.87347,W,0.00,,201125,0.55,E,A*33
$HCHDG,205.47,,,0.55,E*2D
$HCHDG,207.00,,,,*77
$TIROT,0.23,A*0A
$TIROT,0.57,A*09
$YXXDR,A,0.21,D,Pitch,A,0.26,D,Roll*33
$YXXDR,D,0.19,M,Heave*0F
$PLCJ,5FF8,6800,AA,7171,C2C3*3B
$AGRSA,1.26,A,,V*4A
$HCHDG,205.47,,,0.55,E*2D
$HCHDG,207.00,,,,*77
$TIROT,-0.31,A*24
$TIROT,-0.64,A*24
$VWVHW,,T,,M,0.00,N,0.00,K*54
$YXXDR,A,0.20,D,Pitch,A,0.25,D,Roll*31
$YXXDR,D,0.19,M,Heave*0F
$AGRSA,1.22,A,,V*4E
$VWVLW,7525.53,N,7525.53,N*4C
$PLCJE8FC8,69A6,2A00,2162,00,*75
$HCHDG,205.47,,,0.55,E*2D
$HCHDG,207.00,,,,*77
$TIROT,-0.31,A*24
$TIROT,-0.69,A*29
$YXXDR,A,0.20,D,Pitch,A,0.24,D,Roll*30
$YXXDR,D,0.19,M,Heave*0F
$AGRSA,1.22,A,,V*4E
$HCHDG,205.47,,,0.55,E*2D
$HCHDG,207.00,,,,*77
$TIROT,0.80,A*03
$TIROT,0.03,A*08
$IIMWV,125.0,R,005.3,N,A*3D
!AIVDM,1,1,,A,402:nnivVr=2COi>JHK4V1g008<7,0*0B
$YXXDR,A,0.20,D,Pitch,A,0.24,D,Roll*30
$YXXDR,D,0.19,M,Heave*0F
$AGRSA,1.26,A,,V*4A
$WIMTW,7.69,C*05
$HCHDG,205.47,,,0.55,E*2D
$HCHDG,207.00,,,,*77
$TIROT,1.11,A*0A
$TIROT,0.43,A*0C
$WIXDR,C,008.0,C,,*5A
$YXXDR,A,0.20,D,Pitch,A,0.26,D,Roll*32
$YXXDR,D,0.19,M,Heave*0F
$VDVBW,0.00,,A,,,A,,A,,A*4F
$AGRSA,1.26,A,,V*4A
$HCHDG,205.46,,,0.55,E*2C
$HCHDG,207.00,,,,*77
$TIROT,0.72,A*0E
$TIROT,-0.16,A*21
$YXXDR,A,0.20,D,Pitch,A,0.28,D,Roll*3C
$YXXDR,D,0.19,M,Heave*0F
$AGRSA,1.26,A,,V*4A
$PLCJ,61F1,6806,AA,6293,C193*37
$GPRMC,130220.000,A,4735.66016,N,00258.87018,W,0.00,,201125,,,D*6B
$HCHDG,205.47,,,0.55,E*2D
$HCHDG,207.00,,,,*77
$TIROT,1.17,A*0C
$TIROT,-0.58,A*2B
$YXXDR,A,0.20,D,Pitch,A,0.26,D,Roll*32
$YXXDR,D,0.19,M,Heave*0F
$AGRSA,1.22,A,,V*4E
$HCHDG,205.47,,,0.55,E*2D
$HCHDG,207.00,,,,*77
$TIROT,-0.20,A*24
$TIROT,1.72,A*0F
$PLCJE8FC8,69A6,2A00,2162,00,*75
$YXXDR,A,0.20,D,Pitch,A,0.24,D,Roll*30
$YXXDR,D,0.19,M,Heave*0F
$AGRSA,1.26,A,,V*4A
$HCHDG,205.47,,,0.55,E*2D
$HCHDG,207.00,,,,*77
$TIROT,1.53,A*0C
$TIROT,1.42,A*0C
$IIMWV,130.0,R,005.0,N,A*3A
$YXXDR,A,0.20,D,Pitch,A,0.26,D,Roll*32
$YXXDR,D,0.19,M,Heave*0F
$AGRSA,1.26,A,,V*4A
$HCHDG,205.47,,,0.55,E*2D
$HCHDG,207.00,,,,*77
$TIROT,0.17,A*0D
$TIROT,0.87,A*04
$YXXDR,A,0.20,D,Pitch,A,0.26,D,Roll*32
$YXXDR,D,0.19,M,Heave*0F
$VDVBW,0.00,,A,,,A,,A,,A*4F
$AGRSA,1.26,A,,V*4A
!AIVDM,1,1,,A,H3IUT;4TC=D01dP671qomp0p5310,0*35
$WIXDR,C,008.0,C,,*5A
$YXXDR,A,-10.42,D,Pitch,A,-0.24,D,Roll*05
$GPRMC,130221.200,A,4735.66019,N,00258.87345,W,0.00,,201125,0.55,E,A*32
$HCHDG,205.47,,,0.55,E*2D
$HCHDG,207.00,,,,*77
$TIROT,0.61,A*0C
$TIROT,1.53,A*0C
$YXXDR,A,0.20,D,Pitch,A,0.25,D,Roll*31
$YXXDR,D,0.19,M,Heave*0F
$AGRSA,1.26,A,,V*4A
$HCHDG,205.47,,,0.55,E*2D
$HCHDG,207.00,,,,*77
$TIROT,1.62,A*0E
$TIROT,-0.06,A*20
$VWVHW,,T,,M,0.00,N,0.00,K*54
$PLCJ,62EC,660E,AA,8362,A393*39
$YXXDR,A,0.20,D,Pitch,A,0.25,D,Roll*31
$YXXDR,D,0.18,M,Heave*0E
$AGRSA,1.26,A,,V*4A
$VWVLW,7525.53,N,7525.53,N*4C
$HCHDG,205.47,,,0.55,E*2D
$HCHDG,207.00,,,,*77
$TIROT,0.90,A*02
$TIROT,-0.34,A*21
$YXXDR,A,0.20,D,Pitch,A,0.28,D,Roll*3C
$YXXDR,D,0.18,M,Heave*0E
$PLCJE8FC8,69A6,2A00,2162,00,*75
$AGRSA,1.26,A,,V*4A
$HCHDG,205.47,,,0.55,E*2D
$HCHDG,207.00,,,,*77
$TIROT,0.88,A*0B
$TIROT,0.26,A*0F
$YXXDR,A,0.20,D,Pitch,A,0.25,D,Roll*31
$YXXDR,D,0.18,M,Heave*0E
$AGRSA,1.26,A,,V*4A
$WIMTW,7.69,C*05
$IIMWV,140.0,R,004.8,N,A*34
!AIVDM,1,1,,A,33IJop0000wiTRpK5pk>46tb21s@,0*2D
$HCHDG,205.47,,,0.55,E*2D
$HCHDG,207.00,,,,*77
$TIROT,1.07,A*0D
$TIROT,0.40,A*0F
$YXXDR,A,0.20,D,Pitch,A,0.24,D,Roll*30
$YXXDR,D,0.18,M,Heave*0E
$VDVBW,0.00,,A,,,A,,A,,A*4F
$AGRSA,1.22,A,,V*4E
$WIXDR,C,008.0,C,,*5A
$HCHDG,205.47,,,0.55,E*2D
$HCHDG,207.00,,,,*77
$TIROT,0.45,A*0A
$TIROT,0.77,A*0B
$YXXDR,A,0.21,D,Pitch,A,0.24,D,Roll*31
$YXXDR,D,0.18,M,Heave*0E
$AGRSA,1.26,A,,V*4A
$GPRMC,130221.000,A,4735.66016,N,00258.87018,W,0.00,,201125,,,D*6A
$HCHDG,205.47,,,0.55,E*2D
$HCHDG,207.01,,,,*76
$TIROT,-0.29,A*2D
$TIROT,-1.79,A*29
$PLCJ,64E8,6510,AA,7281,F393*37
$YXXDR,A,0.20,D,Pitch,A,0.26,D,Roll*32
$YXXDR,D,0.18,M,Heave*0E
$AGRSA,1.30,A,,V*4D
$HCHDG,205.47,,,0.55,E*2D
$HCHDG,207.01,,,,*76
$TIROT,-0.04,A*22
$TIROT,-0.01,A*27
$YXXDR,A,0.20,D,Pitch,A,0.25,D,Roll*31
$YXXDR,D,0.18,M,Heave*0E
$AGRSA,1.26,A,,V*4A
$PLCJE8FC8,69A6,2A00,2162,00,*75
$HCHDG,205.47,,,0.55,E*2D
$HCHDG,207.01,,,,*76
$TIROT,-0.13,A*24
$TIROT,0.04,A*0F
$YXXDR,A,0.21,D,Pitch,A,0.24,D,Roll*31
$YXXDR,D,0.18,M,Heave*0E
$AGRSA,1.26,A,,V*4A
$IIMWV,144.0,R,005.3,N,A*3A
$HCHDG,205.47,,,0.55,E*2D
$HCHDG,207.02,,,,*75
$TIROT,-0.39,A*2C
$TIROT,0.58,A*06
$YXXDR,A,0.20,D,Pitch,A,0.25,D,Roll*31
$YXXDR,D,0.18,M,Heave*0E
$GPRMC,130222.201,A,4735.66016,N,00258.87348,W,0.00,,201125,0.55,E,A*32
$VDVBW,0.00,,A,,,A,,A,,A*4F
$AGRSA,1.26,A,,V*4A
$YXXDR,A,-10.42,D,Pitch,A,-0.21,D,Roll*00
$HCHDG,205.47,,,0.55,E*2D
$HCHDG,207.02,,,,*75
$TIROT,0.62,A*0F
$TIROT,0.05,A*0E
$WIXDR,C,008.0,C,,*5A
$YXXDR,A,0.20,D,Pitch,A,0.26,D,Roll*32
$YXXDR,D,0.18,M,Heave*0E
$AGRSA,1.26,A,,V*4A
$HCHDG,205.47,,,0.55,E*2D
$HCHDG,207.02,,,,*75
$TIROT,0.36,A*0E
$TIROT,-0.88,A*26
$VWVHW,,T,,M,0.00,N,0.00,K*54
$YXXDR,A,0.20,D,Pitch,A,0.26,D,Roll*32
$YXXDR,D,0.18,M,Heave*0E
$AGRSA,1.26,A,,V*4A
$VWVLW,7525.53,N,7525.53,N*4C
$PLCJ,6501,65F3,3C,9394,93A3*42
$HCHDG,205.47,,,0.55,E*2D
$HCHDG,207.02,,,,*75
$TIROT,1.28,A*00
$TIROT,-0.40,A*22
$YXXDR,A,0.21,D,Pitch,A,0.26,D,Roll*33
$YXXDR,D,0.18,M,Heave*0E
$AGRSA,1.22,A,,V*4E
$HCHDG,205.47,,,0.55,E*2D
$HCHDG,207.02,,,,*75
$TIROT,0.36,A*0E
$TIROT,1.35,A*0C
$PLCJE8FC8,69A6,2A00,2162,00,*75
$YXXDR,A,0.20,D,Pitch,A,0.25,D,Roll*31
$YXXDR,D,0.18,M,Heave*0E
$AGRSA,1.26,A,,V*4A
$WIMTW,7.69,C*05
$HCHDG,205.47,,,0.55,E*2D
$HCHDG,207.02,,,,*75
$TIROT,-0.84,A*2A
$TIROT,-0.85,A*2B
$IIMWV,147.0,R,005.7,N,A*3D
$YXXDR,A,0.18,D,Pitch,A,0.25,D,Roll*3A
$YXXDR,D,0.18,M,Heave*0E
$VDVBW,0.00,,A,,,A,,A,,A*4F
$AGRSA,1.22,A,,V*4E
$HCHDG,205.47,,,0.55,E*2D
$HCHDG,207.02,,,,*75
$TIROT,0.93,A*01
$TIROT,0.06,A*0D
$YXXDR,A,0.19,D,Pitch,A,0.27,D,Roll*39
$YXXDR,D,0.18,M,Heave*0E
$AGRSA,1.22,A,,V*4E
$WIXDR,C,008.0,C,,*5A
!AIVDM,1,1,,A,13I?rj0=Aewj?flK9e`aQwvd28=K,0*15
$GPRMC,130222.000,A,4735.66035,N,00258.87029,W,0.00,,201125,,,D*6A
$HCHDG,205.47,,,0.55,E*2D
$HCHDG,207.02,,,,*75
$TIROT,-0.35,A*20
$TIROT,1.34,A*0D
$YXXDR,A,0.19,D,Pitch,A,0.28,D,Roll*36
$YXXDR,D,0.18,M,Heave*0E
$AGRSA,1.26,A,,V*4A
$PLCJ,6503,65F1,3C,A373,9393*4B
$HCHDG,205.47,,,0.55,E*2D
$HCHDG,207.02,,,,*75
$TIROT,-0.48,A*2A
$TIROT,-0.44,A*26
$YXXDR,A,0.20,D,Pitch,A,0.24,D,Roll*30
$YXXDR,D,0.17,M,Heave*01
$AGRSA,1.26,A,,V*4A
$HCHDG,205.47,,,0.55,E*2D
$HCHDG,207.02,,,,*75
$TIROT,0.36,A*0E
$TIROT,0.09,A*02
